{"value": [{"zip_code":"47161","country":"US","city":"New Salisbury","state":"Indiana","state_ab":"IN","county":"Harrison","geo_location":{ "type": "Point", "coordinates": [-86.0887, 38.3399] }},
{"zip_code":"46904","country":"US","city":"Kokomo","state":"Indiana","state_ab":"IN","county":"Howard","geo_location":{ "type": "Point", "coordinates": [-86.1189, 40.4696] }},
{"zip_code":"47264","country":"US","city":"Norman","state":"Indiana","state_ab":"IN","county":"Jackson","geo_location":{ "type": "Point", "coordinates": [-86.2079, 38.93] }},
{"zip_code":"47381","country":"US","city":"Salamonia","state":"Indiana","state_ab":"IN","county":"Jay","geo_location":{ "type": "Point", "coordinates": [-84.8669, 40.3818] }},
{"zip_code":"47224","country":"US","city":"Canaan","state":"Indiana","state_ab":"IN","county":"Jefferson","geo_location":{ "type": "Point", "coordinates": [-85.2213, 38.887] }},
{"zip_code":"46131","country":"US","city":"Franklin","state":"Indiana","state_ab":"IN","county":"Johnson","geo_location":{ "type": "Point", "coordinates": [-86.0608, 39.4854] }},
{"zip_code":"46184","country":"US","city":"Whiteland","state":"Indiana","state_ab":"IN","county":"Johnson","geo_location":{ "type": "Point", "coordinates": [-86.0723, 39.5611] }},
{"zip_code":"47561","country":"US","city":"Oaktown","state":"Indiana","state_ab":"IN","county":"Knox","geo_location":{ "type": "Point", "coordinates": [-87.3879, 38.8579] }},
{"zip_code":"47587","country":"US","city":"Tobinsport","state":"Indiana","state_ab":"IN","county":"Knox County","geo_location":{ "type": "Point", "coordinates": [-86.6341, 37.8747] }},
{"zip_code":"46571","country":"US","city":"Topeka","state":"Indiana","state_ab":"IN","county":"LaGrange","geo_location":{ "type": "Point", "coordinates": [-85.5317, 41.5634] }},
{"zip_code":"46311","country":"US","city":"Dyer","state":"Indiana","state_ab":"IN","county":"Lake","geo_location":{ "type": "Point", "coordinates": [-87.5108, 41.492] }},
{"zip_code":"46324","country":"US","city":"Hammond","state":"Indiana","state_ab":"IN","county":"Lake","geo_location":{ "type": "Point", "coordinates": [-87.5034, 41.584] }},
{"zip_code":"46377","country":"US","city":"Shelby","state":"Indiana","state_ab":"IN","county":"Lake","geo_location":{ "type": "Point", "coordinates": [-87.3398, 41.1917] }},
{"zip_code":"46401","country":"US","city":"Gary","state":"Indiana","state_ab":"IN","county":"Lake","geo_location":{ "type": "Point", "coordinates": [-87.3199, 41.5907] }},
{"zip_code":"46391","country":"US","city":"Westville","state":"Indiana","state_ab":"IN","county":"LaPorte","geo_location":{ "type": "Point", "coordinates": [-86.9013, 41.5365] }},
{"zip_code":"46001","country":"US","city":"Alexandria","state":"Indiana","state_ab":"IN","county":"Madison","geo_location":{ "type": "Point", "coordinates": [-85.6681, 40.2561] }},
{"zip_code":"46014","country":"US","city":"Anderson","state":"Indiana","state_ab":"IN","county":"Madison","geo_location":{ "type": "Point", "coordinates": [-85.7197, 40.1617] }},
{"zip_code":"46207","country":"US","city":"Indianapolis","state":"Indiana","state_ab":"IN","county":"Marion","geo_location":{ "type": "Point", "coordinates": [-86.1606, 39.7673] }},
{"zip_code":"46221","country":"US","city":"Indianapolis","state":"Indiana","state_ab":"IN","county":"Marion","geo_location":{ "type": "Point", "coordinates": [-86.1924, 39.7509] }},
{"zip_code":"46234","country":"US","city":"Indianapolis","state":"Indiana","state_ab":"IN","county":"Marion","geo_location":{ "type": "Point", "coordinates": [-86.3163, 39.8088] }},
{"zip_code":"46247","country":"US","city":"Indianapolis","state":"Indiana","state_ab":"IN","county":"Marion","geo_location":{ "type": "Point", "coordinates": [-86.1328, 39.7795] }},
{"zip_code":"46274","country":"US","city":"Indianapolis","state":"Indiana","state_ab":"IN","county":"Marion","geo_location":{ "type": "Point", "coordinates": [-86.1328, 39.7795] }},
{"zip_code":"46504","country":"US","city":"Bourbon","state":"Indiana","state_ab":"IN","county":"Marshall","geo_location":{ "type": "Point", "coordinates": [-86.1174, 41.3098] }},
{"zip_code":"46971","country":"US","city":"Grissom Arb","state":"Indiana","state_ab":"IN","county":"Miami","geo_location":{ "type": "Point", "coordinates": [-86.1378, 40.6683] }},
{"zip_code":"47404","country":"US","city":"Bloomington","state":"Indiana","state_ab":"IN","county":"Monroe","geo_location":{ "type": "Point", "coordinates": [-86.5757, 39.195] }},
{"zip_code":"47934","country":"US","city":"Crawfordsville","state":"Indiana","state_ab":"IN","county":"Montgomery","geo_location":{ "type": "Point", "coordinates": [-86.8936, 40.04] }},
{"zip_code":"46157","country":"US","city":"Monrovia","state":"Indiana","state_ab":"IN","county":"Morgan","geo_location":{ "type": "Point", "coordinates": [-86.4894, 39.5714] }},
{"zip_code":"47431","country":"US","city":"Freedom","state":"Indiana","state_ab":"IN","county":"Owen","geo_location":{ "type": "Point", "coordinates": [-86.85, 39.2151] }},
{"zip_code":"47574","country":"US","city":"Rome","state":"Indiana","state_ab":"IN","county":"Perry","geo_location":{ "type": "Point", "coordinates": [-86.534, 37.9372] }},
{"zip_code":"46171","country":"US","city":"Reelsville","state":"Indiana","state_ab":"IN","county":"Putnam","geo_location":{ "type": "Point", "coordinates": [-86.95, 39.5464] }},
{"zip_code":"47354","country":"US","city":"Losantville","state":"Indiana","state_ab":"IN","county":"Randolph","geo_location":{ "type": "Point", "coordinates": [-85.2108, 40.0475] }},
{"zip_code":"47394","country":"US","city":"Winchester","state":"Indiana","state_ab":"IN","county":"Randolph","geo_location":{ "type": "Point", "coordinates": [-85.0044, 40.1696] }},
{"zip_code":"47017","country":"US","city":"Cross Plains","state":"Indiana","state_ab":"IN","county":"Ripley","geo_location":{ "type": "Point", "coordinates": [-85.2122, 38.949] }},
{"zip_code":"47031","country":"US","city":"Milan","state":"Indiana","state_ab":"IN","county":"Ripley","geo_location":{ "type": "Point", "coordinates": [-85.1324, 39.1503] }},
{"zip_code":"46104","country":"US","city":"Arlington","state":"Indiana","state_ab":"IN","county":"Rush","geo_location":{ "type": "Point", "coordinates": [-85.5828, 39.6488] }},
{"zip_code":"46544","country":"US","city":"Mishawaka","state":"Indiana","state_ab":"IN","county":"St. Joseph","geo_location":{ "type": "Point", "coordinates": [-86.1623, 41.6507] }},
{"zip_code":"46634","country":"US","city":"South Bend","state":"Indiana","state_ab":"IN","county":"St. Joseph","geo_location":{ "type": "Point", "coordinates": [-86.293, 41.5968] }},
{"zip_code":"46144","country":"US","city":"Gwynneville","state":"Indiana","state_ab":"IN","county":"Shelby","geo_location":{ "type": "Point", "coordinates": [-85.6476, 39.6617] }},
{"zip_code":"47611","country":"US","city":"Chrisney","state":"Indiana","state_ab":"IN","county":"Spencer","geo_location":{ "type": "Point", "coordinates": [-87.0704, 38.006] }},
{"zip_code":"46531","country":"US","city":"Grovertown","state":"Indiana","state_ab":"IN","county":"Starke","geo_location":{ "type": "Point", "coordinates": [-86.5243, 41.3496] }},
{"zip_code":"46737","country":"US","city":"Fremont","state":"Indiana","state_ab":"IN","county":"Steuben","geo_location":{ "type": "Point", "coordinates": [-84.9452, 41.7331] }},
{"zip_code":"47907","country":"US","city":"West Lafayette","state":"Indiana","state_ab":"IN","county":"Tippecanoe","geo_location":{ "type": "Point", "coordinates": [-86.9162, 40.4249] }},
{"zip_code":"47701","country":"US","city":"Evansville","state":"Indiana","state_ab":"IN","county":"Vanderburgh","geo_location":{ "type": "Point", "coordinates": [-87.575, 37.9971] }},
{"zip_code":"47714","country":"US","city":"Evansville","state":"Indiana","state_ab":"IN","county":"Vanderburgh","geo_location":{ "type": "Point", "coordinates": [-87.5293, 37.9591] }},
{"zip_code":"47727","country":"US","city":"Evansville","state":"Indiana","state_ab":"IN","county":"Vanderburgh","geo_location":{ "type": "Point", "coordinates": [-87.5389, 38.0319] }},
{"zip_code":"47741","country":"US","city":"Evansville","state":"Indiana","state_ab":"IN","county":"Vanderburgh","geo_location":{ "type": "Point", "coordinates": [-87.575, 37.9971] }},
{"zip_code":"47831","country":"US","city":"Blanford","state":"Indiana","state_ab":"IN","county":"Vermillion","geo_location":{ "type": "Point", "coordinates": [-87.4436, 39.8778] }},
{"zip_code":"47884","country":"US","city":"Universal","state":"Indiana","state_ab":"IN","county":"Vermillion","geo_location":{ "type": "Point", "coordinates": [-87.4548, 39.6221] }},
{"zip_code":"47974","country":"US","city":"Perrysville","state":"Indiana","state_ab":"IN","county":"Vermillion","geo_location":{ "type": "Point", "coordinates": [-87.4648, 40.0737] }},
{"zip_code":"47804","country":"US","city":"Terre Haute","state":"Indiana","state_ab":"IN","county":"Vigo","geo_location":{ "type": "Point", "coordinates": [-87.3945, 39.4937] }},
{"zip_code":"47871","country":"US","city":"Riley","state":"Indiana","state_ab":"IN","county":"Vigo","geo_location":{ "type": "Point", "coordinates": [-87.3014, 39.3886] }},
{"zip_code":"46984","country":"US","city":"Somerset","state":"Indiana","state_ab":"IN","county":"Wabash","geo_location":{ "type": "Point", "coordinates": [-85.8288, 40.6714] }},
{"zip_code":"47637","country":"US","city":"Tennyson","state":"Indiana","state_ab":"IN","county":"Warrick","geo_location":{ "type": "Point", "coordinates": [-87.1388, 38.1232] }},
{"zip_code":"47327","country":"US","city":"Cambridge City","state":"Indiana","state_ab":"IN","county":"Wayne","geo_location":{ "type": "Point", "coordinates": [-85.1685, 39.8182] }},
{"zip_code":"47341","country":"US","city":"Fountain City","state":"Indiana","state_ab":"IN","county":"Wayne","geo_location":{ "type": "Point", "coordinates": [-84.909, 39.9634] }},
{"zip_code":"46777","country":"US","city":"Ossian","state":"Indiana","state_ab":"IN","county":"Wells","geo_location":{ "type": "Point", "coordinates": [-85.157, 40.8806] }},
{"zip_code":"46791","country":"US","city":"Uniondale","state":"Indiana","state_ab":"IN","county":"Wells","geo_location":{ "type": "Point", "coordinates": [-85.2403, 40.8369] }},
{"zip_code":"46764","country":"US","city":"Larwill","state":"Indiana","state_ab":"IN","county":"Whitley","geo_location":{ "type": "Point", "coordinates": [-85.6139, 41.1646] }},
{"zip_code":"67567","country":"US","city":"Pawnee Rock","state":"Kansas","state_ab":"KS","county":"Barton","geo_location":{ "type": "Point", "coordinates": [-98.9814, 38.2782] }},
{"zip_code":"66434","country":"US","city":"Hiawatha","state":"Kansas","state_ab":"KS","county":"Brown","geo_location":{ "type": "Point", "coordinates": [-95.6004, 39.7914] }},
{"zip_code":"67154","country":"US","city":"Whitewater","state":"Kansas","state_ab":"KS","county":"Butler","geo_location":{ "type": "Point", "coordinates": [-97.1308, 37.9612] }},
{"zip_code":"67024","country":"US","city":"Cedar Vale","state":"Kansas","state_ab":"KS","county":"Chautauqua","geo_location":{ "type": "Point", "coordinates": [-96.4701, 37.1265] }},
{"zip_code":"67334","country":"US","city":"Chautauqua","state":"Kansas","state_ab":"KS","county":"Chautauqua","geo_location":{ "type": "Point", "coordinates": [-96.1783, 37.0262] }},
{"zip_code":"67361","country":"US","city":"Sedan","state":"Kansas","state_ab":"KS","county":"Chautauqua","geo_location":{ "type": "Point", "coordinates": [-96.1732, 37.1297] }},
{"zip_code":"67127","country":"US","city":"Protection","state":"Kansas","state_ab":"KS","county":"Comanche","geo_location":{ "type": "Point", "coordinates": [-99.4816, 37.1968] }},
{"zip_code":"67451","country":"US","city":"Hope","state":"Kansas","state_ab":"KS","county":"Dickinson","geo_location":{ "type": "Point", "coordinates": [-97.1061, 38.6776] }},
{"zip_code":"66087","country":"US","city":"Troy","state":"Kansas","state_ab":"KS","county":"Doniphan","geo_location":{ "type": "Point", "coordinates": [-95.1434, 39.7906] }},
{"zip_code":"66047","country":"US","city":"Lawrence","state":"Kansas","state_ab":"KS","county":"Douglas","geo_location":{ "type": "Point", "coordinates": [-95.2779, 38.9407] }},
{"zip_code":"67671","country":"US","city":"Victoria","state":"Kansas","state_ab":"KS","county":"Ellis","geo_location":{ "type": "Point", "coordinates": [-99.1391, 38.8589] }},
{"zip_code":"67851","country":"US","city":"Holcomb","state":"Kansas","state_ab":"KS","county":"Finney","geo_location":{ "type": "Point", "coordinates": [-100.9893, 37.9931] }},
{"zip_code":"67837","country":"US","city":"Copeland","state":"Kansas","state_ab":"KS","county":"Gray","geo_location":{ "type": "Point", "coordinates": [-100.6148, 37.568] }},
{"zip_code":"67114","country":"US","city":"Newton","state":"Kansas","state_ab":"KS","county":"Harvey","geo_location":{ "type": "Point", "coordinates": [-97.3435, 38.0451] }},
{"zip_code":"67877","country":"US","city":"Sublette","state":"Kansas","state_ab":"KS","county":"Haskell","geo_location":{ "type": "Point", "coordinates": [-100.8208, 37.5221] }},
{"zip_code":"66021","country":"US","city":"Edgerton","state":"Kansas","state_ab":"KS","county":"Johnson","geo_location":{ "type": "Point", "coordinates": [-95.0094, 38.7811] }},
{"zip_code":"66061","country":"US","city":"Olathe","state":"Kansas","state_ab":"KS","county":"Johnson","geo_location":{ "type": "Point", "coordinates": [-94.8204, 38.8865] }},
{"zip_code":"66201","country":"US","city":"Shawnee Mission","state":"Kansas","state_ab":"KS","county":"Johnson","geo_location":{ "type": "Point", "coordinates": [-94.6795, 39.0078] }},
{"zip_code":"66214","country":"US","city":"Shawnee Mission","state":"Kansas","state_ab":"KS","county":"Johnson","geo_location":{ "type": "Point", "coordinates": [-94.7209, 38.9649] }},
{"zip_code":"66227","country":"US","city":"Shawnee Mission","state":"Kansas","state_ab":"KS","county":"Johnson","geo_location":{ "type": "Point", "coordinates": [-94.8681, 38.9747] }},
{"zip_code":"66007","country":"US","city":"Basehor","state":"Kansas","state_ab":"KS","county":"Leavenworth","geo_location":{ "type": "Point", "coordinates": [-94.957, 39.1281] }},
{"zip_code":"67747","country":"US","city":"Monument","state":"Kansas","state_ab":"KS","county":"Logan","geo_location":{ "type": "Point", "coordinates": [-101.035, 39.079] }},
{"zip_code":"67464","country":"US","city":"Marquette","state":"Kansas","state_ab":"KS","county":"McPherson","geo_location":{ "type": "Point", "coordinates": [-97.8381, 38.556] }},
{"zip_code":"67491","country":"US","city":"Windom","state":"Kansas","state_ab":"KS","county":"McPherson","geo_location":{ "type": "Point", "coordinates": [-97.8965, 38.3845] }},
{"zip_code":"66861","country":"US","city":"Marion","state":"Kansas","state_ab":"KS","county":"Marion","geo_location":{ "type": "Point", "coordinates": [-97.0204, 38.3554] }},
{"zip_code":"67864","country":"US","city":"Meade","state":"Kansas","state_ab":"KS","county":"Meade","geo_location":{ "type": "Point", "coordinates": [-100.3364, 37.2821] }},
{"zip_code":"67347","country":"US","city":"Havana","state":"Kansas","state_ab":"KS","county":"Montgomery","geo_location":{ "type": "Point", "coordinates": [-95.9414, 37.0917] }},
{"zip_code":"67954","country":"US","city":"Rolla","state":"Kansas","state_ab":"KS","county":"Morton","geo_location":{ "type": "Point", "coordinates": [-101.6447, 37.1089] }},
{"zip_code":"66771","country":"US","city":"Saint Paul","state":"Kansas","state_ab":"KS","county":"Neosho","geo_location":{ "type": "Point", "coordinates": [-95.1688, 37.518] }},
{"zip_code":"66524","country":"US","city":"Overbrook","state":"Kansas","state_ab":"KS","county":"Osage","geo_location":{ "type": "Point", "coordinates": [-95.5616, 38.7922] }},
{"zip_code":"66537","country":"US","city":"Scranton","state":"Kansas","state_ab":"KS","county":"Osage","geo_location":{ "type": "Point", "coordinates": [-95.748, 38.788] }},
{"zip_code":"67437","country":"US","city":"Downs","state":"Kansas","state_ab":"KS","county":"Osborne","geo_location":{ "type": "Point", "coordinates": [-98.5441, 39.5028] }},
{"zip_code":"67644","country":"US","city":"Kirwin","state":"Kansas","state_ab":"KS","county":"Phillips","geo_location":{ "type": "Point", "coordinates": [-99.1204, 39.6717] }},
{"zip_code":"66407","country":"US","city":"Belvue","state":"Kansas","state_ab":"KS","county":"Pottawatomie","geo_location":{ "type": "Point", "coordinates": [-96.1866, 39.2273] }},
{"zip_code":"66551","country":"US","city":"Wheaton","state":"Kansas","state_ab":"KS","county":"Pottawatomie","geo_location":{ "type": "Point", "coordinates": [-96.2576, 39.4717] }},
{"zip_code":"67501","country":"US","city":"Hutchinson","state":"Kansas","state_ab":"KS","county":"Reno","geo_location":{ "type": "Point", "coordinates": [-97.9311, 38.055] }},
{"zip_code":"67514","country":"US","city":"Arlington","state":"Kansas","state_ab":"KS","county":"Reno","geo_location":{ "type": "Point", "coordinates": [-98.159, 37.8598] }},
{"zip_code":"67581","country":"US","city":"Sylvia","state":"Kansas","state_ab":"KS","county":"Reno","geo_location":{ "type": "Point", "coordinates": [-98.4068, 37.9557] }},
{"zip_code":"66964","country":"US","city":"Republic","state":"Kansas","state_ab":"KS","county":"Republic","geo_location":{ "type": "Point", "coordinates": [-97.8435, 39.9376] }},
{"zip_code":"67554","country":"US","city":"Lyons","state":"Kansas","state_ab":"KS","county":"Rice","geo_location":{ "type": "Point", "coordinates": [-98.1831, 38.3349] }},
{"zip_code":"67657","country":"US","city":"Palco","state":"Kansas","state_ab":"KS","county":"Rooks","geo_location":{ "type": "Point", "coordinates": [-99.5593, 39.2531] }},
{"zip_code":"67037","country":"US","city":"Derby","state":"Kansas","state_ab":"KS","county":"Sedgwick","geo_location":{ "type": "Point", "coordinates": [-97.2549, 37.553] }},
{"zip_code":"67101","country":"US","city":"Maize","state":"Kansas","state_ab":"KS","county":"Sedgwick","geo_location":{ "type": "Point", "coordinates": [-97.4689, 37.7747] }},
{"zip_code":"67204","country":"US","city":"Wichita","state":"Kansas","state_ab":"KS","county":"Sedgwick","geo_location":{ "type": "Point", "coordinates": [-97.3566, 37.7488] }},
{"zip_code":"67217","country":"US","city":"Wichita","state":"Kansas","state_ab":"KS","county":"Sedgwick","geo_location":{ "type": "Point", "coordinates": [-97.3581, 37.6266] }},
{"zip_code":"67231","country":"US","city":"Wichita","state":"Kansas","state_ab":"KS","county":"Sedgwick","geo_location":{ "type": "Point", "coordinates": [-97.4102, 37.5567] }},
{"zip_code":"67257","country":"US","city":"Wichita","state":"Kansas","state_ab":"KS","county":"Sedgwick","geo_location":{ "type": "Point", "coordinates": [-97.4804, 37.6936] }},
{"zip_code":"67901","country":"US","city":"Liberal","state":"Kansas","state_ab":"KS","county":"Seward","geo_location":{ "type": "Point", "coordinates": [-100.9286, 37.0438] }},
{"zip_code":"66601","country":"US","city":"Topeka","state":"Kansas","state_ab":"KS","county":"Shawnee","geo_location":{ "type": "Point", "coordinates": [-95.7807, 38.9881] }},
{"zip_code":"66614","country":"US","city":"Topeka","state":"Kansas","state_ab":"KS","county":"Shawnee","geo_location":{ "type": "Point", "coordinates": [-95.7469, 39.0154] }},
{"zip_code":"66667","country":"US","city":"Topeka","state":"Kansas","state_ab":"KS","county":"Shawnee","geo_location":{ "type": "Point", "coordinates": [-95.7697, 39.0429] }},
{"zip_code":"66951","country":"US","city":"Kensington","state":"Kansas","state_ab":"KS","county":"Smith","geo_location":{ "type": "Point", "coordinates": [-99.0308, 39.7692] }},
{"zip_code":"67051","country":"US","city":"Geuda Springs","state":"Kansas","state_ab":"KS","county":"Sumner","geo_location":{ "type": "Point", "coordinates": [-97.1795, 37.0809] }},
{"zip_code":"67734","country":"US","city":"Gem","state":"Kansas","state_ab":"KS","county":"Thomas","geo_location":{ "type": "Point", "coordinates": [-100.8948, 39.4296] }},
{"zip_code":"67631","country":"US","city":"Collyer","state":"Kansas","state_ab":"KS","county":"Trego","geo_location":{ "type": "Point", "coordinates": [-100.0862, 39.0038] }},
{"zip_code":"66834","country":"US","city":"Alta Vista","state":"Kansas","state_ab":"KS","county":"Wabaunsee","geo_location":{ "type": "Point", "coordinates": [-96.48, 38.8636] }},
{"zip_code":"67761","country":"US","city":"Wallace","state":"Kansas","state_ab":"KS","county":"Wallace","geo_location":{ "type": "Point", "coordinates": [-101.5735, 38.8747] }},
{"zip_code":"66937","country":"US","city":"Clifton","state":"Kansas","state_ab":"KS","county":"Washington","geo_location":{ "type": "Point", "coordinates": [-97.2611, 39.6201] }},
{"zip_code":"66717","country":"US","city":"Buffalo","state":"Kansas","state_ab":"KS","county":"Wilson","geo_location":{ "type": "Point", "coordinates": [-95.7014, 37.7011] }},
{"zip_code":"66757","country":"US","city":"Neodesha","state":"Kansas","state_ab":"KS","county":"Wilson","geo_location":{ "type": "Point", "coordinates": [-95.6765, 37.4257] }},
{"zip_code":"66111","country":"US","city":"Kansas City","state":"Kansas","state_ab":"KS","county":"Wyandotte","geo_location":{ "type": "Point", "coordinates": [-94.7806, 39.0803] }},
{"zip_code":"42131","country":"US","city":"Etoile","state":"Kentucky","state_ab":"KY","county":"Barren","geo_location":{ "type": "Point", "coordinates": [-85.9173, 36.8134] }},
{"zip_code":"40371","country":"US","city":"Salt Lick","state":"Kentucky","state_ab":"KY","county":"Bath","geo_location":{ "type": "Point", "coordinates": [-83.6316, 38.104] }},
{"zip_code":"40977","country":"US","city":"Pineville","state":"Kentucky","state_ab":"KY","county":"Bell","geo_location":{ "type": "Point", "coordinates": [-83.7668, 36.7159] }},
{"zip_code":"41091","country":"US","city":"Union","state":"Kentucky","state_ab":"KY","county":"Boone","geo_location":{ "type": "Point", "coordinates": [-84.7274, 38.9435] }},
{"zip_code":"41901","country":"US","city":"Migrate","state":"Kentucky","state_ab":"KY","county":"Boone County","geo_location":{ "type": "Point", "coordinates": [-84.5027, 38.0638] }},
{"zip_code":"40357","country":"US","city":"North Middletown","state":"Kentucky","state_ab":"KY","county":"Bourbon","geo_location":{ "type": "Point", "coordinates": [-84.1077, 38.1464] }},
{"zip_code":"41101","country":"US","city":"Ashland","state":"Kentucky","state_ab":"KY","county":"Boyd","geo_location":{ "type": "Point", "coordinates": [-82.6461, 38.4722] }},
{"zip_code":"41114","country":"US","city":"Ashland","state":"Kentucky","state_ab":"KY","county":"Boyd","geo_location":{ "type": "Point", "coordinates": [-82.6948, 38.3703] }},
{"zip_code":"41307","country":"US","city":"Athol","state":"Kentucky","state_ab":"KY","county":"Breathitt","geo_location":{ "type": "Point", "coordinates": [-83.2643, 37.515] }},
{"zip_code":"40111","country":"US","city":"Cloverport","state":"Kentucky","state_ab":"KY","county":"Breckinridge","geo_location":{ "type": "Point", "coordinates": [-86.6282, 37.7731] }},
{"zip_code":"40164","country":"US","city":"Se Ree","state":"Kentucky","state_ab":"KY","county":"Breckinridge","geo_location":{ "type": "Point", "coordinates": [-86.3992, 37.676] }},
{"zip_code":"40047","country":"US","city":"Mount Washington","state":"Kentucky","state_ab":"KY","county":"Bullitt","geo_location":{ "type": "Point", "coordinates": [-85.5586, 38.0452] }},
{"zip_code":"42261","country":"US","city":"Morgantown","state":"Kentucky","state_ab":"KY","county":"Butler","geo_location":{ "type": "Point", "coordinates": [-86.6859, 37.2002] }},
{"zip_code":"42287","country":"US","city":"Welchs Creek","state":"Kentucky","state_ab":"KY","county":"Butler","geo_location":{ "type": "Point", "coordinates": [-86.523, 37.3183] }},
{"zip_code":"42054","country":"US","city":"Kirksey","state":"Kentucky","state_ab":"KY","county":"Calloway","geo_location":{ "type": "Point", "coordinates": [-88.4238, 36.6731] }},
{"zip_code":"41181","country":"US","city":"Willard","state":"Kentucky","state_ab":"KY","county":"Carter","geo_location":{ "type": "Point", "coordinates": [-82.9076, 38.2045] }},
{"zip_code":"42221","country":"US","city":"Fairview","state":"Kentucky","state_ab":"KY","county":"Christian","geo_location":{ "type": "Point", "coordinates": [-87.4965, 36.8981] }},
{"zip_code":"40951","country":"US","city":"Hima","state":"Kentucky","state_ab":"KY","county":"Clay","geo_location":{ "type": "Point", "coordinates": [-83.737, 37.1477] }},
{"zip_code":"42711","country":"US","city":"Bakerton","state":"Kentucky","state_ab":"KY","county":"Cumberland","geo_location":{ "type": "Point", "coordinates": [-85.3317, 36.8712] }},
{"zip_code":"42377","country":"US","city":"West Louisville","state":"Kentucky","state_ab":"KY","county":"Daviess","geo_location":{ "type": "Point", "coordinates": [-87.1128, 37.7455] }},
{"zip_code":"42207","country":"US","city":"Bee Spring","state":"Kentucky","state_ab":"KY","county":"Edmonson","geo_location":{ "type": "Point", "coordinates": [-86.2794, 37.2975] }},
{"zip_code":"40511","country":"US","city":"Lexington","state":"Kentucky","state_ab":"KY","county":"Fayette","geo_location":{ "type": "Point", "coordinates": [-84.5007, 38.0932] }},
{"zip_code":"40524","country":"US","city":"Lexington","state":"Kentucky","state_ab":"KY","county":"Fayette","geo_location":{ "type": "Point", "coordinates": [-84.4715, 38.0283] }},
{"zip_code":"40577","country":"US","city":"Lexington","state":"Kentucky","state_ab":"KY","county":"Fayette","geo_location":{ "type": "Point", "coordinates": [-84.4715, 38.0283] }},
{"zip_code":"40591","country":"US","city":"Lexington","state":"Kentucky","state_ab":"KY","county":"Fayette","geo_location":{ "type": "Point", "coordinates": [-84.4715, 38.0283] }},
{"zip_code":"41037","country":"US","city":"Elizaville","state":"Kentucky","state_ab":"KY","county":"Fleming","geo_location":{ "type": "Point", "coordinates": [-83.7186, 38.3481] }},
{"zip_code":"41604","country":"US","city":"Beaver","state":"Kentucky","state_ab":"KY","county":"Floyd","geo_location":{ "type": "Point", "coordinates": [-82.6869, 37.3774] }},
{"zip_code":"41631","country":"US","city":"Grethel","state":"Kentucky","state_ab":"KY","county":"Floyd","geo_location":{ "type": "Point", "coordinates": [-82.6645, 37.4576] }},
{"zip_code":"40601","country":"US","city":"Frankfort","state":"Kentucky","state_ab":"KY","county":"Franklin","geo_location":{ "type": "Point", "coordinates": [-84.8697, 38.2281] }},
{"zip_code":"42041","country":"US","city":"Fulton","state":"Kentucky","state_ab":"KY","county":"Fulton","geo_location":{ "type": "Point", "coordinates": [-88.8749, 36.5475] }},
{"zip_code":"40461","country":"US","city":"Paint Lick","state":"Kentucky","state_ab":"KY","county":"Garrard","geo_location":{ "type": "Point", "coordinates": [-84.4269, 37.6092] }},
{"zip_code":"42027","country":"US","city":"Boaz","state":"Kentucky","state_ab":"KY","county":"Graves","geo_location":{ "type": "Point", "coordinates": [-88.6223, 36.93] }},
{"zip_code":"42351","country":"US","city":"Lewisport","state":"Kentucky","state_ab":"KY","county":"Hancock","geo_location":{ "type": "Point", "coordinates": [-86.8957, 37.909] }},
{"zip_code":"42364","country":"US","city":"Pellville","state":"Kentucky","state_ab":"KY","county":"Hancock","geo_location":{ "type": "Point", "coordinates": [-86.8048, 37.8272] }},
{"zip_code":"40177","country":"US","city":"West Point","state":"Kentucky","state_ab":"KY","county":"Hardin","geo_location":{ "type": "Point", "coordinates": [-85.9545, 37.9954] }},
{"zip_code":"42724","country":"US","city":"Cecilia","state":"Kentucky","state_ab":"KY","county":"Hardin","geo_location":{ "type": "Point", "coordinates": [-86.0545, 37.669] }},
{"zip_code":"40807","country":"US","city":"Benham","state":"Kentucky","state_ab":"KY","county":"Harlan","geo_location":{ "type": "Point", "coordinates": [-82.9553, 36.9712] }},
{"zip_code":"40847","country":"US","city":"Kenvir","state":"Kentucky","state_ab":"KY","county":"Harlan","geo_location":{ "type": "Point", "coordinates": [-83.1451, 36.8734] }},
{"zip_code":"40964","country":"US","city":"Mary Alice","state":"Kentucky","state_ab":"KY","county":"Harlan","geo_location":{ "type": "Point", "coordinates": [-83.1834, 36.843] }},
{"zip_code":"40007","country":"US","city":"Bethlehem","state":"Kentucky","state_ab":"KY","county":"Henry","geo_location":{ "type": "Point", "coordinates": [-85.0169, 38.4529] }},
{"zip_code":"42441","country":"US","city":"Nebo","state":"Kentucky","state_ab":"KY","county":"Hopkins","geo_location":{ "type": "Point", "coordinates": [-87.6865, 37.3683] }},
{"zip_code":"40421","country":"US","city":"Dabolt","state":"Kentucky","state_ab":"KY","county":"Jackson","geo_location":{ "type": "Point", "coordinates": [-83.9936, 37.416] }},
{"zip_code":"40434","country":"US","city":"Gray Hawk","state":"Kentucky","state_ab":"KY","county":"Jackson","geo_location":{ "type": "Point", "coordinates": [-83.9085, 37.3955] }},
{"zip_code":"40447","country":"US","city":"Mc Kee","state":"Kentucky","state_ab":"KY","county":"Jackson","geo_location":{ "type": "Point", "coordinates": [-84.0251, 37.4338] }},
{"zip_code":"40201","country":"US","city":"Louisville","state":"Kentucky","state_ab":"KY","county":"Jefferson","geo_location":{ "type": "Point", "coordinates": [-85.6768, 38.189] }},
{"zip_code":"40214","country":"US","city":"Louisville","state":"Kentucky","state_ab":"KY","county":"Jefferson","geo_location":{ "type": "Point", "coordinates": [-85.778, 38.1593] }},
{"zip_code":"40241","country":"US","city":"Louisville","state":"Kentucky","state_ab":"KY","county":"Jefferson","geo_location":{ "type": "Point", "coordinates": [-85.5815, 38.3045] }},
{"zip_code":"40281","country":"US","city":"Louisville","state":"Kentucky","state_ab":"KY","county":"Jefferson","geo_location":{ "type": "Point", "coordinates": [-85.6768, 38.189] }},
{"zip_code":"40294","country":"US","city":"Louisville","state":"Kentucky","state_ab":"KY","county":"Jefferson","geo_location":{ "type": "Point", "coordinates": [-85.6768, 38.189] }},
{"zip_code":"41204","country":"US","city":"Boons Camp","state":"Kentucky","state_ab":"KY","county":"Johnson","geo_location":{ "type": "Point", "coordinates": [-82.6704, 37.8216] }},
{"zip_code":"41257","country":"US","city":"Stambaugh","state":"Kentucky","state_ab":"KY","county":"Johnson","geo_location":{ "type": "Point", "coordinates": [-82.8034, 37.9166] }},
{"zip_code":"41271","country":"US","city":"Williamsport","state":"Kentucky","state_ab":"KY","county":"Johnson","geo_location":{ "type": "Point", "coordinates": [-82.7264, 37.8313] }},
{"zip_code":"41011","country":"US","city":"Covington","state":"Kentucky","state_ab":"KY","county":"Kenton","geo_location":{ "type": "Point", "coordinates": [-84.5212, 39.0708] }},
{"zip_code":"41051","country":"US","city":"Independence","state":"Kentucky","state_ab":"KY","county":"Kenton","geo_location":{ "type": "Point", "coordinates": [-84.5479, 38.9354] }},
{"zip_code":"41321","country":"US","city":"Decoy","state":"Kentucky","state_ab":"KY","county":"Knott County","geo_location":{ "type": "Point", "coordinates": [-83.029, 37.4905] }},
{"zip_code":"40771","country":"US","city":"Woodbine","state":"Kentucky","state_ab":"KY","county":"Knox","geo_location":{ "type": "Point", "coordinates": [-84.0347, 36.8586] }},
{"zip_code":"40911","country":"US","city":"Baughman","state":"Kentucky","state_ab":"KY","county":"Knox County","geo_location":{ "type": "Point", "coordinates": [-83.8003, 36.8647] }},
{"zip_code":"42764","country":"US","city":"Mount Sherman","state":"Kentucky","state_ab":"KY","county":"Larue","geo_location":{ "type": "Point", "coordinates": [-85.6191, 37.426] }},
{"zip_code":"40744","country":"US","city":"London","state":"Kentucky","state_ab":"KY","county":"Laurel","geo_location":{ "type": "Point", "coordinates": [-84.1131, 37.0995] }},
{"zip_code":"41347","country":"US","city":"Lone","state":"Kentucky","state_ab":"KY","county":"Lee","geo_location":{ "type": "Point", "coordinates": [-83.6008, 37.5442] }},
{"zip_code":"40874","country":"US","city":"Warbranch","state":"Kentucky","state_ab":"KY","county":"Leslie","geo_location":{ "type": "Point", "coordinates": [-83.4667, 36.984] }},
{"zip_code":"40861","country":"US","city":"Oven Fork","state":"Kentucky","state_ab":"KY","county":"Letcher County","geo_location":{ "type": "Point", "coordinates": [-82.8181, 37.0408] }},
{"zip_code":"41811","country":"US","city":"Crown","state":"Kentucky","state_ab":"KY","county":"Letcher County","geo_location":{ "type": "Point", "coordinates": [-82.8474, 37.1591] }},
{"zip_code":"41824","country":"US","city":"Isom","state":"Kentucky","state_ab":"KY","county":"Letcher","geo_location":{ "type": "Point", "coordinates": [-82.8754, 37.1932] }},
{"zip_code":"41837","country":"US","city":"Mayking","state":"Kentucky","state_ab":"KY","county":"Letcher","geo_location":{ "type": "Point", "coordinates": [-82.7427, 37.1302] }},
{"zip_code":"41127","country":"US","city":"Camp Dix","state":"Kentucky","state_ab":"KY","county":"Lewis","geo_location":{ "type": "Point", "coordinates": [-83.3616, 38.6029] }},
{"zip_code":"41141","country":"US","city":"Garrison","state":"Kentucky","state_ab":"KY","county":"Lewis","geo_location":{ "type": "Point", "coordinates": [-83.2, 38.5869] }},
{"zip_code":"42081","country":"US","city":"Smithland","state":"Kentucky","state_ab":"KY","county":"Livingston","geo_location":{ "type": "Point", "coordinates": [-88.3757, 37.2387] }},
{"zip_code":"42001","country":"US","city":"Paducah","state":"Kentucky","state_ab":"KY","county":"McCracken","geo_location":{ "type": "Point", "coordinates": [-88.6632, 37.0634] }},
{"zip_code":"42607","country":"US","city":"Beulah Heights","state":"Kentucky","state_ab":"KY","county":"McCreary County","geo_location":{ "type": "Point", "coordinates": [-84.4393, 36.804] }},
{"zip_code":"42634","country":"US","city":"Parkers Lake","state":"Kentucky","state_ab":"KY","county":"McCreary","geo_location":{ "type": "Point", "coordinates": [-84.4436, 36.8347] }},
{"zip_code":"42647","country":"US","city":"Stearns","state":"Kentucky","state_ab":"KY","county":"McCreary","geo_location":{ "type": "Point", "coordinates": [-84.5165, 36.7082] }},
{"zip_code":"41464","country":"US","city":"Royalton","state":"Kentucky","state_ab":"KY","county":"Magoffin","geo_location":{ "type": "Point", "coordinates": [-83.0225, 37.6763] }},
{"zip_code":"41231","country":"US","city":"Lovely","state":"Kentucky","state_ab":"KY","county":"Martin","geo_location":{ "type": "Point", "coordinates": [-82.4109, 37.8074] }},
{"zip_code":"42157","country":"US","city":"Mount Hermon","state":"Kentucky","state_ab":"KY","county":"Monroe","geo_location":{ "type": "Point", "coordinates": [-85.8195, 36.7723] }},
{"zip_code":"41451","country":"US","city":"Malone","state":"Kentucky","state_ab":"KY","county":"Morgan","geo_location":{ "type": "Point", "coordinates": [-83.2338, 37.914] }},
{"zip_code":"41477","country":"US","city":"Wrigley","state":"Kentucky","state_ab":"KY","county":"Morgan","geo_location":{ "type": "Point", "coordinates": [-83.2338, 37.914] }},
{"zip_code":"42324","country":"US","city":"Belton","state":"Kentucky","state_ab":"KY","county":"Muhlenberg","geo_location":{ "type": "Point", "coordinates": [-86.9774, 37.1511] }},
{"zip_code":"42337","country":"US","city":"Drakesboro","state":"Kentucky","state_ab":"KY","county":"Muhlenberg","geo_location":{ "type": "Point", "coordinates": [-87.048, 37.2136] }},
{"zip_code":"41721","country":"US","city":"Buckhorn","state":"Kentucky","state_ab":"KY","county":"Perry","geo_location":{ "type": "Point", "coordinates": [-83.4936, 37.301] }},
{"zip_code":"41747","country":"US","city":"Hardburly","state":"Kentucky","state_ab":"KY","county":"Perry","geo_location":{ "type": "Point", "coordinates": [-83.1225, 37.3002] }},
{"zip_code":"41774","country":"US","city":"Viper","state":"Kentucky","state_ab":"KY","county":"Perry","geo_location":{ "type": "Point", "coordinates": [-83.1405, 37.1585] }},
{"zip_code":"41501","country":"US","city":"Pikeville","state":"Kentucky","state_ab":"KY","county":"Pike","geo_location":{ "type": "Point", "coordinates": [-82.5173, 37.5161] }},
{"zip_code":"41514","country":"US","city":"Belfry","state":"Kentucky","state_ab":"KY","county":"Pike","geo_location":{ "type": "Point", "coordinates": [-82.2573, 37.6401] }},
{"zip_code":"41527","country":"US","city":"Forest Hills","state":"Kentucky","state_ab":"KY","county":"Pike","geo_location":{ "type": "Point", "coordinates": [-82.2991, 37.6432] }},
{"zip_code":"41554","country":"US","city":"Phyllis","state":"Kentucky","state_ab":"KY","county":"Pike","geo_location":{ "type": "Point", "coordinates": [-82.2985, 37.4484] }},
{"zip_code":"41567","country":"US","city":"Stone","state":"Kentucky","state_ab":"KY","county":"Pike","geo_location":{ "type": "Point", "coordinates": [-82.289, 37.5606] }},
{"zip_code":"42544","country":"US","city":"Nancy","state":"Kentucky","state_ab":"KY","county":"Pulaski","geo_location":{ "type": "Point", "coordinates": [-84.7192, 37.0631] }},
{"zip_code":"41064","country":"US","city":"Mount Olivet","state":"Kentucky","state_ab":"KY","county":"Robertson","geo_location":{ "type": "Point", "coordinates": [-84.048, 38.5218] }},
{"zip_code":"40317","country":"US","city":"Elliottville","state":"Kentucky","state_ab":"KY","county":"Rowan","geo_location":{ "type": "Point", "coordinates": [-83.2682, 38.1765] }},
{"zip_code":"42234","country":"US","city":"Guthrie","state":"Kentucky","state_ab":"KY","county":"Todd","geo_location":{ "type": "Point", "coordinates": [-87.1502, 36.7149] }},
{"zip_code":"42104","country":"US","city":"Bowling Green","state":"Kentucky","state_ab":"KY","county":"Warren","geo_location":{ "type": "Point", "coordinates": [-86.4481, 36.9375] }},
{"zip_code":"42171","country":"US","city":"Smiths Grove","state":"Kentucky","state_ab":"KY","county":"Warren","geo_location":{ "type": "Point", "coordinates": [-86.1938, 37.0581] }},
{"zip_code":"42274","country":"US","city":"Rockfield","state":"Kentucky","state_ab":"KY","county":"Warren","geo_location":{ "type": "Point", "coordinates": [-86.5979, 36.9241] }},
{"zip_code":"40061","country":"US","city":"Saint Catharine","state":"Kentucky","state_ab":"KY","county":"Washington","geo_location":{ "type": "Point", "coordinates": [-85.2011, 37.774] }},
{"zip_code":"40384","country":"US","city":"Versailles","state":"Kentucky","state_ab":"KY","county":"Woodford","geo_location":{ "type": "Point", "coordinates": [-84.7455, 38.0213] }},
{"zip_code":"70534","country":"US","city":"Estherwood","state":"Louisiana","state_ab":"LA","county":"Acadia","geo_location":{ "type": "Point", "coordinates": [-92.4472, 30.1842] }},
{"zip_code":"70651","country":"US","city":"Leblanc","state":"Louisiana","state_ab":"LA","county":"Allen","geo_location":{ "type": "Point", "coordinates": [-92.9583, 30.5648] }},
{"zip_code":"70341","country":"US","city":"Belle Rose","state":"Louisiana","state_ab":"LA","county":"Assumption","geo_location":{ "type": "Point", "coordinates": [-91.0444, 30.026] }},
{"zip_code":"71331","country":"US","city":"Effie","state":"Louisiana","state_ab":"LA","county":"Avoyelles","geo_location":{ "type": "Point", "coordinates": [-92.0967, 31.2275] }},
{"zip_code":"70637","country":"US","city":"Dry Creek","state":"Louisiana","state_ab":"LA","county":"Beauregard","geo_location":{ "type": "Point", "coordinates": [-92.9843, 30.6859] }},
{"zip_code":"71111","country":"US","city":"Bossier City","state":"Louisiana","state_ab":"LA","county":"Bossier","geo_location":{ "type": "Point", "coordinates": [-93.7038, 32.5449] }},
{"zip_code":"71007","country":"US","city":"Bethany","state":"Louisiana","state_ab":"LA","county":"Caddo","geo_location":{ "type": "Point", "coordinates": [-94.0034, 32.3662] }},
{"zip_code":"71047","country":"US","city":"Keithville","state":"Louisiana","state_ab":"LA","county":"Caddo","geo_location":{ "type": "Point", "coordinates": [-93.8881, 32.3161] }},
{"zip_code":"71061","country":"US","city":"Oil City","state":"Louisiana","state_ab":"LA","county":"Caddo","geo_location":{ "type": "Point", "coordinates": [-93.9838, 32.7451] }},
{"zip_code":"71137","country":"US","city":"Shreveport","state":"Louisiana","state_ab":"LA","county":"Caddo","geo_location":{ "type": "Point", "coordinates": [-93.7526, 32.6076] }},
{"zip_code":"71151","country":"US","city":"Shreveport","state":"Louisiana","state_ab":"LA","county":"Caddo","geo_location":{ "type": "Point", "coordinates": [-93.7526, 32.6076] }},
{"zip_code":"71164","country":"US","city":"Shreveport","state":"Louisiana","state_ab":"LA","county":"Caddo","geo_location":{ "type": "Point", "coordinates": [-93.7526, 32.6076] }},
{"zip_code":"70611","country":"US","city":"Lake Charles","state":"Louisiana","state_ab":"LA","county":"Calcasieu","geo_location":{ "type": "Point", "coordinates": [-93.2111, 30.322] }},
{"zip_code":"70664","country":"US","city":"Sulphur","state":"Louisiana","state_ab":"LA","county":"Calcasieu","geo_location":{ "type": "Point", "coordinates": [-93.3265, 30.2642] }},
{"zip_code":"71344","country":"US","city":"Larto","state":"Louisiana","state_ab":"LA","county":"Concordia Parish","geo_location":{ "type": "Point", "coordinates": [-91.9042, 31.4054] }},
{"zip_code":"70714","country":"US","city":"Baker","state":"Louisiana","state_ab":"LA","county":"East Baton Rouge","geo_location":{ "type": "Point", "coordinates": [-91.1429, 30.5814] }},
{"zip_code":"70804","country":"US","city":"Baton Rouge","state":"Louisiana","state_ab":"LA","county":"East Baton Rouge","geo_location":{ "type": "Point", "coordinates": [-91.1339, 30.3863] }},
{"zip_code":"70817","country":"US","city":"Baton Rouge","state":"Louisiana","state_ab":"LA","county":"East Baton Rouge","geo_location":{ "type": "Point", "coordinates": [-91.0021, 30.3904] }},
{"zip_code":"70831","country":"US","city":"Baton Rouge","state":"Louisiana","state_ab":"LA","county":"East Baton Rouge","geo_location":{ "type": "Point", "coordinates": [-91.0804, 30.5159] }},
{"zip_code":"70884","country":"US","city":"Baton Rouge","state":"Louisiana","state_ab":"LA","county":"East Baton Rouge","geo_location":{ "type": "Point", "coordinates": [-91.0804, 30.5159] }},
{"zip_code":"71254","country":"US","city":"Lake Providence","state":"Louisiana","state_ab":"LA","county":"East Carroll","geo_location":{ "type": "Point", "coordinates": [-91.1906, 32.8071] }},
{"zip_code":"71407","country":"US","city":"Bentley","state":"Louisiana","state_ab":"LA","county":"Grant","geo_location":{ "type": "Point", "coordinates": [-92.4807, 31.5187] }},
{"zip_code":"70004","country":"US","city":"Metairie","state":"Louisiana","state_ab":"LA","county":"Jefferson","geo_location":{ "type": "Point", "coordinates": [-90.0901, 29.6779] }},
{"zip_code":"70097","country":"US","city":"Kenner","state":"Louisiana","state_ab":"LA","county":"Jefferson Parish","geo_location":{ "type": "Point", "coordinates": [-90.2635, 29.9565] }},
{"zip_code":"70121","country":"US","city":"New Orleans","state":"Louisiana","state_ab":"LA","county":"Jefferson","geo_location":{ "type": "Point", "coordinates": [-90.1577, 29.9614] }},
{"zip_code":"70507","country":"US","city":"Lafayette","state":"Louisiana","state_ab":"LA","county":"Lafayette","geo_location":{ "type": "Point", "coordinates": [-92.016, 30.2813] }},
{"zip_code":"70301","country":"US","city":"Thibodaux","state":"Louisiana","state_ab":"LA","county":"Lafourche","geo_location":{ "type": "Point", "coordinates": [-90.8096, 29.7992] }},
{"zip_code":"70354","country":"US","city":"Galliano","state":"Louisiana","state_ab":"LA","county":"Lafourche","geo_location":{ "type": "Point", "coordinates": [-90.2981, 29.4311] }},
{"zip_code":"95441","country":"US","city":"Geyserville","state":"California","state_ab":"CA","county":"Sonoma","geo_location":{ "type": "Point", "coordinates": [-122.8834, 38.7173] }},
{"zip_code":"95351","country":"US","city":"Modesto","state":"California","state_ab":"CA","county":"Stanislaus","geo_location":{ "type": "Point", "coordinates": [-120.9966, 37.6236] }},
{"zip_code":"95674","country":"US","city":"Rio Oso","state":"California","state_ab":"CA","county":"Sutter","geo_location":{ "type": "Point", "coordinates": [-121.4773, 38.967] }},
{"zip_code":"95957","country":"US","city":"Meridian","state":"California","state_ab":"CA","county":"Sutter","geo_location":{ "type": "Point", "coordinates": [-121.8061, 39.052] }},
{"zip_code":"93201","country":"US","city":"Alpaugh","state":"California","state_ab":"CA","county":"Tulare","geo_location":{ "type": "Point", "coordinates": [-119.3037, 35.8583] }},
{"zip_code":"93227","country":"US","city":"Goshen","state":"California","state_ab":"CA","county":"Tulare","geo_location":{ "type": "Point", "coordinates": [-119.4254, 36.3572] }},
{"zip_code":"93267","country":"US","city":"Strathmore","state":"California","state_ab":"CA","county":"Tulare","geo_location":{ "type": "Point", "coordinates": [-119.0792, 36.1472] }},
{"zip_code":"95364","country":"US","city":"Pinecrest","state":"California","state_ab":"CA","county":"Tuolumne","geo_location":{ "type": "Point", "coordinates": [-119.9242, 38.3398] }},
{"zip_code":"91377","country":"US","city":"Oak Park","state":"California","state_ab":"CA","county":"Ventura","geo_location":{ "type": "Point", "coordinates": [-118.7669, 34.185] }},
{"zip_code":"93007","country":"US","city":"Ventura","state":"California","state_ab":"CA","county":"Ventura","geo_location":{ "type": "Point", "coordinates": [-119.1343, 34.0324] }},
{"zip_code":"93021","country":"US","city":"Moorpark","state":"California","state_ab":"CA","county":"Ventura","geo_location":{ "type": "Point", "coordinates": [-118.8771, 34.2784] }},
{"zip_code":"93034","country":"US","city":"Oxnard","state":"California","state_ab":"CA","county":"Ventura","geo_location":{ "type": "Point", "coordinates": [-119.1343, 34.0324] }},
{"zip_code":"93061","country":"US","city":"Santa Paula","state":"California","state_ab":"CA","county":"Ventura","geo_location":{ "type": "Point", "coordinates": [-119.1343, 34.0324] }},
{"zip_code":"95607","country":"US","city":"Capay","state":"California","state_ab":"CA","county":"Yolo","geo_location":{ "type": "Point", "coordinates": [-122.0912, 38.7209] }},
{"zip_code":"80137","country":"US","city":"Watkins","state":"Colorado","state_ab":"CO","county":"Adams","geo_location":{ "type": "Point", "coordinates": [-104.5834, 39.7623] }},
{"zip_code":"80241","country":"US","city":"Denver","state":"Colorado","state_ab":"CO","county":"Adams","geo_location":{ "type": "Point", "coordinates": [-104.9548, 39.9274] }},
{"zip_code":"80601","country":"US","city":"Brighton","state":"Colorado","state_ab":"CO","county":"Adams","geo_location":{ "type": "Point", "coordinates": [-104.7866, 39.943] }},
{"zip_code":"80614","country":"US","city":"Eastlake","state":"Colorado","state_ab":"CO","county":"Adams","geo_location":{ "type": "Point", "coordinates": [-104.4079, 39.808] }},
{"zip_code":"81101","country":"US","city":"Alamosa","state":"Colorado","state_ab":"CO","county":"Alamosa","geo_location":{ "type": "Point", "coordinates": [-105.8786, 37.4703] }},
{"zip_code":"80047","country":"US","city":"Aurora","state":"Colorado","state_ab":"CO","county":"Arapahoe","geo_location":{ "type": "Point", "coordinates": [-104.4083, 39.7388] }},
{"zip_code":"80111","country":"US","city":"Englewood","state":"Colorado","state_ab":"CO","county":"Arapahoe","geo_location":{ "type": "Point", "coordinates": [-104.8799, 39.6123] }},
{"zip_code":"80151","country":"US","city":"Englewood","state":"Colorado","state_ab":"CO","county":"Arapahoe","geo_location":{ "type": "Point", "coordinates": [-104.4083, 39.7388] }},
{"zip_code":"81127","country":"US","city":"Chimney Rock","state":"Colorado","state_ab":"CO","county":"Archuleta","geo_location":{ "type": "Point", "coordinates": [-107.3211, 37.2507] }},
{"zip_code":"81064","country":"US","city":"Pritchett","state":"Colorado","state_ab":"CO","county":"Baca","geo_location":{ "type": "Point", "coordinates": [-102.9145, 37.2723] }},
{"zip_code":"80304","country":"US","city":"Boulder","state":"Colorado","state_ab":"CO","county":"Boulder","geo_location":{ "type": "Point", "coordinates": [-105.2771, 40.0375] }},
{"zip_code":"81141","country":"US","city":"Manassa","state":"Colorado","state_ab":"CO","county":"Conejos","geo_location":{ "type": "Point", "coordinates": [-105.9278, 37.1755] }},
{"zip_code":"80201","country":"US","city":"Denver","state":"Colorado","state_ab":"CO","county":"Denver","geo_location":{ "type": "Point", "coordinates": [-104.8568, 39.7263] }},
{"zip_code":"80227","country":"US","city":"Denver","state":"Colorado","state_ab":"CO","county":"Denver","geo_location":{ "type": "Point", "coordinates": [-105.0854, 39.6667] }},
{"zip_code":"80254","country":"US","city":"Denver","state":"Colorado","state_ab":"CO","county":"Denver","geo_location":{ "type": "Point", "coordinates": [-104.4083, 39.7388] }},
{"zip_code":"80281","country":"US","city":"Denver","state":"Colorado","state_ab":"CO","county":"Denver","geo_location":{ "type": "Point", "coordinates": [-104.9876, 39.7439] }},
{"zip_code":"80294","country":"US","city":"Denver","state":"Colorado","state_ab":"CO","county":"Denver","geo_location":{ "type": "Point", "coordinates": [-104.989, 39.7491] }},
{"zip_code":"80124","country":"US","city":"Littleton","state":"Colorado","state_ab":"CO","county":"Douglas","geo_location":{ "type": "Point", "coordinates": [-104.8972, 39.5506] }},
{"zip_code":"81631","country":"US","city":"Eagle","state":"Colorado","state_ab":"CO","county":"Eagle","geo_location":{ "type": "Point", "coordinates": [-106.7588, 39.6341] }},
{"zip_code":"81657","country":"US","city":"Vail","state":"Colorado","state_ab":"CO","county":"Eagle","geo_location":{ "type": "Point", "coordinates": [-106.3234, 39.6512] }},
{"zip_code":"80911","country":"US","city":"Colorado Springs","state":"Colorado","state_ab":"CO","county":"El Paso","geo_location":{ "type": "Point", "coordinates": [-104.7223, 38.7457] }},
{"zip_code":"80924","country":"US","city":"Colorado Springs","state":"Colorado","state_ab":"CO","county":"El Paso County","geo_location":{ "type": "Point", "coordinates": [-104.7211, 38.9676] }},
{"zip_code":"80937","country":"US","city":"Colorado Springs","state":"Colorado","state_ab":"CO","county":"El Paso","geo_location":{ "type": "Point", "coordinates": [-104.562, 38.8247] }},
{"zip_code":"80951","country":"US","city":"Colorado Springs","state":"Colorado","state_ab":"CO","county":"El Paso County","geo_location":{ "type": "Point", "coordinates": [-104.6556, 38.8881] }},
{"zip_code":"80977","country":"US","city":"Colorado Springs","state":"Colorado","state_ab":"CO","county":"El Paso","geo_location":{ "type": "Point", "coordinates": [-104.562, 38.8247] }},
{"zip_code":"81244","country":"US","city":"Rockvale","state":"Colorado","state_ab":"CO","county":"Fremont","geo_location":{ "type": "Point", "coordinates": [-105.2211, 38.3362] }},
{"zip_code":"80474","country":"US","city":"Rollinsville","state":"Colorado","state_ab":"CO","county":"Gilpin","geo_location":{ "type": "Point", "coordinates": [-105.5482, 39.8838] }},
{"zip_code":"80447","country":"US","city":"Grand Lake","state":"Colorado","state_ab":"CO","county":"Grand","geo_location":{ "type": "Point", "coordinates": [-105.8605, 40.2289] }},
{"zip_code":"81231","country":"US","city":"Gunnison","state":"Colorado","state_ab":"CO","county":"Gunnison","geo_location":{ "type": "Point", "coordinates": [-106.9402, 38.7023] }},
{"zip_code":"80434","country":"US","city":"Cowdrey","state":"Colorado","state_ab":"CO","county":"Jackson","geo_location":{ "type": "Point", "coordinates": [-106.3625, 40.6631] }},
{"zip_code":"80007","country":"US","city":"Arvada","state":"Colorado","state_ab":"CO","county":"Jefferson","geo_location":{ "type": "Point", "coordinates": [-105.1724, 39.8634] }},
{"zip_code":"80021","country":"US","city":"Broomfield","state":"Colorado","state_ab":"CO","county":"Jefferson","geo_location":{ "type": "Point", "coordinates": [-105.1139, 39.8854] }},
{"zip_code":"80034","country":"US","city":"Wheat Ridge","state":"Colorado","state_ab":"CO","county":"Jefferson","geo_location":{ "type": "Point", "coordinates": [-105.2239, 39.522] }},
{"zip_code":"80214","country":"US","city":"Denver","state":"Colorado","state_ab":"CO","county":"Jefferson","geo_location":{ "type": "Point", "coordinates": [-105.0643, 39.7436] }},
{"zip_code":"80807","country":"US","city":"Burlington","state":"Colorado","state_ab":"CO","county":"Kit Carson","geo_location":{ "type": "Point", "coordinates": [-102.2583, 39.3106] }},
{"zip_code":"80834","country":"US","city":"Seibert","state":"Colorado","state_ab":"CO","county":"Kit Carson","geo_location":{ "type": "Point", "coordinates": [-102.8822, 39.3183] }},
{"zip_code":"80861","country":"US","city":"Vona","state":"Colorado","state_ab":"CO","county":"Kit Carson","geo_location":{ "type": "Point", "coordinates": [-102.7393, 39.3236] }},
{"zip_code":"80461","country":"US","city":"Leadville","state":"Colorado","state_ab":"CO","county":"Lake","geo_location":{ "type": "Point", "coordinates": [-106.3015, 39.2497] }},
{"zip_code":"80511","country":"US","city":"Estes Park","state":"Colorado","state_ab":"CO","county":"Larimer","geo_location":{ "type": "Point", "coordinates": [-105.5692, 40.6281] }},
{"zip_code":"80524","country":"US","city":"Fort Collins","state":"Colorado","state_ab":"CO","county":"Larimer","geo_location":{ "type": "Point", "coordinates": [-105.0581, 40.5986] }},
{"zip_code":"80537","country":"US","city":"Loveland","state":"Colorado","state_ab":"CO","county":"Larimer","geo_location":{ "type": "Point", "coordinates": [-105.0916, 40.3849] }},
{"zip_code":"81024","country":"US","city":"Boncarbo","state":"Colorado","state_ab":"CO","county":"Las Animas","geo_location":{ "type": "Point", "coordinates": [-104.7198, 37.2081] }},
{"zip_code":"81091","country":"US","city":"Weston","state":"Colorado","state_ab":"CO","county":"Las Animas","geo_location":{ "type": "Point", "coordinates": [-104.8247, 37.1702] }},
{"zip_code":"80821","country":"US","city":"Hugo","state":"Colorado","state_ab":"CO","county":"Lincoln","geo_location":{ "type": "Point", "coordinates": [-103.499, 39.0843] }},
{"zip_code":"81501","country":"US","city":"Grand Junction","state":"Colorado","state_ab":"CO","county":"Mesa","geo_location":{ "type": "Point", "coordinates": [-108.5457, 39.0783] }},
{"zip_code":"81527","country":"US","city":"Whitewater","state":"Colorado","state_ab":"CO","county":"Mesa","geo_location":{ "type": "Point", "coordinates": [-108.399, 38.9744] }},
{"zip_code":"81321","country":"US","city":"Cortez","state":"Colorado","state_ab":"CO","county":"Montezuma","geo_location":{ "type": "Point", "coordinates": [-108.5837, 37.3549] }},
{"zip_code":"81334","country":"US","city":"Towaoc","state":"Colorado","state_ab":"CO","county":"Montezuma","geo_location":{ "type": "Point", "coordinates": [-108.72, 37.2084] }},
{"zip_code":"81411","country":"US","city":"Bedrock","state":"Colorado","state_ab":"CO","county":"Montrose","geo_location":{ "type": "Point", "coordinates": [-108.9799, 38.2509] }},
{"zip_code":"81424","country":"US","city":"Nucla","state":"Colorado","state_ab":"CO","county":"Montrose","geo_location":{ "type": "Point", "coordinates": [-108.5476, 38.2682] }},
{"zip_code":"80654","country":"US","city":"Wiggins","state":"Colorado","state_ab":"CO","county":"Morgan","geo_location":{ "type": "Point", "coordinates": [-104.0468, 40.1598] }},
{"zip_code":"81077","country":"US","city":"Swink","state":"Colorado","state_ab":"CO","county":"Otero","geo_location":{ "type": "Point", "coordinates": [-103.6195, 38.055] }},
{"zip_code":"80421","country":"US","city":"Bailey","state":"Colorado","state_ab":"CO","county":"Park","geo_location":{ "type": "Point", "coordinates": [-105.4693, 39.4482] }},
{"zip_code":"80731","country":"US","city":"Haxtun","state":"Colorado","state_ab":"CO","county":"Phillips","geo_location":{ "type": "Point", "coordinates": [-102.6052, 40.6406] }},
{"zip_code":"81011","country":"US","city":"Pueblo","state":"Colorado","state_ab":"CO","county":"Pueblo","geo_location":{ "type": "Point", "coordinates": [-104.5523, 38.1286] }},
{"zip_code":"81154","country":"US","city":"South Fork","state":"Colorado","state_ab":"CO","county":"Rio Grande","geo_location":{ "type": "Point", "coordinates": [-106.6125, 37.6725] }},
{"zip_code":"80487","country":"US","city":"Steamboat Springs","state":"Colorado","state_ab":"CO","county":"Routt","geo_location":{ "type": "Point", "coordinates": [-106.9318, 40.6327] }},
{"zip_code":"80744","country":"US","city":"Ovid","state":"Colorado","state_ab":"CO","county":"Sedgwick","geo_location":{ "type": "Point", "coordinates": [-102.3874, 40.9459] }},
{"zip_code":"80757","country":"US","city":"Woodrow","state":"Colorado","state_ab":"CO","county":"Washington","geo_location":{ "type": "Point", "coordinates": [-103.5752, 39.805] }},
{"zip_code":"80551","country":"US","city":"Windsor","state":"Colorado","state_ab":"CO","county":"Weld","geo_location":{ "type": "Point", "coordinates": [-104.8851, 40.4641] }},
{"zip_code":"6607","country":"US","city":"Bridgeport","state":"Connecticut","state_ab":"CT","county":"Fairfield","geo_location":{ "type": "Point", "coordinates": [-73.165, 41.1784] }},
{"zip_code":"6801","country":"US","city":"Bethel","state":"Connecticut","state_ab":"CT","county":"Fairfield","geo_location":{ "type": "Point", "coordinates": [-73.4008, 41.3813] }},
{"zip_code":"6814","country":"US","city":"Danbury","state":"Connecticut","state_ab":"CT","county":"Fairfield","geo_location":{ "type": "Point", "coordinates": [-73.3637, 41.3089] }},
{"zip_code":"6854","country":"US","city":"Norwalk","state":"Connecticut","state_ab":"CT","county":"Fairfield","geo_location":{ "type": "Point", "coordinates": [-73.4285, 41.0957] }},
{"zip_code":"6881","country":"US","city":"Westport","state":"Connecticut","state_ab":"CT","county":"Fairfield","geo_location":{ "type": "Point", "coordinates": [-73.3637, 41.3089] }},
{"zip_code":"6904","country":"US","city":"Stamford","state":"Connecticut","state_ab":"CT","county":"Fairfield","geo_location":{ "type": "Point", "coordinates": [-73.3637, 41.3089] }},
{"zip_code":"6001","country":"US","city":"Avon","state":"Connecticut","state_ab":"CT","county":"Hartford","geo_location":{ "type": "Point", "coordinates": [-72.8653, 41.7905] }},
{"zip_code":"6027","country":"US","city":"East Hartland","state":"Connecticut","state_ab":"CT","county":"Hartford","geo_location":{ "type": "Point", "coordinates": [-72.9242, 42.0016] }},
{"zip_code":"6041","country":"US","city":"Manchester","state":"Connecticut","state_ab":"CT","county":"Hartford","geo_location":{ "type": "Point", "coordinates": [-72.5648, 41.7947] }},
{"zip_code":"6067","country":"US","city":"Rocky Hill","state":"Connecticut","state_ab":"CT","county":"Hartford","geo_location":{ "type": "Point", "coordinates": [-72.6632, 41.6583] }},
{"zip_code":"6081","country":"US","city":"Tariffville","state":"Connecticut","state_ab":"CT","county":"Hartford","geo_location":{ "type": "Point", "coordinates": [-72.7678, 41.9077] }},
{"zip_code":"6104","country":"US","city":"Hartford","state":"Connecticut","state_ab":"CT","county":"Hartford","geo_location":{ "type": "Point", "coordinates": [-72.7188, 41.7918] }},
{"zip_code":"6117","country":"US","city":"West Hartford","state":"Connecticut","state_ab":"CT","county":"Hartford","geo_location":{ "type": "Point", "coordinates": [-72.7457, 41.79] }},
{"zip_code":"6131","country":"US","city":"Newington","state":"Connecticut","state_ab":"CT","county":"Hartford","geo_location":{ "type": "Point", "coordinates": [-72.7188, 41.7918] }},
{"zip_code":"6144","country":"US","city":"Hartford","state":"Connecticut","state_ab":"CT","county":"Hartford","geo_location":{ "type": "Point", "coordinates": [-72.7188, 41.7918] }},
{"zip_code":"6467","country":"US","city":"Milldale","state":"Connecticut","state_ab":"CT","county":"Hartford","geo_location":{ "type": "Point", "coordinates": [-72.9037, 41.5657] }},
{"zip_code":"6094","country":"US","city":"Winchester Center","state":"Connecticut","state_ab":"CT","county":"Litchfield","geo_location":{ "type": "Point", "coordinates": [-73.1463, 41.8963] }},
{"zip_code":"6751","country":"US","city":"Bethlehem","state":"Connecticut","state_ab":"CT","county":"Litchfield","geo_location":{ "type": "Point", "coordinates": [-73.2091, 41.6387] }},
{"zip_code":"6777","country":"US","city":"New Preston Marble Dale","state":"Connecticut","state_ab":"CT","county":"Litchfield","geo_location":{ "type": "Point", "coordinates": [-73.3103, 41.6903] }},
{"zip_code":"6791","country":"US","city":"Harwinton","state":"Connecticut","state_ab":"CT","county":"Litchfield","geo_location":{ "type": "Point", "coordinates": [-73.0728, 41.7701] }},
{"zip_code":"6414","country":"US","city":"Cobalt","state":"Connecticut","state_ab":"CT","county":"Middlesex","geo_location":{ "type": "Point", "coordinates": [-72.5581, 41.5667] }},
{"zip_code":"6441","country":"US","city":"Higganum","state":"Connecticut","state_ab":"CT","county":"Middlesex","geo_location":{ "type": "Point", "coordinates": [-72.5751, 41.4682] }},
{"zip_code":"6481","country":"US","city":"Rockfall","state":"Connecticut","state_ab":"CT","county":"Middlesex","geo_location":{ "type": "Point", "coordinates": [-72.6997, 41.5341] }},
{"zip_code":"6401","country":"US","city":"Ansonia","state":"Connecticut","state_ab":"CT","county":"New Haven","geo_location":{ "type": "Point", "coordinates": [-73.0742, 41.3427] }},
{"zip_code":"6454","country":"US","city":"Meriden","state":"Connecticut","state_ab":"CT","county":"New Haven","geo_location":{ "type": "Point", "coordinates": [-72.9275, 41.3657] }},
{"zip_code":"6494","country":"US","city":"Wallingford","state":"Connecticut","state_ab":"CT","county":"New Haven","geo_location":{ "type": "Point", "coordinates": [-72.9275, 41.3657] }},
{"zip_code":"6504","country":"US","city":"New Haven","state":"Connecticut","state_ab":"CT","county":"New Haven","geo_location":{ "type": "Point", "coordinates": [-72.9275, 41.3657] }},
{"zip_code":"6517","country":"US","city":"Hamden","state":"Connecticut","state_ab":"CT","county":"New Haven","geo_location":{ "type": "Point", "coordinates": [-72.9117, 41.3484] }},
{"zip_code":"6531","country":"US","city":"New Haven","state":"Connecticut","state_ab":"CT","county":"New Haven","geo_location":{ "type": "Point", "coordinates": [-72.9275, 41.3657] }},
{"zip_code":"6724","country":"US","city":"Waterbury","state":"Connecticut","state_ab":"CT","county":"New Haven","geo_location":{ "type": "Point", "coordinates": [-72.9275, 41.3657] }},
{"zip_code":"6337","country":"US","city":"Glasgo","state":"Connecticut","state_ab":"CT","county":"New London","geo_location":{ "type": "Point", "coordinates": [-71.8892, 41.5599] }},
{"zip_code":"6351","country":"US","city":"Jewett City","state":"Connecticut","state_ab":"CT","county":"New London","geo_location":{ "type": "Point", "coordinates": [-71.9808, 41.6052] }},
{"zip_code":"6234","country":"US","city":"Brooklyn","state":"Connecticut","state_ab":"CT","county":"Windham","geo_location":{ "type": "Point", "coordinates": [-71.9541, 41.7807] }},
{"zip_code":"6247","country":"US","city":"Hampton","state":"Connecticut","state_ab":"CT","county":"Windham","geo_location":{ "type": "Point", "coordinates": [-72.0662, 41.7671] }},
{"zip_code":"6377","country":"US","city":"Sterling","state":"Connecticut","state_ab":"CT","county":"Windham","geo_location":{ "type": "Point", "coordinates": [-71.8196, 41.7156] }},
{"zip_code":"20001","country":"US","city":"Washington","state":"District of Columbia","state_ab":"DC","county":"District of Columbia","geo_location":{ "type": "Point", "coordinates": [-77.0177, 38.9122] }},
{"zip_code":"20027","country":"US","city":"Washington","state":"District of Columbia","state_ab":"DC","county":"District of Columbia","geo_location":{ "type": "Point", "coordinates": [-77.0501, 38.9007] }},
{"zip_code":"20041","country":"US","city":"Washington","state":"District of Columbia","state_ab":"DC","county":"District of Columbia","geo_location":{ "type": "Point", "coordinates": [-77.0146, 38.8933] }},
{"zip_code":"20067","country":"US","city":"Washington","state":"District of Columbia","state_ab":"DC","county":"District of Columbia","geo_location":{ "type": "Point", "coordinates": [-77.0146, 38.8933] }},
{"zip_code":"20081","country":"US","city":"Washington","state":"District of Columbia","state_ab":"DC","county":"District of Columbia","geo_location":{ "type": "Point", "coordinates": [-77.0146, 38.8933] }},
{"zip_code":"20207","country":"US","city":"Washington","state":"District of Columbia","state_ab":"DC","county":"District of Columbia","geo_location":{ "type": "Point", "coordinates": [-77.0146, 38.8933] }},
{"zip_code":"20221","country":"US","city":"Washington","state":"District of Columbia","state_ab":"DC","county":"District of Columbia","geo_location":{ "type": "Point", "coordinates": [-77.0146, 38.8933] }},
{"zip_code":"20261","country":"US","city":"Washington","state":"District of Columbia","state_ab":"DC","county":"District of Columbia","geo_location":{ "type": "Point", "coordinates": [-77.0146, 38.8933] }},
{"zip_code":"20337","country":"US","city":"Washington","state":"District of Columbia","state_ab":"DC","county":"District of Columbia","geo_location":{ "type": "Point", "coordinates": [-77.0146, 38.8933] }},
{"zip_code":"20391","country":"US","city":"Washington","state":"District of Columbia","state_ab":"DC","county":"District of Columbia","geo_location":{ "type": "Point", "coordinates": [-77.0146, 38.8933] }},
{"zip_code":"20401","country":"US","city":"Washington","state":"District of Columbia","state_ab":"DC","county":"District of Columbia","geo_location":{ "type": "Point", "coordinates": [-77.0146, 38.8933] }},
{"zip_code":"20414","country":"US","city":"Washington","state":"District of Columbia","state_ab":"DC","county":"District of Columbia","geo_location":{ "type": "Point", "coordinates": [-77.0221, 38.884] }},
{"zip_code":"20427","country":"US","city":"Washington","state":"District of Columbia","state_ab":"DC","county":"District of Columbia","geo_location":{ "type": "Point", "coordinates": [-77.0476, 38.9021] }},
{"zip_code":"20441","country":"US","city":"Washington","state":"District of Columbia","state_ab":"DC","county":"District of Columbia","geo_location":{ "type": "Point", "coordinates": [-77.0363, 38.9239] }},
{"zip_code":"20504","country":"US","city":"Washington","state":"District of Columbia","state_ab":"DC","county":"District of Columbia","geo_location":{ "type": "Point", "coordinates": [-77.0146, 38.8933] }},
{"zip_code":"20531","country":"US","city":"Washington","state":"District of Columbia","state_ab":"DC","county":"District of Columbia","geo_location":{ "type": "Point", "coordinates": [-77.0218, 38.8938] }},
{"zip_code":"20544","country":"US","city":"Washington","state":"District of Columbia","state_ab":"DC","county":"District of Columbia","geo_location":{ "type": "Point", "coordinates": [-77.0146, 38.8933] }},
{"zip_code":"20557","country":"US","city":"Washington","state":"District of Columbia","state_ab":"DC","county":"District of Columbia","geo_location":{ "type": "Point", "coordinates": [-77.0047, 38.8874] }},
{"zip_code":"20571","country":"US","city":"Washington","state":"District of Columbia","state_ab":"DC","county":"District of Columbia","geo_location":{ "type": "Point", "coordinates": [-77.0346, 38.9006] }},
{"zip_code":"20597","country":"US","city":"Washington","state":"District of Columbia","state_ab":"DC","county":"District of Columbia","geo_location":{ "type": "Point", "coordinates": [-77.0146, 38.8933] }},
{"zip_code":"19904","country":"US","city":"Dover","state":"Delaware","state_ab":"DE","county":"Kent","geo_location":{ "type": "Point", "coordinates": [-75.5974, 39.1605] }},
{"zip_code":"19711","country":"US","city":"Newark","state":"Delaware","state_ab":"DE","county":"New Castle","geo_location":{ "type": "Point", "coordinates": [-75.7375, 39.7011] }},
{"zip_code":"19801","country":"US","city":"Wilmington","state":"Delaware","state_ab":"DE","county":"New Castle","geo_location":{ "type": "Point", "coordinates": [-75.5497, 39.7378] }},
{"zip_code":"19894","country":"US","city":"Wilmington","state":"Delaware","state_ab":"DE","county":"New Castle","geo_location":{ "type": "Point", "coordinates": [-75.597, 39.5645] }},
{"zip_code":"19931","country":"US","city":"Bethel","state":"Delaware","state_ab":"DE","county":"Sussex","geo_location":{ "type": "Point", "coordinates": [-75.6243, 38.5685] }},
{"zip_code":"19944","country":"US","city":"Fenwick Island","state":"Delaware","state_ab":"DE","county":"Sussex","geo_location":{ "type": "Point", "coordinates": [-75.0589, 38.4865] }},
{"zip_code":"19971","country":"US","city":"Rehoboth Beach","state":"Delaware","state_ab":"DE","county":"Sussex","geo_location":{ "type": "Point", "coordinates": [-75.32, 38.6298] }},
{"zip_code":"32604","country":"US","city":"Gainesville","state":"Florida","state_ab":"FL","county":"Alachua","geo_location":{ "type": "Point", "coordinates": [-82.3979, 29.5733] }},
{"zip_code":"32631","country":"US","city":"Earleton","state":"Florida","state_ab":"FL","county":"Alachua","geo_location":{ "type": "Point", "coordinates": [-82.0971, 29.7304] }},
{"zip_code":"32411","country":"US","city":"Panama City","state":"Florida","state_ab":"FL","county":"Bay","geo_location":{ "type": "Point", "coordinates": [-85.692, 30.2345] }},
{"zip_code":"32091","country":"US","city":"Starke","state":"Florida","state_ab":"FL","county":"Bradford","geo_location":{ "type": "Point", "coordinates": [-82.1185, 29.9583] }},
{"zip_code":"32901","country":"US","city":"Melbourne","state":"Florida","state_ab":"FL","county":"Brevard","geo_location":{ "type": "Point", "coordinates": [-80.62, 28.0691] }},
{"zip_code":"32927","country":"US","city":"Cocoa","state":"Florida","state_ab":"FL","county":"Brevard","geo_location":{ "type": "Point", "coordinates": [-80.7978, 28.4566] }},
{"zip_code":"32941","country":"US","city":"Melbourne","state":"Florida","state_ab":"FL","county":"Brevard","geo_location":{ "type": "Point", "coordinates": [-80.5235, 27.9246] }},
{"zip_code":"32954","country":"US","city":"Merritt Island","state":"Florida","state_ab":"FL","county":"Brevard","geo_location":{ "type": "Point", "coordinates": [-80.6734, 28.2257] }},
{"zip_code":"33027","country":"US","city":"Hollywood","state":"Florida","state_ab":"FL","county":"Broward","geo_location":{ "type": "Point", "coordinates": [-80.3248, 25.9974] }},
{"zip_code":"33067","country":"US","city":"Pompano Beach","state":"Florida","state_ab":"FL","county":"Broward","geo_location":{ "type": "Point", "coordinates": [-80.2415, 26.3033] }},
{"zip_code":"33081","country":"US","city":"Hollywood","state":"Florida","state_ab":"FL","county":"Broward","geo_location":{ "type": "Point", "coordinates": [-80.4483, 26.1457] }},
{"zip_code":"33311","country":"US","city":"Fort Lauderdale","state":"Florida","state_ab":"FL","county":"Broward","geo_location":{ "type": "Point", "coordinates": [-80.1728, 26.1421] }},
{"zip_code":"33324","country":"US","city":"Fort Lauderdale","state":"Florida","state_ab":"FL","county":"Broward","geo_location":{ "type": "Point", "coordinates": [-80.2644, 26.1255] }},
{"zip_code":"33337","country":"US","city":"Fort Lauderdale","state":"Florida","state_ab":"FL","county":"Broward","geo_location":{ "type": "Point", "coordinates": [-80.2601, 26.129] }},
{"zip_code":"33351","country":"US","city":"Fort Lauderdale","state":"Florida","state_ab":"FL","county":"Broward","geo_location":{ "type": "Point", "coordinates": [-80.2746, 26.1793] }},
{"zip_code":"33441","country":"US","city":"Deerfield Beach","state":"Florida","state_ab":"FL","county":"Broward","geo_location":{ "type": "Point", "coordinates": [-80.0992, 26.3096] }},
{"zip_code":"32424","country":"US","city":"Blountstown","state":"Florida","state_ab":"FL","county":"Calhoun","geo_location":{ "type": "Point", "coordinates": [-85.062, 30.4394] }},
{"zip_code":"31807","country":"US","city":"Ellerslie","state":"Georgia","state_ab":"GA","county":"Harris","geo_location":{ "type": "Point", "coordinates": [-84.7895, 32.6312] }},
{"zip_code":"31047","country":"US","city":"Kathleen","state":"Georgia","state_ab":"GA","county":"Houston","geo_location":{ "type": "Point", "coordinates": [-83.6128, 32.4672] }},
{"zip_code":"31021","country":"US","city":"Dublin","state":"Georgia","state_ab":"GA","county":"Laurens","geo_location":{ "type": "Point", "coordinates": [-82.9381, 32.4593] }},
{"zip_code":"30817","country":"US","city":"Lincolnton","state":"Georgia","state_ab":"GA","county":"Lincoln","geo_location":{ "type": "Point", "coordinates": [-82.4435, 33.7773] }},
{"zip_code":"31601","country":"US","city":"Valdosta","state":"Georgia","state_ab":"GA","county":"Lowndes","geo_location":{ "type": "Point", "coordinates": [-83.3321, 30.7539] }},
{"zip_code":"31641","country":"US","city":"Naylor","state":"Georgia","state_ab":"GA","county":"Lowndes","geo_location":{ "type": "Point", "coordinates": [-83.1224, 30.8985] }},
{"zip_code":"31304","country":"US","city":"Crescent","state":"Georgia","state_ab":"GA","county":"McIntosh","geo_location":{ "type": "Point", "coordinates": [-81.3819, 31.4951] }},
{"zip_code":"31331","country":"US","city":"Townsend","state":"Georgia","state_ab":"GA","county":"McIntosh","geo_location":{ "type": "Point", "coordinates": [-81.4182, 31.5673] }},
{"zip_code":"30251","country":"US","city":"Luthersville","state":"Georgia","state_ab":"GA","county":"Meriwether","geo_location":{ "type": "Point", "coordinates": [-84.7577, 33.1798] }},
{"zip_code":"31784","country":"US","city":"Sale City","state":"Georgia","state_ab":"GA","county":"Mitchell","geo_location":{ "type": "Point", "coordinates": [-84.0422, 31.26] }},
{"zip_code":"30677","country":"US","city":"Watkinsville","state":"Georgia","state_ab":"GA","county":"Oconee","geo_location":{ "type": "Point", "coordinates": [-83.408, 33.8542] }},
{"zip_code":"31551","country":"US","city":"Mershon","state":"Georgia","state_ab":"GA","county":"Pierce","geo_location":{ "type": "Point", "coordinates": [-82.217, 31.4783] }},
{"zip_code":"30174","country":"US","city":"Suwanee","state":"Georgia","state_ab":"GA","county":"Polk County","geo_location":{ "type": "Point", "coordinates": [-84.0803, 34.0554] }},
{"zip_code":"30907","country":"US","city":"Augusta","state":"Georgia","state_ab":"GA","county":"Richmond","geo_location":{ "type": "Point", "coordinates": [-82.0852, 33.5229] }},
{"zip_code":"39861","country":"US","city":"Jakin","state":"Georgia","state_ab":"GA","county":"Seminole County","geo_location":{ "type": "Point", "coordinates": [-85.0121, 31.1824] }},
{"zip_code":"30224","country":"US","city":"Griffin","state":"Georgia","state_ab":"GA","county":"Spalding","geo_location":{ "type": "Point", "coordinates": [-84.2734, 33.2404] }},
{"zip_code":"31821","country":"US","city":"Omaha","state":"Georgia","state_ab":"GA","county":"Stewart","geo_location":{ "type": "Point", "coordinates": [-84.9711, 32.1176] }},
{"zip_code":"30664","country":"US","city":"Sharon","state":"Georgia","state_ab":"GA","county":"Taliaferro","geo_location":{ "type": "Point", "coordinates": [-82.7948, 33.56] }},
{"zip_code":"31757","country":"US","city":"Thomasville","state":"Georgia","state_ab":"GA","county":"Thomas","geo_location":{ "type": "Point", "coordinates": [-83.8883, 30.8536] }},
{"zip_code":"30457","country":"US","city":"Soperton","state":"Georgia","state_ab":"GA","county":"Treutlen","geo_location":{ "type": "Point", "coordinates": [-82.5871, 32.3869] }},
{"zip_code":"30741","country":"US","city":"Rossville","state":"Georgia","state_ab":"GA","county":"Walker","geo_location":{ "type": "Point", "coordinates": [-85.2968, 34.9535] }},
{"zip_code":"31564","country":"US","city":"Waresboro","state":"Georgia","state_ab":"GA","county":"Ware","geo_location":{ "type": "Point", "coordinates": [-82.4165, 31.019] }},
{"zip_code":"96727","country":"US","city":"Honokaa","state":"Hawaii","state_ab":"HI","county":"Hawaii","geo_location":{ "type": "Point", "coordinates": [-155.488, 20.0827] }},
{"zip_code":"96781","country":"US","city":"Papaikou","state":"Hawaii","state_ab":"HI","county":"Hawaii","geo_location":{ "type": "Point", "coordinates": [-155.0984, 19.7916] }},
{"zip_code":"96701","country":"US","city":"Aiea","state":"Hawaii","state_ab":"HI","county":"Honolulu","geo_location":{ "type": "Point", "coordinates": [-157.9332, 21.3908] }},
{"zip_code":"96804","country":"US","city":"Honolulu","state":"Hawaii","state_ab":"HI","county":"Honolulu","geo_location":{ "type": "Point", "coordinates": [-157.8585, 21.306] }},
{"zip_code":"96817","country":"US","city":"Honolulu","state":"Hawaii","state_ab":"HI","county":"Honolulu","geo_location":{ "type": "Point", "coordinates": [-157.8615, 21.3295] }},
{"zip_code":"96844","country":"US","city":"Honolulu","state":"Hawaii","state_ab":"HI","county":"Honolulu","geo_location":{ "type": "Point", "coordinates": [-157.8162, 21.2951] }},
{"zip_code":"96857","country":"US","city":"Schofield Barracks","state":"Hawaii","state_ab":"HI","county":"Honolulu","geo_location":{ "type": "Point", "coordinates": [-158.0646, 21.4963] }},
{"zip_code":"96714","country":"US","city":"Hanalei","state":"Hawaii","state_ab":"HI","county":"Kauai","geo_location":{ "type": "Point", "coordinates": [-159.5471, 22.1603] }},
{"zip_code":"96741","country":"US","city":"Kalaheo","state":"Hawaii","state_ab":"HI","county":"Kauai","geo_location":{ "type": "Point", "coordinates": [-159.5303, 21.9259] }},
{"zip_code":"96754","country":"US","city":"Kilauea","state":"Hawaii","state_ab":"HI","county":"Kauai","geo_location":{ "type": "Point", "coordinates": [-159.3954, 22.2073] }},
{"zip_code":"96767","country":"US","city":"Lahaina","state":"Hawaii","state_ab":"HI","county":"Maui","geo_location":{ "type": "Point", "coordinates": [-156.6467, 20.8666] }},
{"zip_code":"50837","country":"US","city":"Bridgewater","state":"Iowa","state_ab":"IA","county":"Adair","geo_location":{ "type": "Point", "coordinates": [-94.6669, 41.2589] }},
{"zip_code":"52574","country":"US","city":"Mystic","state":"Iowa","state_ab":"IA","county":"Appanoose","geo_location":{ "type": "Point", "coordinates": [-92.9284, 40.7883] }},
{"zip_code":"52354","country":"US","city":"Watkins","state":"Iowa","state_ab":"IA","county":"Benton","geo_location":{ "type": "Point", "coordinates": [-91.9965, 41.904] }},
{"zip_code":"50707","country":"US","city":"Evansdale","state":"Iowa","state_ab":"IA","county":"Black Hawk","geo_location":{ "type": "Point", "coordinates": [-92.2812, 42.4755] }},
{"zip_code":"50037","country":"US","city":"Boone","state":"Iowa","state_ab":"IA","county":"Boone","geo_location":{ "type": "Point", "coordinates": [-93.9317, 42.0366] }},
{"zip_code":"50631","country":"US","city":"Frederika","state":"Iowa","state_ab":"IA","county":"Bremer","geo_location":{ "type": "Point", "coordinates": [-92.3063, 42.8827] }},
{"zip_code":"50644","country":"US","city":"Independence","state":"Iowa","state_ab":"IA","county":"Buchanan","geo_location":{ "type": "Point", "coordinates": [-91.8803, 42.4674] }},
{"zip_code":"50671","country":"US","city":"Stanley","state":"Iowa","state_ab":"IA","county":"Buchanan","geo_location":{ "type": "Point", "coordinates": [-91.8127, 42.6356] }},
{"zip_code":"50604","country":"US","city":"Aplington","state":"Iowa","state_ab":"IA","county":"Butler","geo_location":{ "type": "Point", "coordinates": [-92.8751, 42.587] }},
{"zip_code":"51401","country":"US","city":"Carroll","state":"Iowa","state_ab":"IA","county":"Carroll","geo_location":{ "type": "Point", "coordinates": [-94.8667, 42.072] }},
{"zip_code":"51544","country":"US","city":"Lewis","state":"Iowa","state_ab":"IA","county":"Cass","geo_location":{ "type": "Point", "coordinates": [-95.062, 41.2963] }},
{"zip_code":"50464","country":"US","city":"Plymouth","state":"Iowa","state_ab":"IA","county":"Cerro Gordo","geo_location":{ "type": "Point", "coordinates": [-93.1226, 43.246] }},
{"zip_code":"50477","country":"US","city":"Swaledale","state":"Iowa","state_ab":"IA","county":"Cerro Gordo","geo_location":{ "type": "Point", "coordinates": [-93.3115, 42.9622] }},
{"zip_code":"51014","country":"US","city":"Cleghorn","state":"Iowa","state_ab":"IA","county":"Cherokee","geo_location":{ "type": "Point", "coordinates": [-95.7124, 42.8086] }},
{"zip_code":"52044","country":"US","city":"Elkport","state":"Iowa","state_ab":"IA","county":"Clayton","geo_location":{ "type": "Point", "coordinates": [-91.3203, 42.7624] }},
{"zip_code":"52701","country":"US","city":"Andover","state":"Iowa","state_ab":"IA","county":"Clinton","geo_location":{ "type": "Point", "coordinates": [-90.2223, 41.9644] }},
{"zip_code":"52727","country":"US","city":"Bryant","state":"Iowa","state_ab":"IA","county":"Clinton","geo_location":{ "type": "Point", "coordinates": [-90.3388, 41.9629] }},
{"zip_code":"51441","country":"US","city":"Deloit","state":"Iowa","state_ab":"IA","county":"Crawford","geo_location":{ "type": "Point", "coordinates": [-95.3045, 42.1238] }},
{"zip_code":"51454","country":"US","city":"Manilla","state":"Iowa","state_ab":"IA","county":"Crawford","geo_location":{ "type": "Point", "coordinates": [-95.2391, 41.8922] }},
{"zip_code":"51467","country":"US","city":"Westside","state":"Iowa","state_ab":"IA","county":"Crawford","geo_location":{ "type": "Point", "coordinates": [-95.1273, 42.1084] }},
{"zip_code":"50167","country":"US","city":"Minburn","state":"Iowa","state_ab":"IA","county":"Dallas","geo_location":{ "type": "Point", "coordinates": [-94.015, 41.7562] }},
{"zip_code":"52057","country":"US","city":"Manchester","state":"Iowa","state_ab":"IA","county":"Delaware","geo_location":{ "type": "Point", "coordinates": [-91.449, 42.4834] }},
{"zip_code":"52237","country":"US","city":"Hopkinton","state":"Iowa","state_ab":"IA","county":"Delaware","geo_location":{ "type": "Point", "coordinates": [-91.2461, 42.3422] }},
{"zip_code":"52637","country":"US","city":"Mediapolis","state":"Iowa","state_ab":"IA","county":"Des Moines","geo_location":{ "type": "Point", "coordinates": [-91.1321, 41.0059] }},
{"zip_code":"51351","country":"US","city":"Milford","state":"Iowa","state_ab":"IA","county":"Dickinson","geo_location":{ "type": "Point", "coordinates": [-95.1615, 43.3196] }},
{"zip_code":"51364","country":"US","city":"Terril","state":"Iowa","state_ab":"IA","county":"Dickinson","geo_location":{ "type": "Point", "coordinates": [-94.9737, 43.3241] }},
{"zip_code":"52004","country":"US","city":"Dubuque","state":"Iowa","state_ab":"IA","county":"Dubuque","geo_location":{ "type": "Point", "coordinates": [-90.8041, 42.4849] }},
{"zip_code":"50514","country":"US","city":"Armstrong","state":"Iowa","state_ab":"IA","county":"Emmet","geo_location":{ "type": "Point", "coordinates": [-94.4853, 43.4024] }},
{"zip_code":"52147","country":"US","city":"Hawkeye","state":"Iowa","state_ab":"IA","county":"Fayette","geo_location":{ "type": "Point", "coordinates": [-91.9578, 42.9487] }},
{"zip_code":"50064","country":"US","city":"Dana","state":"Iowa","state_ab":"IA","county":"Greene","geo_location":{ "type": "Point", "coordinates": [-94.2322, 42.1063] }},
{"zip_code":"50217","country":"US","city":"Paton","state":"Iowa","state_ab":"IA","county":"Greene","geo_location":{ "type": "Point", "coordinates": [-94.273, 42.1658] }},
{"zip_code":"50657","country":"US","city":"Morrison","state":"Iowa","state_ab":"IA","county":"Grundy","geo_location":{ "type": "Point", "coordinates": [-92.6738, 42.3433] }},
{"zip_code":"50231","country":"US","city":"Randall","state":"Iowa","state_ab":"IA","county":"Hamilton","geo_location":{ "type": "Point", "coordinates": [-93.6283, 42.2401] }},
{"zip_code":"50271","country":"US","city":"Williams","state":"Iowa","state_ab":"IA","county":"Hamilton","geo_location":{ "type": "Point", "coordinates": [-93.5677, 42.4614] }},
{"zip_code":"51557","country":"US","city":"Mondamin","state":"Iowa","state_ab":"IA","county":"Harrison","geo_location":{ "type": "Point", "coordinates": [-96.0072, 41.7089] }},
{"zip_code":"52134","country":"US","city":"Chester","state":"Iowa","state_ab":"IA","county":"Howard","geo_location":{ "type": "Point", "coordinates": [-92.4155, 43.473] }},
{"zip_code":"50541","country":"US","city":"Gilmore City","state":"Iowa","state_ab":"IA","county":"Humboldt","geo_location":{ "type": "Point", "coordinates": [-94.4108, 42.7067] }},
{"zip_code":"52251","country":"US","city":"Ladora","state":"Iowa","state_ab":"IA","county":"Iowa","geo_location":{ "type": "Point", "coordinates": [-92.1873, 41.7564] }},
{"zip_code":"52301","country":"US","city":"Marengo","state":"Iowa","state_ab":"IA","county":"Iowa","geo_location":{ "type": "Point", "coordinates": [-92.072, 41.7863] }},
{"zip_code":"52031","country":"US","city":"Bellevue","state":"Iowa","state_ab":"IA","county":"Jackson","geo_location":{ "type": "Point", "coordinates": [-90.4356, 42.2582] }},
{"zip_code":"52071","country":"US","city":"Saint Donatus","state":"Iowa","state_ab":"IA","county":"Jackson","geo_location":{ "type": "Point", "coordinates": [-90.4903, 42.3196] }},
{"zip_code":"50127","country":"US","city":"Ira","state":"Iowa","state_ab":"IA","county":"Jasper","geo_location":{ "type": "Point", "coordinates": [-93.2058, 41.7771] }},
{"zip_code":"50451","country":"US","city":"Lakota","state":"Iowa","state_ab":"IA","county":"Kossuth","geo_location":{ "type": "Point", "coordinates": [-94.0705, 43.3953] }},
{"zip_code":"52624","country":"US","city":"Denmark","state":"Iowa","state_ab":"IA","county":"Lee","geo_location":{ "type": "Point", "coordinates": [-91.3239, 40.7434] }},
{"zip_code":"52314","country":"US","city":"Mount Vernon","state":"Iowa","state_ab":"IA","county":"Linn","geo_location":{ "type": "Point", "coordinates": [-91.4274, 41.9287] }},
{"zip_code":"52341","country":"US","city":"Toddville","state":"Iowa","state_ab":"IA","county":"Linn","geo_location":{ "type": "Point", "coordinates": [-91.729, 42.1039] }},
{"zip_code":"52404","country":"US","city":"Cedar Rapids","state":"Iowa","state_ab":"IA","county":"Linn","geo_location":{ "type": "Point", "coordinates": [-91.6853, 41.9521] }},
{"zip_code":"52497","country":"US","city":"Cedar Rapids","state":"Iowa","state_ab":"IA","county":"Linn","geo_location":{ "type": "Point", "coordinates": [-91.5992, 42.0794] }},
{"zip_code":"52754","country":"US","city":"Letts","state":"Iowa","state_ab":"IA","county":"Louisa","geo_location":{ "type": "Point", "coordinates": [-91.204, 41.293] }},
{"zip_code":"50257","country":"US","city":"Truro","state":"Iowa","state_ab":"IA","county":"Madison","geo_location":{ "type": "Point", "coordinates": [-93.841, 41.2076] }},
{"zip_code":"52534","country":"US","city":"Beacon","state":"Iowa","state_ab":"IA","county":"Mahaska","geo_location":{ "type": "Point", "coordinates": [-92.6819, 41.272] }},
{"zip_code":"52561","country":"US","city":"Fremont","state":"Iowa","state_ab":"IA","county":"Mahaska","geo_location":{ "type": "Point", "coordinates": [-92.4362, 41.2117] }},
{"zip_code":"50051","country":"US","city":"Clemons","state":"Iowa","state_ab":"IA","county":"Marshall","geo_location":{ "type": "Point", "coordinates": [-93.1688, 42.09] }},
{"zip_code":"50141","country":"US","city":"Laurel","state":"Iowa","state_ab":"IA","county":"Marshall","geo_location":{ "type": "Point", "coordinates": [-92.9263, 41.8829] }},
{"zip_code":"51571","country":"US","city":"Silver City","state":"Iowa","state_ab":"IA","county":"Mills","geo_location":{ "type": "Point", "coordinates": [-95.6269, 41.113] }},
{"zip_code":"50864","country":"US","city":"Villisca","state":"Iowa","state_ab":"IA","county":"Montgomery","geo_location":{ "type": "Point", "coordinates": [-94.9796, 40.9437] }},
{"zip_code":"51647","country":"US","city":"Northboro","state":"Iowa","state_ab":"IA","county":"Page","geo_location":{ "type": "Point", "coordinates": [-95.3096, 40.6127] }},
{"zip_code":"50527","country":"US","city":"Curlew","state":"Iowa","state_ab":"IA","county":"Palo Alto","geo_location":{ "type": "Point", "coordinates": [-94.7975, 42.9633] }},
{"zip_code":"51001","country":"US","city":"Akron","state":"Iowa","state_ab":"IA","county":"Plymouth","geo_location":{ "type": "Point", "coordinates": [-96.5225, 42.8354] }},
{"zip_code":"50554","country":"US","city":"Laurens","state":"Iowa","state_ab":"IA","county":"Pocahontas","geo_location":{ "type": "Point", "coordinates": [-94.8508, 42.8409] }},
{"zip_code":"50581","country":"US","city":"Rolfe","state":"Iowa","state_ab":"IA","county":"Pocahontas","geo_location":{ "type": "Point", "coordinates": [-94.5166, 42.8082] }},
{"zip_code":"50307","country":"US","city":"Des Moines","state":"Iowa","state_ab":"IA","county":"Polk","geo_location":{ "type": "Point", "coordinates": [-93.5722, 41.6727] }},
{"zip_code":"50321","country":"US","city":"Des Moines","state":"Iowa","state_ab":"IA","county":"Polk","geo_location":{ "type": "Point", "coordinates": [-93.6618, 41.5476] }},
{"zip_code":"50334","country":"US","city":"Des Moines","state":"Iowa","state_ab":"IA","county":"Polk","geo_location":{ "type": "Point", "coordinates": [-93.5722, 41.6727] }},
{"zip_code":"50347","country":"US","city":"Des Moines","state":"Iowa","state_ab":"IA","county":"Polk","geo_location":{ "type": "Point", "coordinates": [-93.5722, 41.6727] }},
{"zip_code":"50361","country":"US","city":"Des Moines","state":"Iowa","state_ab":"IA","county":"Polk","geo_location":{ "type": "Point", "coordinates": [-93.5722, 41.6727] }},
{"zip_code":"50981","country":"US","city":"Des Moines","state":"Iowa","state_ab":"IA","county":"Polk","geo_location":{ "type": "Point", "coordinates": [-93.5722, 41.6727] }},
{"zip_code":"52211","country":"US","city":"Brooklyn","state":"Iowa","state_ab":"IA","county":"Poweshiek","geo_location":{ "type": "Point", "coordinates": [-92.4285, 41.7321] }},
{"zip_code":"50567","country":"US","city":"Nemaha","state":"Iowa","state_ab":"IA","county":"Sac","geo_location":{ "type": "Point", "coordinates": [-95.0939, 42.518] }},
{"zip_code":"52767","country":"US","city":"Pleasant Valley","state":"Iowa","state_ab":"IA","county":"Scott","geo_location":{ "type": "Point", "coordinates": [-90.4213, 41.5746] }},
{"zip_code":"52804","country":"US","city":"Davenport","state":"Iowa","state_ab":"IA","county":"Scott","geo_location":{ "type": "Point", "coordinates": [-90.6115, 41.5386] }}]}