{"value": [{"zip_code":"99661","country":"US","city":"Sand Point","state":"Alaska","state_ab":"AK","county":"Aleutians East","geo_location":{ "type": "Point", "coordinates": [-160.4914, 55.3192] }},
{"zip_code":"99504","country":"US","city":"Anchorage","state":"Alaska","state_ab":"AK","county":"Anchorage Municipality","geo_location":{ "type": "Point", "coordinates": [-149.7447, 61.2037] }},
{"zip_code":"99517","country":"US","city":"Anchorage","state":"Alaska","state_ab":"AK","county":"Anchorage Municipality","geo_location":{ "type": "Point", "coordinates": [-149.9361, 61.1901] }},
{"zip_code":"99557","country":"US","city":"Aniak","state":"Alaska","state_ab":"AK","county":"Bethel (CA)","geo_location":{ "type": "Point", "coordinates": [-163.1189, 60.3147] }},
{"zip_code":"99607","country":"US","city":"Kalskag","state":"Alaska","state_ab":"AK","county":"Bethel (CA)","geo_location":{ "type": "Point", "coordinates": [-160.3261, 61.541] }},
{"zip_code":"99621","country":"US","city":"Kwethluk","state":"Alaska","state_ab":"AK","county":"Bethel (CA)","geo_location":{ "type": "Point", "coordinates": [-163.1189, 60.3147] }},
{"zip_code":"99634","country":"US","city":"Napakiak","state":"Alaska","state_ab":"AK","county":"Bethel (CA)","geo_location":{ "type": "Point", "coordinates": [-163.1189, 60.3147] }},
{"zip_code":"99711","country":"US","city":"Fairbanks","state":"Alaska","state_ab":"AK","county":"Fairbanks North Star","geo_location":{ "type": "Point", "coordinates": [-147.3888, 64.8264] }},
{"zip_code":"99827","country":"US","city":"Haines","state":"Alaska","state_ab":"AK","county":"Haines","geo_location":{ "type": "Point", "coordinates": [-135.542, 59.2519] }},
{"zip_code":"99801","country":"US","city":"Juneau","state":"Alaska","state_ab":"AK","county":"Juneau City and Boroug","geo_location":{ "type": "Point", "coordinates": [-134.5294, 58.3628] }},
{"zip_code":"99647","country":"US","city":"Pedro Bay","state":"Alaska","state_ab":"AK","county":"Lake and Peninsula","geo_location":{ "type": "Point", "coordinates": [-154.0757, 59.8681] }},
{"zip_code":"99674","country":"US","city":"Sutton","state":"Alaska","state_ab":"AK","county":"Matanuska-Susitna","geo_location":{ "type": "Point", "coordinates": [-148.7837, 61.7327] }},
{"zip_code":"99687","country":"US","city":"Wasilla","state":"Alaska","state_ab":"AK","county":"Matanuska-Susitna","geo_location":{ "type": "Point", "coordinates": [-149.4784, 61.5313] }},
{"zip_code":"99791","country":"US","city":"Atqasuk","state":"Alaska","state_ab":"AK","county":"North Slope","geo_location":{ "type": "Point", "coordinates": [-157.4411, 70.4947] }},
{"zip_code":"99751","country":"US","city":"Kobuk","state":"Alaska","state_ab":"AK","county":"Northwest Arctic","geo_location":{ "type": "Point", "coordinates": [-159.8439, 66.8684] }},
{"zip_code":"99841","country":"US","city":"Tenakee Springs","state":"Alaska","state_ab":"AK","county":"Skagway-Hoonah-Angoon","geo_location":{ "type": "Point", "coordinates": [-135.1844, 57.7943] }},
{"zip_code":"99737","country":"US","city":"Delta Junction","state":"Alaska","state_ab":"AK","county":"Southeast Fairbanks (C","geo_location":{ "type": "Point", "coordinates": [-145.0726, 63.7964] }},
{"zip_code":"99764","country":"US","city":"Northway","state":"Alaska","state_ab":"AK","county":"Southeast Fairbanks (C","geo_location":{ "type": "Point", "coordinates": [-144.0026, 63.8706] }},
{"zip_code":"99584","country":"US","city":"Flat","state":"Alaska","state_ab":"AK","county":"Yukon-Koyukuk (CA)","geo_location":{ "type": "Point", "coordinates": [-151.0251, 65.2264] }},
{"zip_code":"99724","country":"US","city":"Beaver","state":"Alaska","state_ab":"AK","county":"Yukon-Koyukuk (CA)","geo_location":{ "type": "Point", "coordinates": [-149.193, 66.9297] }},
{"zip_code":"99777","country":"US","city":"Tanana","state":"Alaska","state_ab":"AK","county":"Yukon-Koyukuk (CA)","geo_location":{ "type": "Point", "coordinates": [-151.0251, 65.2264] }},
{"zip_code":"36051","country":"US","city":"Marbury","state":"Alabama","state_ab":"AL","county":"Autauga","geo_location":{ "type": "Point", "coordinates": [-86.4946, 32.6841] }},
{"zip_code":"36527","country":"US","city":"Spanish Fort","state":"Alabama","state_ab":"AL","county":"Baldwin","geo_location":{ "type": "Point", "coordinates": [-87.8867, 30.6959] }},
{"zip_code":"36567","country":"US","city":"Robertsdale","state":"Alabama","state_ab":"AL","county":"Baldwin","geo_location":{ "type": "Point", "coordinates": [-87.6373, 30.5616] }},
{"zip_code":"35034","country":"US","city":"Brent","state":"Alabama","state_ab":"AL","county":"Bibb","geo_location":{ "type": "Point", "coordinates": [-87.2114, 32.9357] }},
{"zip_code":"35074","country":"US","city":"Green Pond","state":"Alabama","state_ab":"AL","county":"Bibb","geo_location":{ "type": "Point", "coordinates": [-87.118, 33.2027] }},
{"zip_code":"36037","country":"US","city":"Greenville","state":"Alabama","state_ab":"AL","county":"Butler","geo_location":{ "type": "Point", "coordinates": [-86.6229, 31.81] }},
{"zip_code":"36204","country":"US","city":"Anniston","state":"Alabama","state_ab":"AL","county":"Calhoun","geo_location":{ "type": "Point", "coordinates": [-85.8378, 33.7622] }},
{"zip_code":"36257","country":"US","city":"De Armanville","state":"Alabama","state_ab":"AL","county":"Calhoun","geo_location":{ "type": "Point", "coordinates": [-85.8378, 33.7622] }},
{"zip_code":"36271","country":"US","city":"Ohatchee","state":"Alabama","state_ab":"AL","county":"Calhoun","geo_location":{ "type": "Point", "coordinates": [-86.0254, 33.7788] }},
{"zip_code":"36091","country":"US","city":"Verbena","state":"Alabama","state_ab":"AL","county":"Chilton","geo_location":{ "type": "Point", "coordinates": [-86.5438, 32.7596] }},
{"zip_code":"36451","country":"US","city":"Grove Hill","state":"Alabama","state_ab":"AL","county":"Clarke","geo_location":{ "type": "Point", "coordinates": [-87.7636, 31.6755] }},
{"zip_code":"36501","country":"US","city":"Alma","state":"Alabama","state_ab":"AL","county":"Clarke","geo_location":{ "type": "Point", "coordinates": [-87.8801, 31.4825] }},
{"zip_code":"35087","country":"US","city":"Joppa","state":"Alabama","state_ab":"AL","county":"Cullman","geo_location":{ "type": "Point", "coordinates": [-86.5519, 34.2837] }},
{"zip_code":"36361","country":"US","city":"Ozark","state":"Alabama","state_ab":"AL","county":"Dale","geo_location":{ "type": "Point", "coordinates": [-85.6035, 31.4079] }},
{"zip_code":"36374","country":"US","city":"Skipperville","state":"Alabama","state_ab":"AL","county":"Dale","geo_location":{ "type": "Point", "coordinates": [-85.537, 31.5748] }},
{"zip_code":"36761","country":"US","city":"Minter","state":"Alabama","state_ab":"AL","county":"Dallas","geo_location":{ "type": "Point", "coordinates": [-87.0633, 32.1899] }},
{"zip_code":"36024","country":"US","city":"Eclectic","state":"Alabama","state_ab":"AL","county":"Elmore","geo_location":{ "type": "Point", "coordinates": [-86.0316, 32.6542] }},
{"zip_code":"35654","country":"US","city":"Russellville","state":"Alabama","state_ab":"AL","county":"Franklin","geo_location":{ "type": "Point", "coordinates": [-87.6478, 34.4675] }},
{"zip_code":"36477","country":"US","city":"Samson","state":"Alabama","state_ab":"AL","county":"Geneva","geo_location":{ "type": "Point", "coordinates": [-86.0674, 31.1049] }},
{"zip_code":"35474","country":"US","city":"Moundville","state":"Alabama","state_ab":"AL","county":"Hale","geo_location":{ "type": "Point", "coordinates": [-87.5935, 32.9108] }},
{"zip_code":"36321","country":"US","city":"Cowarts","state":"Alabama","state_ab":"AL","county":"Houston","geo_location":{ "type": "Point", "coordinates": [-85.3014, 31.2025] }},
{"zip_code":"35744","country":"US","city":"Dutton","state":"Alabama","state_ab":"AL","county":"Jackson","geo_location":{ "type": "Point", "coordinates": [-85.9067, 34.6046] }},
{"zip_code":"35771","country":"US","city":"Section","state":"Alabama","state_ab":"AL","county":"Jackson","geo_location":{ "type": "Point", "coordinates": [-85.994, 34.5433] }},
{"zip_code":"35021","country":"US","city":"Bessemer","state":"Alabama","state_ab":"AL","county":"Jefferson","geo_location":{ "type": "Point", "coordinates": [-86.9292, 33.5446] }},
{"zip_code":"35061","country":"US","city":"Dolomite","state":"Alabama","state_ab":"AL","county":"Jefferson","geo_location":{ "type": "Point", "coordinates": [-86.9564, 33.4654] }},
{"zip_code":"35111","country":"US","city":"Mc Calla","state":"Alabama","state_ab":"AL","county":"Jefferson","geo_location":{ "type": "Point", "coordinates": [-87.1024, 33.2845] }},
{"zip_code":"35201","country":"US","city":"Birmingham","state":"Alabama","state_ab":"AL","county":"Jefferson","geo_location":{ "type": "Point", "coordinates": [-86.8019, 33.4564] }},
{"zip_code":"35214","country":"US","city":"Birmingham","state":"Alabama","state_ab":"AL","county":"Jefferson","geo_location":{ "type": "Point", "coordinates": [-86.887, 33.5554] }},
{"zip_code":"35254","country":"US","city":"Birmingham","state":"Alabama","state_ab":"AL","county":"Jefferson","geo_location":{ "type": "Point", "coordinates": [-86.9292, 33.5446] }},
{"zip_code":"35281","country":"US","city":"Birmingham","state":"Alabama","state_ab":"AL","county":"Jefferson","geo_location":{ "type": "Point", "coordinates": [-86.9292, 33.5446] }},
{"zip_code":"35294","country":"US","city":"Birmingham","state":"Alabama","state_ab":"AL","county":"Jefferson","geo_location":{ "type": "Point", "coordinates": [-86.9292, 33.5446] }},
{"zip_code":"36877","country":"US","city":"Smiths","state":"Alabama","state_ab":"AL","county":"Lee","geo_location":{ "type": "Point", "coordinates": [-85.1, 32.5201] }},
{"zip_code":"35614","country":"US","city":"Athens","state":"Alabama","state_ab":"AL","county":"Limestone","geo_location":{ "type": "Point", "coordinates": [-87.0607, 34.8474] }},
{"zip_code":"35757","country":"US","city":"Madison","state":"Alabama","state_ab":"AL","county":"Madison","geo_location":{ "type": "Point", "coordinates": [-86.7442, 34.7782] }},
{"zip_code":"35807","country":"US","city":"Huntsville","state":"Alabama","state_ab":"AL","county":"Madison","geo_location":{ "type": "Point", "coordinates": [-86.5229, 34.734] }},
{"zip_code":"35564","country":"US","city":"Hackleburg","state":"Alabama","state_ab":"AL","county":"Marion","geo_location":{ "type": "Point", "coordinates": [-87.8608, 34.2678] }},
{"zip_code":"35951","country":"US","city":"Albertville","state":"Alabama","state_ab":"AL","county":"Marshall","geo_location":{ "type": "Point", "coordinates": [-86.1935, 34.3223] }},
{"zip_code":"35964","country":"US","city":"Douglas","state":"Alabama","state_ab":"AL","county":"Marshall","geo_location":{ "type": "Point", "coordinates": [-86.3198, 34.3496] }},
{"zip_code":"36541","country":"US","city":"Grand Bay","state":"Alabama","state_ab":"AL","county":"Mobile","geo_location":{ "type": "Point", "coordinates": [-88.3282, 30.4983] }},
{"zip_code":"36604","country":"US","city":"Mobile","state":"Alabama","state_ab":"AL","county":"Mobile","geo_location":{ "type": "Point", "coordinates": [-88.0678, 30.682] }},
{"zip_code":"36617","country":"US","city":"Mobile","state":"Alabama","state_ab":"AL","county":"Mobile","geo_location":{ "type": "Point", "coordinates": [-88.0918, 30.7145] }},
{"zip_code":"36631","country":"US","city":"Mobile","state":"Alabama","state_ab":"AL","county":"Mobile","geo_location":{ "type": "Point", "coordinates": [-88.178, 30.6589] }},
{"zip_code":"36644","country":"US","city":"Mobile","state":"Alabama","state_ab":"AL","county":"Mobile","geo_location":{ "type": "Point", "coordinates": [-88.178, 30.6589] }},
{"zip_code":"36671","country":"US","city":"Mobile","state":"Alabama","state_ab":"AL","county":"Mobile","geo_location":{ "type": "Point", "coordinates": [-88.178, 30.6589] }},
{"zip_code":"36064","country":"US","city":"Pike Road","state":"Alabama","state_ab":"AL","county":"Montgomery","geo_location":{ "type": "Point", "coordinates": [-86.0959, 32.3357] }},
{"zip_code":"36101","country":"US","city":"Montgomery","state":"Alabama","state_ab":"AL","county":"Montgomery","geo_location":{ "type": "Point", "coordinates": [-86.2578, 32.357] }},
{"zip_code":"36114","country":"US","city":"Montgomery","state":"Alabama","state_ab":"AL","county":"Montgomery","geo_location":{ "type": "Point", "coordinates": [-86.2539, 32.404] }},
{"zip_code":"36141","country":"US","city":"Montgomery","state":"Alabama","state_ab":"AL","county":"Montgomery","geo_location":{ "type": "Point", "coordinates": [-86.2085, 32.2334] }},
{"zip_code":"36194","country":"US","city":"Montgomery","state":"Alabama","state_ab":"AL","county":"Montgomery County","geo_location":{ "type": "Point", "coordinates": [-86.2843, 32.3544] }},
{"zip_code":"35601","country":"US","city":"Decatur","state":"Alabama","state_ab":"AL","county":"Morgan","geo_location":{ "type": "Point", "coordinates": [-86.9887, 34.5896] }},
{"zip_code":"35447","country":"US","city":"Carrollton","state":"Alabama","state_ab":"AL","county":"Pickens","geo_location":{ "type": "Point", "coordinates": [-88.1321, 33.2485] }},
{"zip_code":"35461","country":"US","city":"Ethelsville","state":"Alabama","state_ab":"AL","county":"Pickens","geo_location":{ "type": "Point", "coordinates": [-88.222, 33.3868] }},
{"zip_code":"36851","country":"US","city":"Cottonton","state":"Alabama","state_ab":"AL","county":"Russell","geo_location":{ "type": "Point", "coordinates": [-85.1615, 32.2861] }},
{"zip_code":"92561","country":"US","city":"Mountain Center","state":"California","state_ab":"CA","county":"Riverside","geo_location":{ "type": "Point", "coordinates": [-116.5567, 33.6401] }},
{"zip_code":"92587","country":"US","city":"Sun City","state":"California","state_ab":"CA","county":"Riverside","geo_location":{ "type": "Point", "coordinates": [-117.2529, 33.6951] }},
{"zip_code":"94204","country":"US","city":"Sacramento","state":"California","state_ab":"CA","county":"Sacramento","geo_location":{ "type": "Point", "coordinates": [-121.4444, 38.3774] }},
{"zip_code":"94244","country":"US","city":"Sacramento","state":"California","state_ab":"CA","county":"Sacramento","geo_location":{ "type": "Point", "coordinates": [-121.4444, 38.3774] }},
{"zip_code":"94257","country":"US","city":"Sacramento","state":"California","state_ab":"CA","county":"Sacramento","geo_location":{ "type": "Point", "coordinates": [-121.4444, 38.3774] }},
{"zip_code":"94271","country":"US","city":"Sacramento","state":"California","state_ab":"CA","county":"Sacramento","geo_location":{ "type": "Point", "coordinates": [-121.4444, 38.3774] }},
{"zip_code":"94284","country":"US","city":"Sacramento","state":"California","state_ab":"CA","county":"Sacramento","geo_location":{ "type": "Point", "coordinates": [-121.4444, 38.3774] }},
{"zip_code":"94297","country":"US","city":"Sacramento","state":"California","state_ab":"CA","county":"Sacramento","geo_location":{ "type": "Point", "coordinates": [-121.4444, 38.3774] }},
{"zip_code":"95621","country":"US","city":"Citrus Heights","state":"California","state_ab":"CA","county":"Sacramento","geo_location":{ "type": "Point", "coordinates": [-121.3075, 38.6952] }},
{"zip_code":"95814","country":"US","city":"Sacramento","state":"California","state_ab":"CA","county":"Sacramento","geo_location":{ "type": "Point", "coordinates": [-121.4922, 38.5804] }},
{"zip_code":"95827","country":"US","city":"Sacramento","state":"California","state_ab":"CA","county":"Sacramento","geo_location":{ "type": "Point", "coordinates": [-121.3286, 38.5662] }},
{"zip_code":"95841","country":"US","city":"Sacramento","state":"California","state_ab":"CA","county":"Sacramento","geo_location":{ "type": "Point", "coordinates": [-121.3406, 38.6627] }},
{"zip_code":"95867","country":"US","city":"Sacramento","state":"California","state_ab":"CA","county":"Sacramento","geo_location":{ "type": "Point", "coordinates": [-121.4933, 38.5816] }},
{"zip_code":"95894","country":"US","city":"Sacramento","state":"California","state_ab":"CA","county":"Sacramento","geo_location":{ "type": "Point", "coordinates": [-121.4933, 38.5816] }},
{"zip_code":"91737","country":"US","city":"Rancho Cucamonga","state":"California","state_ab":"CA","county":"San Bernardino","geo_location":{ "type": "Point", "coordinates": [-117.5803, 34.1467] }},
{"zip_code":"91764","country":"US","city":"Ontario","state":"California","state_ab":"CA","county":"San Bernardino","geo_location":{ "type": "Point", "coordinates": [-117.6254, 34.0763] }},
{"zip_code":"92277","country":"US","city":"Twentynine Palms","state":"California","state_ab":"CA","county":"San Bernardino","geo_location":{ "type": "Point", "coordinates": [-116.0601, 34.1455] }},
{"zip_code":"92301","country":"US","city":"Adelanto","state":"California","state_ab":"CA","county":"San Bernardino","geo_location":{ "type": "Point", "coordinates": [-117.4242, 34.5841] }},
{"zip_code":"92314","country":"US","city":"Big Bear City","state":"California","state_ab":"CA","county":"San Bernardino","geo_location":{ "type": "Point", "coordinates": [-116.8131, 34.261] }},
{"zip_code":"92327","country":"US","city":"Daggett","state":"California","state_ab":"CA","county":"San Bernardino","geo_location":{ "type": "Point", "coordinates": [-116.8876, 34.8668] }},
{"zip_code":"92341","country":"US","city":"Green Valley Lake","state":"California","state_ab":"CA","county":"San Bernardino","geo_location":{ "type": "Point", "coordinates": [-117.066, 34.2348] }},
{"zip_code":"92354","country":"US","city":"Loma Linda","state":"California","state_ab":"CA","county":"San Bernardino","geo_location":{ "type": "Point", "coordinates": [-117.2513, 34.0528] }},
{"zip_code":"92394","country":"US","city":"Victorville","state":"California","state_ab":"CA","county":"San Bernardino","geo_location":{ "type": "Point", "coordinates": [-117.3528, 34.5563] }},
{"zip_code":"92404","country":"US","city":"San Bernardino","state":"California","state_ab":"CA","county":"San Bernardino","geo_location":{ "type": "Point", "coordinates": [-117.2606, 34.1426] }},
{"zip_code":"91917","country":"US","city":"Dulzura","state":"California","state_ab":"CA","county":"San Diego","geo_location":{ "type": "Point", "coordinates": [-116.7285, 32.6152] }},
{"zip_code":"91931","country":"US","city":"Guatay","state":"California","state_ab":"CA","county":"San Diego","geo_location":{ "type": "Point", "coordinates": [-116.846, 33.0169] }},
{"zip_code":"91944","country":"US","city":"La Mesa","state":"California","state_ab":"CA","county":"San Diego","geo_location":{ "type": "Point", "coordinates": [-116.846, 33.0169] }},
{"zip_code":"92004","country":"US","city":"Borrego Springs","state":"California","state_ab":"CA","county":"San Diego","geo_location":{ "type": "Point", "coordinates": [-116.3514, 33.2386] }},
{"zip_code":"92057","country":"US","city":"Oceanside","state":"California","state_ab":"CA","county":"San Diego","geo_location":{ "type": "Point", "coordinates": [-117.3025, 33.2407] }},
{"zip_code":"92071","country":"US","city":"Santee","state":"California","state_ab":"CA","county":"San Diego","geo_location":{ "type": "Point", "coordinates": [-116.9862, 32.8486] }},
{"zip_code":"92084","country":"US","city":"Vista","state":"California","state_ab":"CA","county":"San Diego","geo_location":{ "type": "Point", "coordinates": [-117.2243, 33.2131] }},
{"zip_code":"92107","country":"US","city":"San Diego","state":"California","state_ab":"CA","county":"San Diego","geo_location":{ "type": "Point", "coordinates": [-117.2433, 32.7425] }},
{"zip_code":"92121","country":"US","city":"San Diego","state":"California","state_ab":"CA","county":"San Diego","geo_location":{ "type": "Point", "coordinates": [-117.2035, 32.8919] }},
{"zip_code":"92134","country":"US","city":"San Diego","state":"California","state_ab":"CA","county":"San Diego","geo_location":{ "type": "Point", "coordinates": [-117.1466, 32.7242] }},
{"zip_code":"92147","country":"US","city":"San Diego","state":"California","state_ab":"CA","county":"San Diego","geo_location":{ "type": "Point", "coordinates": [-116.846, 33.0169] }},
{"zip_code":"92161","country":"US","city":"San Diego","state":"California","state_ab":"CA","county":"San Diego","geo_location":{ "type": "Point", "coordinates": [-117.2291, 32.8718] }},
{"zip_code":"92174","country":"US","city":"San Diego","state":"California","state_ab":"CA","county":"San Diego","geo_location":{ "type": "Point", "coordinates": [-116.846, 33.0169] }},
{"zip_code":"92187","country":"US","city":"San Diego","state":"California","state_ab":"CA","county":"San Diego","geo_location":{ "type": "Point", "coordinates": [-116.846, 33.0169] }},
{"zip_code":"94101","country":"US","city":"San Francisco","state":"California","state_ab":"CA","county":"San Francisco","geo_location":{ "type": "Point", "coordinates": [-122.7278, 37.7848] }},
{"zip_code":"94114","country":"US","city":"San Francisco","state":"California","state_ab":"CA","county":"San Francisco","geo_location":{ "type": "Point", "coordinates": [-122.433, 37.7587] }},
{"zip_code":"94127","country":"US","city":"San Francisco","state":"California","state_ab":"CA","county":"San Francisco","geo_location":{ "type": "Point", "coordinates": [-122.4571, 37.7354] }},
{"zip_code":"94141","country":"US","city":"San Francisco","state":"California","state_ab":"CA","county":"San Francisco","geo_location":{ "type": "Point", "coordinates": [-122.7278, 37.7848] }},
{"zip_code":"94154","country":"US","city":"San Francisco","state":"California","state_ab":"CA","county":"San Francisco","geo_location":{ "type": "Point", "coordinates": [-122.7278, 37.7848] }},
{"zip_code":"94167","country":"US","city":"San Francisco","state":"California","state_ab":"CA","county":"San Francisco","geo_location":{ "type": "Point", "coordinates": [-122.7278, 37.7848] }},
{"zip_code":"95207","country":"US","city":"Stockton","state":"California","state_ab":"CA","county":"San Joaquin","geo_location":{ "type": "Point", "coordinates": [-121.3238, 38.0024] }},
{"zip_code":"95234","country":"US","city":"Holt","state":"California","state_ab":"CA","county":"San Joaquin","geo_location":{ "type": "Point", "coordinates": [-121.4261, 37.9344] }},
{"zip_code":"95337","country":"US","city":"Manteca","state":"California","state_ab":"CA","county":"San Joaquin","geo_location":{ "type": "Point", "coordinates": [-121.2344, 37.7808] }},
{"zip_code":"95377","country":"US","city":"Tracy","state":"California","state_ab":"CA","county":"San Joaquin","geo_location":{ "type": "Point", "coordinates": [-121.4955, 37.6567] }},
{"zip_code":"95391","country":"US","city":"Tracy","state":"California","state_ab":"CA","county":"San Joaquin","geo_location":{ "type": "Point", "coordinates": [-121.5397, 37.7695] }},
{"zip_code":"93407","country":"US","city":"San Luis Obispo","state":"California","state_ab":"CA","county":"San Luis Obispo","geo_location":{ "type": "Point", "coordinates": [-120.4553, 35.3471] }},
{"zip_code":"93421","country":"US","city":"Arroyo Grande","state":"California","state_ab":"CA","county":"San Luis Obispo","geo_location":{ "type": "Point", "coordinates": [-120.4553, 35.3471] }},
{"zip_code":"93447","country":"US","city":"Paso Robles","state":"California","state_ab":"CA","county":"San Luis Obispo","geo_location":{ "type": "Point", "coordinates": [-120.6935, 35.7562] }},
{"zip_code":"93461","country":"US","city":"Shandon","state":"California","state_ab":"CA","county":"San Luis Obispo","geo_location":{ "type": "Point", "coordinates": [-120.372, 35.6513] }},
{"zip_code":"94011","country":"US","city":"Burlingame","state":"California","state_ab":"CA","county":"San Mateo","geo_location":{ "type": "Point", "coordinates": [-122.3348, 37.3811] }},
{"zip_code":"94037","country":"US","city":"Montara","state":"California","state_ab":"CA","county":"San Mateo","geo_location":{ "type": "Point", "coordinates": [-122.5052, 37.5428] }},
{"zip_code":"94064","country":"US","city":"Redwood City","state":"California","state_ab":"CA","county":"San Mateo","geo_location":{ "type": "Point", "coordinates": [-122.3348, 37.3811] }},
{"zip_code":"94307","country":"US","city":"Palo Alto","state":"California","state_ab":"CA","county":"San Mateo","geo_location":{ "type": "Point", "coordinates": [-122.3348, 37.3811] }},
{"zip_code":"93111","country":"US","city":"Santa Barbara","state":"California","state_ab":"CA","county":"Santa Barbara","geo_location":{ "type": "Point", "coordinates": [-119.8025, 34.4453] }},
{"zip_code":"93214","country":"US","city":"Cuyama","state":"California","state_ab":"CA","county":"Santa Barbara County","geo_location":{ "type": "Point", "coordinates": [-119.686, 34.8934] }},
{"zip_code":"93254","country":"US","city":"New Cuyama","state":"California","state_ab":"CA","county":"Santa Barbara","geo_location":{ "type": "Point", "coordinates": [-119.8238, 34.9967] }},
{"zip_code":"93434","country":"US","city":"Guadalupe","state":"California","state_ab":"CA","county":"Santa Barbara","geo_location":{ "type": "Point", "coordinates": [-120.5703, 34.96] }},
{"zip_code":"94024","country":"US","city":"Los Altos","state":"California","state_ab":"CA","county":"Santa Clara","geo_location":{ "type": "Point", "coordinates": [-122.0862, 37.3547] }},
{"zip_code":"94091","country":"US","city":"Sunnyvale","state":"California","state_ab":"CA","county":"Santa Clara County","geo_location":{ "type": "Point", "coordinates": [-122.0255, 37.3858] }},
{"zip_code":"95014","country":"US","city":"Cupertino","state":"California","state_ab":"CA","county":"Santa Clara","geo_location":{ "type": "Point", "coordinates": [-122.0449, 37.318] }},
{"zip_code":"95054","country":"US","city":"Santa Clara","state":"California","state_ab":"CA","county":"Santa Clara","geo_location":{ "type": "Point", "coordinates": [-121.9623, 37.3924] }},
{"zip_code":"95117","country":"US","city":"San Jose","state":"California","state_ab":"CA","county":"Santa Clara","geo_location":{ "type": "Point", "coordinates": [-121.9623, 37.3108] }},
{"zip_code":"95131","country":"US","city":"San Jose","state":"California","state_ab":"CA","county":"Santa Clara","geo_location":{ "type": "Point", "coordinates": [-121.88, 37.3864] }},
{"zip_code":"95157","country":"US","city":"San Jose","state":"California","state_ab":"CA","county":"Santa Clara","geo_location":{ "type": "Point", "coordinates": [-121.9777, 37.3008] }},
{"zip_code":"95001","country":"US","city":"Aptos","state":"California","state_ab":"CA","county":"Santa Cruz","geo_location":{ "type": "Point", "coordinates": [-121.898, 36.979] }},
{"zip_code":"95041","country":"US","city":"Mount Hermon","state":"California","state_ab":"CA","county":"Santa Cruz","geo_location":{ "type": "Point", "coordinates": [-122.0575, 37.0511] }},
{"zip_code":"95067","country":"US","city":"Scotts Valley","state":"California","state_ab":"CA","county":"Santa Cruz","geo_location":{ "type": "Point", "coordinates": [-122.0136, 37.0511] }},
{"zip_code":"96017","country":"US","city":"Castella","state":"California","state_ab":"CA","county":"Shasta","geo_location":{ "type": "Point", "coordinates": [-122.3161, 41.1103] }},
{"zip_code":"96071","country":"US","city":"Old Station","state":"California","state_ab":"CA","county":"Shasta","geo_location":{ "type": "Point", "coordinates": [-121.4585, 40.6256] }},
{"zip_code":"96084","country":"US","city":"Round Mountain","state":"California","state_ab":"CA","county":"Shasta","geo_location":{ "type": "Point", "coordinates": [-122.1711, 40.7629] }},
{"zip_code":"95944","country":"US","city":"Goodyears Bar","state":"California","state_ab":"CA","county":"Sierra","geo_location":{ "type": "Point", "coordinates": [-120.8171, 39.5299] }},
{"zip_code":"96031","country":"US","city":"Forks Of Salmon","state":"California","state_ab":"CA","county":"Siskiyou","geo_location":{ "type": "Point", "coordinates": [-123.2363, 41.2191] }},
{"zip_code":"96044","country":"US","city":"Hornbrook","state":"California","state_ab":"CA","county":"Siskiyou","geo_location":{ "type": "Point", "coordinates": [-122.5265, 41.9077] }},
{"zip_code":"96057","country":"US","city":"Mccloud","state":"California","state_ab":"CA","county":"Siskiyou","geo_location":{ "type": "Point", "coordinates": [-122.1128, 41.2475] }},
{"zip_code":"96097","country":"US","city":"Yreka","state":"California","state_ab":"CA","county":"Siskiyou","geo_location":{ "type": "Point", "coordinates": [-122.6376, 41.7206] }},
{"zip_code":"96134","country":"US","city":"Tulelake","state":"California","state_ab":"CA","county":"Siskiyou","geo_location":{ "type": "Point", "coordinates": [-121.4347, 41.9316] }},
{"zip_code":"95687","country":"US","city":"Vacaville","state":"California","state_ab":"CA","county":"Solano","geo_location":{ "type": "Point", "coordinates": [-121.9538, 38.3482] }},
{"zip_code":"94927","country":"US","city":"Rohnert Park","state":"California","state_ab":"CA","county":"Sonoma","geo_location":{ "type": "Point", "coordinates": [-122.99, 38.4631] }},
{"zip_code":"94954","country":"US","city":"Petaluma","state":"California","state_ab":"CA","county":"Sonoma","geo_location":{ "type": "Point", "coordinates": [-122.6155, 38.2507] }},
{"zip_code":"95401","country":"US","city":"Santa Rosa","state":"California","state_ab":"CA","county":"Sonoma","geo_location":{ "type": "Point", "coordinates": [-122.7547, 38.4432] }},
{"zip_code":"34107","country":"US","city":"Vanderbilt Beach","state":"Florida","state_ab":"FL","county":"Collier","geo_location":{ "type": "Point", "coordinates": [-81.3891, 26.1433] }},
{"zip_code":"32024","country":"US","city":"Lake City","state":"Florida","state_ab":"FL","county":"Columbia","geo_location":{ "type": "Point", "coordinates": [-82.6878, 30.1055] }},
{"zip_code":"32204","country":"US","city":"Jacksonville","state":"Florida","state_ab":"FL","county":"Duval","geo_location":{ "type": "Point", "coordinates": [-81.6854, 30.3189] }},
{"zip_code":"32217","country":"US","city":"Jacksonville","state":"Florida","state_ab":"FL","county":"Duval","geo_location":{ "type": "Point", "coordinates": [-81.617, 30.2407] }},
{"zip_code":"32231","country":"US","city":"Jacksonville","state":"Florida","state_ab":"FL","county":"Duval","geo_location":{ "type": "Point", "coordinates": [-81.6831, 30.3449] }},
{"zip_code":"32244","country":"US","city":"Jacksonville","state":"Florida","state_ab":"FL","county":"Duval","geo_location":{ "type": "Point", "coordinates": [-81.7556, 30.2231] }},
{"zip_code":"32257","country":"US","city":"Jacksonville","state":"Florida","state_ab":"FL","county":"Duval","geo_location":{ "type": "Point", "coordinates": [-81.605, 30.1927] }},
{"zip_code":"32297","country":"US","city":"Jacksonville","state":"Florida","state_ab":"FL","county":"Duval County","geo_location":{ "type": "Point", "coordinates": [-81.4174, 30.3162] }},
{"zip_code":"32501","country":"US","city":"Pensacola","state":"Florida","state_ab":"FL","county":"Escambia","geo_location":{ "type": "Point", "coordinates": [-87.2248, 30.4223] }},
{"zip_code":"32514","country":"US","city":"Pensacola","state":"Florida","state_ab":"FL","county":"Escambia","geo_location":{ "type": "Point", "coordinates": [-87.2167, 30.5241] }},
{"zip_code":"32581","country":"US","city":"Pensacola","state":"Florida","state_ab":"FL","county":"Escambia","geo_location":{ "type": "Point", "coordinates": [-87.2758, 30.6143] }},
{"zip_code":"32594","country":"US","city":"Pensacola","state":"Florida","state_ab":"FL","county":"Escambia","geo_location":{ "type": "Point", "coordinates": [-87.2758, 30.6143] }},
{"zip_code":"33944","country":"US","city":"Palmdale","state":"Florida","state_ab":"FL","county":"Glades","geo_location":{ "type": "Point", "coordinates": [-81.3091, 26.9464] }},
{"zip_code":"34611","country":"US","city":"Spring Hill","state":"Florida","state_ab":"FL","county":"Hernando","geo_location":{ "type": "Point", "coordinates": [-82.4165, 28.5642] }},
{"zip_code":"33571","country":"US","city":"Sun City Center","state":"Florida","state_ab":"FL","county":"Hillsborough","geo_location":{ "type": "Point", "coordinates": [-82.453, 27.7201] }},
{"zip_code":"33584","country":"US","city":"Seffner","state":"Florida","state_ab":"FL","county":"Hillsborough","geo_location":{ "type": "Point", "coordinates": [-82.2863, 27.9922] }},
{"zip_code":"33607","country":"US","city":"Tampa","state":"Florida","state_ab":"FL","county":"Hillsborough","geo_location":{ "type": "Point", "coordinates": [-82.4895, 27.9625] }},
{"zip_code":"33621","country":"US","city":"Tampa","state":"Florida","state_ab":"FL","county":"Hillsborough","geo_location":{ "type": "Point", "coordinates": [-82.4946, 27.8491] }},
{"zip_code":"33634","country":"US","city":"Tampa","state":"Florida","state_ab":"FL","county":"Hillsborough","geo_location":{ "type": "Point", "coordinates": [-82.556, 28.0068] }},
{"zip_code":"33647","country":"US","city":"Tampa","state":"Florida","state_ab":"FL","county":"Hillsborough","geo_location":{ "type": "Point", "coordinates": [-82.3678, 28.1147] }},
{"zip_code":"33661","country":"US","city":"Tampa","state":"Florida","state_ab":"FL","county":"Hillsborough","geo_location":{ "type": "Point", "coordinates": [-82.4388, 27.872] }},
{"zip_code":"33674","country":"US","city":"Tampa","state":"Florida","state_ab":"FL","county":"Hillsborough","geo_location":{ "type": "Point", "coordinates": [-82.4388, 27.872] }},
{"zip_code":"33687","country":"US","city":"Tampa","state":"Florida","state_ab":"FL","county":"Hillsborough","geo_location":{ "type": "Point", "coordinates": [-82.4388, 27.872] }},
{"zip_code":"32464","country":"US","city":"Westville","state":"Florida","state_ab":"FL","county":"Holmes","geo_location":{ "type": "Point", "coordinates": [-85.913, 30.8747] }},
{"zip_code":"32967","country":"US","city":"Vero Beach","state":"Florida","state_ab":"FL","county":"Indian River","geo_location":{ "type": "Point", "coordinates": [-80.4416, 27.6972] }},
{"zip_code":"32361","country":"US","city":"Wacissa","state":"Florida","state_ab":"FL","county":"Jefferson","geo_location":{ "type": "Point", "coordinates": [-83.8402, 30.3422] }},
{"zip_code":"33904","country":"US","city":"Cape Coral","state":"Florida","state_ab":"FL","county":"Lee","geo_location":{ "type": "Point", "coordinates": [-81.9502, 26.6065] }},
{"zip_code":"33917","country":"US","city":"North Fort Myers","state":"Florida","state_ab":"FL","county":"Lee","geo_location":{ "type": "Point", "coordinates": [-81.8435, 26.7357] }},
{"zip_code":"33931","country":"US","city":"Fort Myers Beach","state":"Florida","state_ab":"FL","county":"Lee","geo_location":{ "type": "Point", "coordinates": [-82.0712, 26.5761] }},
{"zip_code":"33957","country":"US","city":"Sanibel","state":"Florida","state_ab":"FL","county":"Lee","geo_location":{ "type": "Point", "coordinates": [-82.0868, 26.4514] }},
{"zip_code":"33971","country":"US","city":"Lehigh Acres","state":"Florida","state_ab":"FL","county":"Lee","geo_location":{ "type": "Point", "coordinates": [-81.6992, 26.6388] }},
{"zip_code":"34134","country":"US","city":"Bonita Springs","state":"Florida","state_ab":"FL","county":"Lee","geo_location":{ "type": "Point", "coordinates": [-81.8183, 26.3626] }},
{"zip_code":"32307","country":"US","city":"Tallahassee","state":"Florida","state_ab":"FL","county":"Leon","geo_location":{ "type": "Point", "coordinates": [-84.2877, 30.4257] }},
{"zip_code":"32644","country":"US","city":"Chiefland","state":"Florida","state_ab":"FL","county":"Levy","geo_location":{ "type": "Point", "coordinates": [-82.8553, 29.4602] }},
{"zip_code":"32321","country":"US","city":"Bristol","state":"Florida","state_ab":"FL","county":"Liberty","geo_location":{ "type": "Point", "coordinates": [-84.9466, 30.4223] }},
{"zip_code":"32334","country":"US","city":"Hosford","state":"Florida","state_ab":"FL","county":"Liberty","geo_location":{ "type": "Point", "coordinates": [-84.8054, 30.3639] }},
{"zip_code":"34211","country":"US","city":"Bradenton","state":"Florida","state_ab":"FL","county":"Manatee","geo_location":{ "type": "Point", "coordinates": [-82.3773, 27.45] }},
{"zip_code":"34251","country":"US","city":"Myakka City","state":"Florida","state_ab":"FL","county":"Manatee","geo_location":{ "type": "Point", "coordinates": [-82.1849, 27.3648] }},
{"zip_code":"34264","country":"US","city":"Oneco","state":"Florida","state_ab":"FL","county":"Manatee","geo_location":{ "type": "Point", "coordinates": [-82.4387, 27.4272] }},
{"zip_code":"32617","country":"US","city":"Anthony","state":"Florida","state_ab":"FL","county":"Marion","geo_location":{ "type": "Point", "coordinates": [-82.1262, 29.3048] }},
{"zip_code":"34431","country":"US","city":"Dunnellon","state":"Florida","state_ab":"FL","county":"Marion","geo_location":{ "type": "Point", "coordinates": [-82.5328, 29.1392] }},
{"zip_code":"34471","country":"US","city":"Ocala","state":"Florida","state_ab":"FL","county":"Marion","geo_location":{ "type": "Point", "coordinates": [-82.1288, 29.1605] }},
{"zip_code":"33014","country":"US","city":"Hialeah","state":"Florida","state_ab":"FL","county":"Miami-Dade","geo_location":{ "type": "Point", "coordinates": [-80.3063, 25.8963] }},
{"zip_code":"33054","country":"US","city":"Opa Locka","state":"Florida","state_ab":"FL","county":"Miami-Dade","geo_location":{ "type": "Point", "coordinates": [-80.247, 25.9097] }},
{"zip_code":"33131","country":"US","city":"Miami","state":"Florida","state_ab":"FL","county":"Miami-Dade","geo_location":{ "type": "Point", "coordinates": [-80.1895, 25.7629] }},
{"zip_code":"33144","country":"US","city":"Miami","state":"Florida","state_ab":"FL","county":"Miami-Dade","geo_location":{ "type": "Point", "coordinates": [-80.3096, 25.7626] }},
{"zip_code":"33157","country":"US","city":"Miami","state":"Florida","state_ab":"FL","county":"Miami-Dade","geo_location":{ "type": "Point", "coordinates": [-80.3426, 25.6062] }},
{"zip_code":"33184","country":"US","city":"Miami","state":"Florida","state_ab":"FL","county":"Miami-Dade","geo_location":{ "type": "Point", "coordinates": [-80.403, 25.7574] }},
{"zip_code":"33197","country":"US","city":"Miami","state":"Florida","state_ab":"FL","county":"Miami-Dade","geo_location":{ "type": "Point", "coordinates": [-80.4582, 25.5584] }},
{"zip_code":"33234","country":"US","city":"Miami","state":"Florida","state_ab":"FL","county":"Miami-Dade","geo_location":{ "type": "Point", "coordinates": [-80.4582, 25.5584] }},
{"zip_code":"33247","country":"US","city":"Miami","state":"Florida","state_ab":"FL","county":"Miami-Dade","geo_location":{ "type": "Point", "coordinates": [-80.4582, 25.5584] }},
{"zip_code":"33261","country":"US","city":"Miami","state":"Florida","state_ab":"FL","county":"Miami-Dade","geo_location":{ "type": "Point", "coordinates": [-80.4582, 25.5584] }},
{"zip_code":"33001","country":"US","city":"Long Key","state":"Florida","state_ab":"FL","county":"Monroe","geo_location":{ "type": "Point", "coordinates": [-80.8049, 24.8306] }},
{"zip_code":"33041","country":"US","city":"Key West","state":"Florida","state_ab":"FL","county":"Monroe","geo_location":{ "type": "Point", "coordinates": [-81.5689, 25.101] }},
{"zip_code":"32011","country":"US","city":"Callahan","state":"Florida","state_ab":"FL","county":"Nassau","geo_location":{ "type": "Point", "coordinates": [-81.8145, 30.552] }},
{"zip_code":"32541","country":"US","city":"Destin","state":"Florida","state_ab":"FL","county":"Okaloosa","geo_location":{ "type": "Point", "coordinates": [-86.4692, 30.3949] }},
{"zip_code":"32567","country":"US","city":"Laurel Hill","state":"Florida","state_ab":"FL","county":"Okaloosa","geo_location":{ "type": "Point", "coordinates": [-86.4003, 30.9524] }},
{"zip_code":"34974","country":"US","city":"Okeechobee","state":"Florida","state_ab":"FL","county":"Okeechobee","geo_location":{ "type": "Point", "coordinates": [-80.841, 27.2002] }},
{"zip_code":"32811","country":"US","city":"Orlando","state":"Florida","state_ab":"FL","county":"Orange","geo_location":{ "type": "Point", "coordinates": [-81.4516, 28.5163] }},
{"zip_code":"32824","country":"US","city":"Orlando","state":"Florida","state_ab":"FL","county":"Orange","geo_location":{ "type": "Point", "coordinates": [-81.3622, 28.3932] }},
{"zip_code":"32837","country":"US","city":"Orlando","state":"Florida","state_ab":"FL","county":"Orange","geo_location":{ "type": "Point", "coordinates": [-81.4179, 28.3949] }},
{"zip_code":"32877","country":"US","city":"Orlando","state":"Florida","state_ab":"FL","county":"Orange","geo_location":{ "type": "Point", "coordinates": [-81.2608, 28.5663] }},
{"zip_code":"32891","country":"US","city":"Orlando","state":"Florida","state_ab":"FL","county":"Orange","geo_location":{ "type": "Point", "coordinates": [-81.2608, 28.5663] }},
{"zip_code":"34741","country":"US","city":"Kissimmee","state":"Florida","state_ab":"FL","county":"Osceola","geo_location":{ "type": "Point", "coordinates": [-81.4242, 28.3051] }},
{"zip_code":"33401","country":"US","city":"West Palm Beach","state":"Florida","state_ab":"FL","county":"Palm Beach","geo_location":{ "type": "Point", "coordinates": [-80.0679, 26.7165] }},
{"zip_code":"33414","country":"US","city":"West Palm Beach","state":"Florida","state_ab":"FL","county":"Palm Beach","geo_location":{ "type": "Point", "coordinates": [-80.253, 26.6627] }},
{"zip_code":"33427","country":"US","city":"Boca Raton","state":"Florida","state_ab":"FL","county":"Palm Beach","geo_location":{ "type": "Point", "coordinates": [-80.1072, 26.376] }},
{"zip_code":"33454","country":"US","city":"Lake Worth","state":"Florida","state_ab":"FL","county":"Palm Beach","geo_location":{ "type": "Point", "coordinates": [-80.4303, 26.6459] }},
{"zip_code":"33467","country":"US","city":"Lake Worth","state":"Florida","state_ab":"FL","county":"Palm Beach","geo_location":{ "type": "Point", "coordinates": [-80.1683, 26.6104] }},
{"zip_code":"33481","country":"US","city":"Boca Raton","state":"Florida","state_ab":"FL","county":"Palm Beach","geo_location":{ "type": "Point", "coordinates": [-80.4303, 26.6459] }},
{"zip_code":"33544","country":"US","city":"Zephyrhills","state":"Florida","state_ab":"FL","county":"Pasco","geo_location":{ "type": "Point", "coordinates": [-82.3493, 28.2637] }},
{"zip_code":"34637","country":"US","city":"Land O Lakes","state":"Florida","state_ab":"FL","county":"Pasco County","geo_location":{ "type": "Point", "coordinates": [-82.4625, 28.2782] }},
{"zip_code":"34691","country":"US","city":"Holiday","state":"Florida","state_ab":"FL","county":"Pasco","geo_location":{ "type": "Point", "coordinates": [-82.756, 28.1913] }},
{"zip_code":"33504","country":"US","city":"Bay Pines","state":"Florida","state_ab":"FL","county":"Pinellas County","geo_location":{ "type": "Point", "coordinates": [-82.7782, 27.8137] }},
{"zip_code":"33711","country":"US","city":"Saint Petersburg","state":"Florida","state_ab":"FL","county":"Pinellas","geo_location":{ "type": "Point", "coordinates": [-82.6897, 27.7465] }},
{"zip_code":"28311","country":"US","city":"Fayetteville","state":"North Carolina","state_ab":"NC","county":"Cumberland","geo_location":{ "type": "Point", "coordinates": [-78.8982, 35.1294] }},
{"zip_code":"28391","country":"US","city":"Stedman","state":"North Carolina","state_ab":"NC","county":"Cumberland","geo_location":{ "type": "Point", "coordinates": [-78.6949, 35.0347] }},
{"zip_code":"27927","country":"US","city":"Corolla","state":"North Carolina","state_ab":"NC","county":"Currituck","geo_location":{ "type": "Point", "coordinates": [-75.8132, 36.3206] }},
{"zip_code":"27941","country":"US","city":"Harbinger","state":"North Carolina","state_ab":"NC","county":"Currituck","geo_location":{ "type": "Point", "coordinates": [-75.8169, 36.1025] }},
{"zip_code":"27954","country":"US","city":"Manteo","state":"North Carolina","state_ab":"NC","county":"Dare","geo_location":{ "type": "Point", "coordinates": [-75.6714, 35.8948] }},
{"zip_code":"27981","country":"US","city":"Wanchese","state":"North Carolina","state_ab":"NC","county":"Dare","geo_location":{ "type": "Point", "coordinates": [-75.6437, 35.8622] }},
{"zip_code":"27361","country":"US","city":"Thomasville","state":"North Carolina","state_ab":"NC","county":"Davidson","geo_location":{ "type": "Point", "coordinates": [-80.276, 35.8829] }},
{"zip_code":"27374","country":"US","city":"Welcome","state":"North Carolina","state_ab":"NC","county":"Davidson","geo_location":{ "type": "Point", "coordinates": [-80.2035, 35.7818] }},
{"zip_code":"27707","country":"US","city":"Durham","state":"North Carolina","state_ab":"NC","county":"Durham","geo_location":{ "type": "Point", "coordinates": [-78.9315, 35.9631] }},
{"zip_code":"27864","country":"US","city":"Pinetops","state":"North Carolina","state_ab":"NC","county":"Edgecombe","geo_location":{ "type": "Point", "coordinates": [-77.692, 35.8196] }},
{"zip_code":"27051","country":"US","city":"Walkertown","state":"North Carolina","state_ab":"NC","county":"Forsyth","geo_location":{ "type": "Point", "coordinates": [-80.1629, 36.18] }},
{"zip_code":"27101","country":"US","city":"Winston Salem","state":"North Carolina","state_ab":"NC","county":"Forsyth","geo_location":{ "type": "Point", "coordinates": [-80.2228, 36.1024] }},
{"zip_code":"27114","country":"US","city":"Winston Salem","state":"North Carolina","state_ab":"NC","county":"Forsyth","geo_location":{ "type": "Point", "coordinates": [-80.2073, 36.0275] }},
{"zip_code":"27127","country":"US","city":"Winston Salem","state":"North Carolina","state_ab":"NC","county":"Forsyth","geo_location":{ "type": "Point", "coordinates": [-80.2609, 36.0425] }},
{"zip_code":"27284","country":"US","city":"Kernersville","state":"North Carolina","state_ab":"NC","county":"Forsyth","geo_location":{ "type": "Point", "coordinates": [-80.0831, 36.1165] }},
{"zip_code":"28054","country":"US","city":"Gastonia","state":"North Carolina","state_ab":"NC","county":"Gaston","geo_location":{ "type": "Point", "coordinates": [-81.133, 35.2495] }},
{"zip_code":"27527","country":"US","city":"Clayton","state":"North Carolina","state_ab":"NC","county":"Granville County","geo_location":{ "type": "Point", "coordinates": [-78.3837, 35.6577] }},
{"zip_code":"27581","country":"US","city":"Stem","state":"North Carolina","state_ab":"NC","county":"Granville","geo_location":{ "type": "Point", "coordinates": [-78.7001, 36.21] }},
{"zip_code":"27411","country":"US","city":"Greensboro","state":"North Carolina","state_ab":"NC","county":"Guilford","geo_location":{ "type": "Point", "coordinates": [-80.0244, 36.0807] }},
{"zip_code":"27501","country":"US","city":"Angier","state":"North Carolina","state_ab":"NC","county":"Harnett","geo_location":{ "type": "Point", "coordinates": [-78.7249, 35.4897] }},
{"zip_code":"28751","country":"US","city":"Maggie Valley","state":"North Carolina","state_ab":"NC","county":"Haywood","geo_location":{ "type": "Point", "coordinates": [-83.0929, 35.5201] }},
{"zip_code":"28724","country":"US","city":"Dana","state":"North Carolina","state_ab":"NC","county":"Henderson","geo_location":{ "type": "Point", "coordinates": [-82.3883, 35.2954] }},
{"zip_code":"28791","country":"US","city":"Hendersonville","state":"North Carolina","state_ab":"NC","county":"Henderson","geo_location":{ "type": "Point", "coordinates": [-82.525, 35.3464] }},
{"zip_code":"27824","country":"US","city":"Engelhard","state":"North Carolina","state_ab":"NC","county":"Hyde","geo_location":{ "type": "Point", "coordinates": [-76.0303, 35.5149] }},
{"zip_code":"28117","country":"US","city":"Mooresville","state":"North Carolina","state_ab":"NC","county":"Iredell","geo_location":{ "type": "Point", "coordinates": [-80.8685, 35.584] }},
{"zip_code":"28634","country":"US","city":"Harmony","state":"North Carolina","state_ab":"NC","county":"Iredell","geo_location":{ "type": "Point", "coordinates": [-80.7585, 35.958] }},
{"zip_code":"28687","country":"US","city":"Statesville","state":"North Carolina","state_ab":"NC","county":"Iredell","geo_location":{ "type": "Point", "coordinates": [-80.947, 35.5298] }},
{"zip_code":"28504","country":"US","city":"Kinston","state":"North Carolina","state_ab":"NC","county":"Lenoir","geo_location":{ "type": "Point", "coordinates": [-77.6576, 35.206] }},
{"zip_code":"28737","country":"US","city":"Glenwood","state":"North Carolina","state_ab":"NC","county":"McDowell","geo_location":{ "type": "Point", "coordinates": [-82.0595, 35.7387] }},
{"zip_code":"28104","country":"US","city":"Matthews","state":"North Carolina","state_ab":"NC","county":"Mecklenburg","geo_location":{ "type": "Point", "coordinates": [-80.6958, 35.0604] }},
{"zip_code":"28207","country":"US","city":"Charlotte","state":"North Carolina","state_ab":"NC","county":"Mecklenburg","geo_location":{ "type": "Point", "coordinates": [-80.8272, 35.1935] }},
{"zip_code":"28221","country":"US","city":"Charlotte","state":"North Carolina","state_ab":"NC","county":"Mecklenburg","geo_location":{ "type": "Point", "coordinates": [-80.8042, 35.26] }},
{"zip_code":"28234","country":"US","city":"Charlotte","state":"North Carolina","state_ab":"NC","county":"Mecklenburg","geo_location":{ "type": "Point", "coordinates": [-80.8042, 35.26] }},
{"zip_code":"28247","country":"US","city":"Charlotte","state":"North Carolina","state_ab":"NC","county":"Mecklenburg","geo_location":{ "type": "Point", "coordinates": [-80.8511, 35.0656] }},
{"zip_code":"28261","country":"US","city":"Charlotte","state":"North Carolina","state_ab":"NC","county":"Mecklenburg","geo_location":{ "type": "Point", "coordinates": [-80.8042, 35.26] }},
{"zip_code":"28274","country":"US","city":"Charlotte","state":"North Carolina","state_ab":"NC","county":"Mecklenburg","geo_location":{ "type": "Point", "coordinates": [-80.8317, 35.1879] }},
{"zip_code":"28287","country":"US","city":"Charlotte","state":"North Carolina","state_ab":"NC","county":"Mecklenburg","geo_location":{ "type": "Point", "coordinates": [-80.8042, 35.26] }},
{"zip_code":"28777","country":"US","city":"Spruce Pine","state":"North Carolina","state_ab":"NC","county":"Mitchell","geo_location":{ "type": "Point", "coordinates": [-82.0705, 35.906] }},
{"zip_code":"27891","country":"US","city":"Whitakers","state":"North Carolina","state_ab":"NC","county":"Nash","geo_location":{ "type": "Point", "coordinates": [-77.7167, 36.0758] }},
{"zip_code":"28401","country":"US","city":"Wilmington","state":"North Carolina","state_ab":"NC","county":"New Hanover","geo_location":{ "type": "Point", "coordinates": [-77.9633, 34.2726] }},
{"zip_code":"27877","country":"US","city":"Severn","state":"North Carolina","state_ab":"NC","county":"Northampton","geo_location":{ "type": "Point", "coordinates": [-77.4831, 36.3561] }},
{"zip_code":"28544","country":"US","city":"Midway Park","state":"North Carolina","state_ab":"NC","county":"Onslow","geo_location":{ "type": "Point", "coordinates": [-77.32, 34.727] }},
{"zip_code":"28584","country":"US","city":"Swansboro","state":"North Carolina","state_ab":"NC","county":"Onslow","geo_location":{ "type": "Point", "coordinates": [-77.135, 34.6991] }},
{"zip_code":"27231","country":"US","city":"Cedar Grove","state":"North Carolina","state_ab":"NC","county":"Orange","geo_location":{ "type": "Point", "coordinates": [-79.1666, 36.202] }},
{"zip_code":"27514","country":"US","city":"Chapel Hill","state":"North Carolina","state_ab":"NC","county":"Orange","geo_location":{ "type": "Point", "coordinates": [-79.0372, 35.9203] }},
{"zip_code":"28571","country":"US","city":"Oriental","state":"North Carolina","state_ab":"NC","county":"Pamlico","geo_location":{ "type": "Point", "coordinates": [-76.7015, 35.0364] }},
{"zip_code":"28454","country":"US","city":"Maple Hill","state":"North Carolina","state_ab":"NC","county":"Pender","geo_location":{ "type": "Point", "coordinates": [-77.7117, 34.6594] }},
{"zip_code":"27541","country":"US","city":"Hurdle Mills","state":"North Carolina","state_ab":"NC","county":"Person","geo_location":{ "type": "Point", "coordinates": [-79.0827, 36.2518] }},
{"zip_code":"27811","country":"US","city":"Bellarthur","state":"North Carolina","state_ab":"NC","county":"Pitt","geo_location":{ "type": "Point", "coordinates": [-77.5134, 35.5847] }},
{"zip_code":"27837","country":"US","city":"Grimesland","state":"North Carolina","state_ab":"NC","county":"Pitt","geo_location":{ "type": "Point", "coordinates": [-77.2566, 35.558] }},
{"zip_code":"27204","country":"US","city":"Asheboro","state":"North Carolina","state_ab":"NC","county":"Randolph","geo_location":{ "type": "Point", "coordinates": [-79.7206, 35.7883] }},
{"zip_code":"28364","country":"US","city":"Maxton","state":"North Carolina","state_ab":"NC","county":"Robeson","geo_location":{ "type": "Point", "coordinates": [-79.3097, 34.7334] }},
{"zip_code":"28377","country":"US","city":"Red Springs","state":"North Carolina","state_ab":"NC","county":"Robeson","geo_location":{ "type": "Point", "coordinates": [-79.1636, 34.8083] }},
{"zip_code":"27321","country":"US","city":"Reidsville","state":"North Carolina","state_ab":"NC","county":"Rockingham","geo_location":{ "type": "Point", "coordinates": [-79.6803, 36.3476] }},
{"zip_code":"28041","country":"US","city":"Faith","state":"North Carolina","state_ab":"NC","county":"Rowan","geo_location":{ "type": "Point", "coordinates": [-80.4581, 35.5817] }},
{"zip_code":"28144","country":"US","city":"Salisbury","state":"North Carolina","state_ab":"NC","county":"Rowan","geo_location":{ "type": "Point", "coordinates": [-80.4889, 35.6515] }},
{"zip_code":"28441","country":"US","city":"Garland","state":"North Carolina","state_ab":"NC","county":"Sampson","geo_location":{ "type": "Point", "coordinates": [-78.4309, 34.7897] }},
{"zip_code":"28351","country":"US","city":"Laurel Hill","state":"North Carolina","state_ab":"NC","county":"Scotland","geo_location":{ "type": "Point", "coordinates": [-79.5491, 34.8238] }},
{"zip_code":"28001","country":"US","city":"Albemarle","state":"North Carolina","state_ab":"NC","county":"Stanly","geo_location":{ "type": "Point", "coordinates": [-80.2044, 35.3573] }},
{"zip_code":"27024","country":"US","city":"Lowgap","state":"North Carolina","state_ab":"NC","county":"Surry","geo_location":{ "type": "Point", "coordinates": [-80.7889, 36.503] }},
{"zip_code":"28621","country":"US","city":"Elkin","state":"North Carolina","state_ab":"NC","county":"Surry","geo_location":{ "type": "Point", "coordinates": [-80.8554, 36.2872] }},
{"zip_code":"27604","country":"US","city":"Raleigh","state":"North Carolina","state_ab":"NC","county":"Wake","geo_location":{ "type": "Point", "coordinates": [-78.5799, 35.8334] }},
{"zip_code":"27617","country":"US","city":"Raleigh","state":"North Carolina","state_ab":"NC","county":"Wake","geo_location":{ "type": "Point", "coordinates": [-78.7447, 35.9034] }},
{"zip_code":"27697","country":"US","city":"Raleigh","state":"North Carolina","state_ab":"NC","county":"Wake","geo_location":{ "type": "Point", "coordinates": [-78.4134, 35.8822] }},
{"zip_code":"27594","country":"US","city":"Wise","state":"North Carolina","state_ab":"NC","county":"Warren","geo_location":{ "type": "Point", "coordinates": [-78.1109, 36.3737] }},
{"zip_code":"28607","country":"US","city":"Boone","state":"North Carolina","state_ab":"NC","county":"Watauga","geo_location":{ "type": "Point", "coordinates": [-81.666, 36.2142] }},
{"zip_code":"28674","country":"US","city":"North Wilkesboro","state":"North Carolina","state_ab":"NC","county":"Wilkes","geo_location":{ "type": "Point", "coordinates": [-81.2072, 36.2162] }},
{"zip_code":"27851","country":"US","city":"Lucama","state":"North Carolina","state_ab":"NC","county":"Wilson","geo_location":{ "type": "Point", "coordinates": [-78.0197, 35.6415] }},
{"zip_code":"27011","country":"US","city":"Boonville","state":"North Carolina","state_ab":"NC","county":"Yadkin","geo_location":{ "type": "Point", "coordinates": [-80.6357, 36.234] }},
{"zip_code":"58721","country":"US","city":"Bowbells","state":"North Dakota","state_ab":"ND","county":"Burke","geo_location":{ "type": "Point", "coordinates": [-102.2839, 48.8378] }},
{"zip_code":"58477","country":"US","city":"Regan","state":"North Dakota","state_ab":"ND","county":"Burleigh","geo_location":{ "type": "Point", "coordinates": [-100.5224, 47.1527] }},
{"zip_code":"58501","country":"US","city":"Bismarck","state":"North Dakota","state_ab":"ND","county":"Burleigh","geo_location":{ "type": "Point", "coordinates": [-100.7748, 46.8234] }},
{"zip_code":"58011","country":"US","city":"Buffalo","state":"North Dakota","state_ab":"ND","county":"Cass","geo_location":{ "type": "Point", "coordinates": [-97.5352, 46.9264] }},
{"zip_code":"58051","country":"US","city":"Kindred","state":"North Dakota","state_ab":"ND","county":"Cass","geo_location":{ "type": "Point", "coordinates": [-97.0049, 46.6543] }},
{"zip_code":"58064","country":"US","city":"Page","state":"North Dakota","state_ab":"ND","county":"Cass","geo_location":{ "type": "Point", "coordinates": [-97.5967, 47.1515] }},
{"zip_code":"58644","country":"US","city":"Marshall","state":"North Dakota","state_ab":"ND","county":"Dunn","geo_location":{ "type": "Point", "coordinates": [-102.6221, 47.4021] }},
{"zip_code":"58374","country":"US","city":"Sheyenne","state":"North Dakota","state_ab":"ND","county":"Eddy","geo_location":{ "type": "Point", "coordinates": [-99.0583, 47.8184] }},
{"zip_code":"58464","country":"US","city":"Mchenry","state":"North Dakota","state_ab":"ND","county":"Foster","geo_location":{ "type": "Point", "coordinates": [-98.5726, 47.5604] }},
{"zip_code":"58657","country":"US","city":"Trotters","state":"North Dakota","state_ab":"ND","county":"Golden Valley County","geo_location":{ "type": "Point", "coordinates": [-103.8556, 47.1096] }},
{"zip_code":"58204","country":"US","city":"Grand Forks Afb","state":"North Dakota","state_ab":"ND","county":"Grand Forks","geo_location":{ "type": "Point", "coordinates": [-97.3675, 47.9679] }},
{"zip_code":"58244","country":"US","city":"Inkster","state":"North Dakota","state_ab":"ND","county":"Grand Forks","geo_location":{ "type": "Point", "coordinates": [-97.6831, 48.1079] }},
{"zip_code":"58411","country":"US","city":"Alfred","state":"North Dakota","state_ab":"ND","county":"LaMoure County","geo_location":{ "type": "Point", "coordinates": [-98.9147, 46.5859] }},
{"zip_code":"58747","country":"US","city":"Kief","state":"North Dakota","state_ab":"ND","county":"McHenry","geo_location":{ "type": "Point", "coordinates": [-100.5215, 47.8186] }},
{"zip_code":"58581","country":"US","city":"Zeeland","state":"North Dakota","state_ab":"ND","county":"McIntosh","geo_location":{ "type": "Point", "coordinates": [-99.7725, 46.0055] }},
{"zip_code":"58541","country":"US","city":"Golden Valley","state":"North Dakota","state_ab":"ND","county":"Mercer","geo_location":{ "type": "Point", "coordinates": [-102.0612, 47.2938] }},
{"zip_code":"58554","country":"US","city":"Mandan","state":"North Dakota","state_ab":"ND","county":"Morton","geo_location":{ "type": "Point", "coordinates": [-100.9092, 46.8306] }},
{"zip_code":"58631","country":"US","city":"Glen Ullin","state":"North Dakota","state_ab":"ND","county":"Morton","geo_location":{ "type": "Point", "coordinates": [-101.8223, 46.8233] }},
{"zip_code":"58361","country":"US","city":"Pekin","state":"North Dakota","state_ab":"ND","county":"Nelson","geo_location":{ "type": "Point", "coordinates": [-98.326, 47.7696] }},
{"zip_code":"58271","country":"US","city":"Pembina","state":"North Dakota","state_ab":"ND","county":"Pembina","geo_location":{ "type": "Point", "coordinates": [-97.2886, 48.859] }},
{"zip_code":"58321","country":"US","city":"Brocket","state":"North Dakota","state_ab":"ND","county":"Ramsey","geo_location":{ "type": "Point", "coordinates": [-98.3559, 48.2255] }},
{"zip_code":"58761","country":"US","city":"Mohall","state":"North Dakota","state_ab":"ND","county":"Renville","geo_location":{ "type": "Point", "coordinates": [-101.6058, 48.7269] }},
{"zip_code":"58787","country":"US","city":"Tolley","state":"North Dakota","state_ab":"ND","county":"Renville","geo_location":{ "type": "Point", "coordinates": [-101.8559, 48.7969] }},
{"zip_code":"58077","country":"US","city":"Walcott","state":"North Dakota","state_ab":"ND","county":"Richland","geo_location":{ "type": "Point", "coordinates": [-97.0014, 46.5835] }},
{"zip_code":"58424","country":"US","city":"Cleveland","state":"North Dakota","state_ab":"ND","county":"Stutsman","geo_location":{ "type": "Point", "coordinates": [-99.1288, 46.8931] }},
{"zip_code":"58257","country":"US","city":"Mayville","state":"North Dakota","state_ab":"ND","county":"Traill","geo_location":{ "type": "Point", "coordinates": [-97.3176, 47.5014] }},
{"zip_code":"58231","country":"US","city":"Fordville","state":"North Dakota","state_ab":"ND","county":"Walsh","geo_location":{ "type": "Point", "coordinates": [-97.8022, 48.2212] }},
{"zip_code":"58707","country":"US","city":"Minot","state":"North Dakota","state_ab":"ND","county":"Ward","geo_location":{ "type": "Point", "coordinates": [-101.3012, 48.2453] }},
{"zip_code":"58734","country":"US","city":"Donnybrook","state":"North Dakota","state_ab":"ND","county":"Ward","geo_location":{ "type": "Point", "coordinates": [-101.896, 48.49] }},
{"zip_code":"58451","country":"US","city":"Hurdsfield","state":"North Dakota","state_ab":"ND","county":"Wells","geo_location":{ "type": "Point", "coordinates": [-99.9416, 47.4387] }},
{"zip_code":"68764","country":"US","city":"Orchard","state":"Nebraska","state_ab":"NE","county":"Antelope","geo_location":{ "type": "Point", "coordinates": [-98.2409, 42.3399] }},
{"zip_code":"69121","country":"US","city":"Arthur","state":"Nebraska","state_ab":"NE","county":"Arthur","geo_location":{ "type": "Point", "coordinates": [-101.6931, 41.574] }},
{"zip_code":"69301","country":"US","city":"Alliance","state":"Nebraska","state_ab":"NE","county":"Box Butte","geo_location":{ "type": "Point", "coordinates": [-102.888, 42.1149] }},
{"zip_code":"68777","country":"US","city":"Spencer","state":"Nebraska","state_ab":"NE","county":"Boyd","geo_location":{ "type": "Point", "coordinates": [-98.7059, 42.8849] }},
{"zip_code":"68001","country":"US","city":"Abie","state":"Nebraska","state_ab":"NE","county":"Butler","geo_location":{ "type": "Point", "coordinates": [-96.9563, 41.3479] }},
{"zip_code":"68014","country":"US","city":"Bruno","state":"Nebraska","state_ab":"NE","county":"Butler","geo_location":{ "type": "Point", "coordinates": [-96.9646, 41.2718] }},
{"zip_code":"69211","country":"US","city":"Cody","state":"Nebraska","state_ab":"NE","county":"Cherry","geo_location":{ "type": "Point", "coordinates": [-101.2913, 42.825] }},
{"zip_code":"68944","country":"US","city":"Harvard","state":"Nebraska","state_ab":"NE","county":"Clay","geo_location":{ "type": "Point", "coordinates": [-98.0846, 40.6265] }},
{"zip_code":"68661","country":"US","city":"Schuyler","state":"Nebraska","state_ab":"NE","county":"Colfax","geo_location":{ "type": "Point", "coordinates": [-97.0628, 41.4591] }},
{"zip_code":"68791","country":"US","city":"Wisner","state":"Nebraska","state_ab":"NE","county":"Cuming","geo_location":{ "type": "Point", "coordinates": [-96.917, 41.998] }},
{"zip_code":"68814","country":"US","city":"Ansley","state":"Nebraska","state_ab":"NE","county":"Custer","geo_location":{ "type": "Point", "coordinates": [-99.3645, 41.3019] }},
{"zip_code":"68881","country":"US","city":"Westerville","state":"Nebraska","state_ab":"NE","county":"Custer","geo_location":{ "type": "Point", "coordinates": [-99.3844, 41.4193] }},
{"zip_code":"69354","country":"US","city":"Marsland","state":"Nebraska","state_ab":"NE","county":"Dawes","geo_location":{ "type": "Point", "coordinates": [-103.2564, 42.5244] }},
{"zip_code":"69367","country":"US","city":"Whitney","state":"Nebraska","state_ab":"NE","county":"Dawes","geo_location":{ "type": "Point", "coordinates": [-103.2396, 42.7559] }},
{"zip_code":"68751","country":"US","city":"Maskell","state":"Nebraska","state_ab":"NE","county":"Dixon","geo_location":{ "type": "Point", "coordinates": [-96.9809, 42.6905] }},
{"zip_code":"68621","country":"US","city":"Ames","state":"Nebraska","state_ab":"NE","county":"Dodge","geo_location":{ "type": "Point", "coordinates": [-96.6463, 41.4613] }},
{"zip_code":"68104","country":"US","city":"Omaha","state":"Nebraska","state_ab":"NE","county":"Douglas","geo_location":{ "type": "Point", "coordinates": [-95.9999, 41.2919] }},
{"zip_code":"68117","country":"US","city":"Omaha","state":"Nebraska","state_ab":"NE","county":"Douglas","geo_location":{ "type": "Point", "coordinates": [-95.9953, 41.2064] }},
{"zip_code":"68131","country":"US","city":"Omaha","state":"Nebraska","state_ab":"NE","county":"Douglas","geo_location":{ "type": "Point", "coordinates": [-95.9639, 41.2647] }},
{"zip_code":"68144","country":"US","city":"Omaha","state":"Nebraska","state_ab":"NE","county":"Douglas","geo_location":{ "type": "Point", "coordinates": [-96.1188, 41.2335] }},
{"zip_code":"68197","country":"US","city":"Omaha","state":"Nebraska","state_ab":"NE","county":"Douglas County","geo_location":{ "type": "Point", "coordinates": [-96.0274, 41.249] }},
{"zip_code":"68351","country":"US","city":"Exeter","state":"Nebraska","state_ab":"NE","county":"Fillmore","geo_location":{ "type": "Point", "coordinates": [-97.4424, 40.6341] }},
{"zip_code":"69147","country":"US","city":"Lewellen","state":"Nebraska","state_ab":"NE","county":"Garden","geo_location":{ "type": "Point", "coordinates": [-102.1396, 41.3435] }},
{"zip_code":"68801","country":"US","city":"Grand Island","state":"Nebraska","state_ab":"NE","county":"Hall","geo_location":{ "type": "Point", "coordinates": [-98.3411, 40.9219] }},
{"zip_code":"68841","country":"US","city":"Giltner","state":"Nebraska","state_ab":"NE","county":"Hamilton","geo_location":{ "type": "Point", "coordinates": [-98.1434, 40.7654] }},
{"zip_code":"68854","country":"US","city":"Marquette","state":"Nebraska","state_ab":"NE","county":"Hamilton","geo_location":{ "type": "Point", "coordinates": [-98.0, 41.01] }},
{"zip_code":"68971","country":"US","city":"Republican City","state":"Nebraska","state_ab":"NE","county":"Harlan","geo_location":{ "type": "Point", "coordinates": [-99.2322, 40.1034] }},
{"zip_code":"69031","country":"US","city":"Hamlet","state":"Nebraska","state_ab":"NE","county":"Hayes","geo_location":{ "type": "Point", "coordinates": [-101.0613, 40.5248] }},
{"zip_code":"69044","country":"US","city":"Trenton","state":"Nebraska","state_ab":"NE","county":"Hitchcock","geo_location":{ "type": "Point", "coordinates": [-101.0201, 40.1681] }},
{"zip_code":"68711","country":"US","city":"Amelia","state":"Nebraska","state_ab":"NE","county":"Holt","geo_location":{ "type": "Point", "coordinates": [-99.008, 42.1809] }},
{"zip_code":"68377","country":"US","city":"Jansen","state":"Nebraska","state_ab":"NE","county":"Jefferson","geo_location":{ "type": "Point", "coordinates": [-97.0244, 40.2074] }},
{"zip_code":"68724","country":"US","city":"Center","state":"Nebraska","state_ab":"NE","county":"Knox","geo_location":{ "type": "Point", "coordinates": [-97.867, 42.5973] }},
{"zip_code":"68504","country":"US","city":"Lincoln","state":"Nebraska","state_ab":"NE","county":"Lancaster","geo_location":{ "type": "Point", "coordinates": [-96.6532, 40.8392] }},
{"zip_code":"68517","country":"US","city":"Lincoln","state":"Nebraska","state_ab":"NE","county":"Lancaster","geo_location":{ "type": "Point", "coordinates": [-96.6045, 40.9317] }},
{"zip_code":"68531","country":"US","city":"Lincoln","state":"Nebraska","state_ab":"NE","county":"Lancaster","geo_location":{ "type": "Point", "coordinates": [-96.7201, 40.9008] }},
{"zip_code":"68544","country":"US","city":"Lincoln","state":"Nebraska","state_ab":"NE","county":"Lancaster","geo_location":{ "type": "Point", "coordinates": [-96.6888, 40.7845] }},
{"zip_code":"68827","country":"US","city":"Chapman","state":"Nebraska","state_ab":"NE","county":"Merrick","geo_location":{ "type": "Point", "coordinates": [-98.2217, 40.9856] }},
{"zip_code":"68414","country":"US","city":"Nemaha","state":"Nebraska","state_ab":"NE","county":"Nemaha","geo_location":{ "type": "Point", "coordinates": [-95.6913, 40.3198] }},
{"zip_code":"68957","country":"US","city":"Lawrence","state":"Nebraska","state_ab":"NE","county":"Nuckolls","geo_location":{ "type": "Point", "coordinates": [-98.2402, 40.2767] }},
{"zip_code":"68324","country":"US","city":"Burr","state":"Nebraska","state_ab":"NE","county":"Otoe","geo_location":{ "type": "Point", "coordinates": [-96.2384, 40.5601] }},
{"zip_code":"68454","country":"US","city":"Unadilla","state":"Nebraska","state_ab":"NE","county":"Otoe","geo_location":{ "type": "Point", "coordinates": [-96.2825, 40.6917] }},
{"zip_code":"68441","country":"US","city":"Steinauer","state":"Nebraska","state_ab":"NE","county":"Pawnee","geo_location":{ "type": "Point", "coordinates": [-96.2302, 40.2169] }},
{"zip_code":"69134","country":"US","city":"Elsie","state":"Nebraska","state_ab":"NE","county":"Perkins","geo_location":{ "type": "Point", "coordinates": [-101.37, 40.8596] }},
{"zip_code":"68737","country":"US","city":"Foster","state":"Nebraska","state_ab":"NE","county":"Pierce","geo_location":{ "type": "Point", "coordinates": [-97.658, 42.2699] }},
{"zip_code":"68634","country":"US","city":"Duncan","state":"Nebraska","state_ab":"NE","county":"Platte","geo_location":{ "type": "Point", "coordinates": [-97.5954, 41.3931] }},
{"zip_code":"68647","country":"US","city":"Monroe","state":"Nebraska","state_ab":"NE","county":"Platte","geo_location":{ "type": "Point", "coordinates": [-97.6061, 41.4783] }},
{"zip_code":"68337","country":"US","city":"Dawson","state":"Nebraska","state_ab":"NE","county":"Richardson","geo_location":{ "type": "Point", "coordinates": [-95.8341, 40.1377] }},
{"zip_code":"68054","country":"US","city":"Richfield","state":"Nebraska","state_ab":"NE","county":"Sarpy","geo_location":{ "type": "Point", "coordinates": [-96.0704, 41.089] }},
{"zip_code":"68157","country":"US","city":"Omaha","state":"Nebraska","state_ab":"NE","county":"Sarpy","geo_location":{ "type": "Point", "coordinates": [-95.9909, 41.181] }},
{"zip_code":"68041","country":"US","city":"Mead","state":"Nebraska","state_ab":"NE","county":"Saunders","geo_location":{ "type": "Point", "coordinates": [-96.4961, 41.2393] }},
{"zip_code":"69341","country":"US","city":"Gering","state":"Nebraska","state_ab":"NE","county":"Scotts Bluff","geo_location":{ "type": "Point", "coordinates": [-103.6629, 41.822] }},
{"zip_code":"68364","country":"US","city":"Goehner","state":"Nebraska","state_ab":"NE","county":"Seward","geo_location":{ "type": "Point", "coordinates": [-97.1967, 40.8291] }},
{"zip_code":"69161","country":"US","city":"Seneca","state":"Nebraska","state_ab":"NE","county":"Thomas","geo_location":{ "type": "Point", "coordinates": [-100.8073, 41.9901] }},
{"zip_code":"68067","country":"US","city":"Walthill","state":"Nebraska","state_ab":"NE","county":"Thurston","geo_location":{ "type": "Point", "coordinates": [-96.4803, 42.1485] }},
{"zip_code":"68401","country":"US","city":"Mc Cool Junction","state":"Nebraska","state_ab":"NE","county":"York","geo_location":{ "type": "Point", "coordinates": [-97.5937, 40.7442] }},
{"zip_code":"68467","country":"US","city":"York","state":"Nebraska","state_ab":"NE","county":"York","geo_location":{ "type": "Point", "coordinates": [-97.5825, 40.8667] }},
{"zip_code":"3237","country":"US","city":"Gilmanton","state":"New Hampshire","state_ab":"NH","county":"Belknap","geo_location":{ "type": "Point", "coordinates": [-71.4121, 43.4175] }},
{"zip_code":"3817","country":"US","city":"Chocorua","state":"New Hampshire","state_ab":"NH","county":"Carroll","geo_location":{ "type": "Point", "coordinates": [-71.2407, 43.8909] }},
{"zip_code":"3897","country":"US","city":"Wonalancet","state":"New Hampshire","state_ab":"NH","county":"Carroll","geo_location":{ "type": "Point", "coordinates": [-71.2577, 43.8839] }},
{"zip_code":"3431","country":"US","city":"Keene","state":"New Hampshire","state_ab":"NH","county":"Cheshire","geo_location":{ "type": "Point", "coordinates": [-72.2955, 42.9627] }},
{"zip_code":"3444","country":"US","city":"Dublin","state":"New Hampshire","state_ab":"NH","county":"Cheshire","geo_location":{ "type": "Point", "coordinates": [-72.0505, 42.8972] }},
{"zip_code":"3457","country":"US","city":"Munsonville","state":"New Hampshire","state_ab":"NH","county":"Cheshire","geo_location":{ "type": "Point", "coordinates": [-72.1337, 42.9986] }},
{"zip_code":"3587","country":"US","city":"Meadows","state":"New Hampshire","state_ab":"NH","county":"Coos","geo_location":{ "type": "Point", "coordinates": [-71.3874, 44.6956] }},
{"zip_code":"3251","country":"US","city":"Lincoln","state":"New Hampshire","state_ab":"NH","county":"Grafton","geo_location":{ "type": "Point", "coordinates": [-71.6727, 44.0582] }},
{"zip_code":"3264","country":"US","city":"Plymouth","state":"New Hampshire","state_ab":"NH","county":"Grafton","geo_location":{ "type": "Point", "coordinates": [-71.6847, 43.7635] }},
{"zip_code":"3561","country":"US","city":"Littleton","state":"New Hampshire","state_ab":"NH","county":"Grafton","geo_location":{ "type": "Point", "coordinates": [-71.7768, 44.3112] }},
{"zip_code":"3574","country":"US","city":"Bethlehem","state":"New Hampshire","state_ab":"NH","county":"Grafton","geo_location":{ "type": "Point", "coordinates": [-71.6829, 44.2808] }},
{"zip_code":"3741","country":"US","city":"Canaan","state":"New Hampshire","state_ab":"NH","county":"Grafton","geo_location":{ "type": "Point", "coordinates": [-72.0297, 43.6601] }},
{"zip_code":"3031","country":"US","city":"Amherst","state":"New Hampshire","state_ab":"NH","county":"Hillsborough","geo_location":{ "type": "Point", "coordinates": [-71.6075, 42.8569] }},
{"zip_code":"3057","country":"US","city":"Mont Vernon","state":"New Hampshire","state_ab":"NH","county":"Hillsborough","geo_location":{ "type": "Point", "coordinates": [-71.6762, 42.8976] }},
{"zip_code":"3071","country":"US","city":"New Ipswich","state":"New Hampshire","state_ab":"NH","county":"Hillsborough","geo_location":{ "type": "Point", "coordinates": [-71.8703, 42.7511] }},
{"zip_code":"3084","country":"US","city":"Temple","state":"New Hampshire","state_ab":"NH","county":"Hillsborough","geo_location":{ "type": "Point", "coordinates": [-71.8523, 42.82] }},
{"zip_code":"3107","country":"US","city":"Manchester","state":"New Hampshire","state_ab":"NH","county":"Hillsborough","geo_location":{ "type": "Point", "coordinates": [-71.6539, 42.9521] }},
{"zip_code":"3224","country":"US","city":"Canterbury","state":"New Hampshire","state_ab":"NH","county":"Merrimack","geo_location":{ "type": "Point", "coordinates": [-71.557, 43.357] }},
{"zip_code":"3301","country":"US","city":"Concord","state":"New Hampshire","state_ab":"NH","county":"Merrimack","geo_location":{ "type": "Point", "coordinates": [-71.5277, 43.2185] }},
{"zip_code":"210","country":"US","city":"Portsmouth","state":"New Hampshire","state_ab":"NH","county":"Rockingham","geo_location":{ "type": "Point", "coordinates": [-71.0132, 43.0059] }},
{"zip_code":"3044","country":"US","city":"Fremont","state":"New Hampshire","state_ab":"NH","county":"Rockingham","geo_location":{ "type": "Point", "coordinates": [-71.1218, 42.984] }},
{"zip_code":"3291","country":"US","city":"West Nottingham","state":"New Hampshire","state_ab":"NH","county":"Rockingham","geo_location":{ "type": "Point", "coordinates": [-71.1396, 43.1823] }},
{"zip_code":"3804","country":"US","city":"Portsmouth","state":"New Hampshire","state_ab":"NH","county":"Rockingham","geo_location":{ "type": "Point", "coordinates": [-71.0132, 43.0059] }},
{"zip_code":"3844","country":"US","city":"Hampton Falls","state":"New Hampshire","state_ab":"NH","county":"Rockingham","geo_location":{ "type": "Point", "coordinates": [-70.8876, 42.9263] }},
{"zip_code":"3857","country":"US","city":"Newmarket","state":"New Hampshire","state_ab":"NH","county":"Rockingham","geo_location":{ "type": "Point", "coordinates": [-70.9553, 43.0726] }},
{"zip_code":"3871","country":"US","city":"Rye Beach","state":"New Hampshire","state_ab":"NH","county":"Rockingham","geo_location":{ "type": "Point", "coordinates": [-70.7719, 42.9806] }},
{"zip_code":"3884","country":"US","city":"Strafford","state":"New Hampshire","state_ab":"NH","county":"Strafford","geo_location":{ "type": "Point", "coordinates": [-71.1625, 43.2506] }},
{"zip_code":"3754","country":"US","city":"Guild","state":"New Hampshire","state_ab":"NH","county":"Sullivan","geo_location":{ "type": "Point", "coordinates": [-72.1256, 43.3656] }},
{"zip_code":"3781","country":"US","city":"Plainfield","state":"New Hampshire","state_ab":"NH","county":"Sullivan","geo_location":{ "type": "Point", "coordinates": [-72.2704, 43.5519] }},
{"zip_code":"8201","country":"US","city":"Absecon","state":"New Jersey","state_ab":"NJ","county":"Atlantic","geo_location":{ "type": "Point", "coordinates": [-74.4949, 39.4218] }},
{"zip_code":"8227","country":"US","city":"Linwood","state":"New Jersey","state_ab":"NJ","county":"Atlantic County","geo_location":{ "type": "Point", "coordinates": [-74.5703, 39.3422] }},
{"zip_code":"8241","country":"US","city":"Port Republic","state":"New Jersey","state_ab":"NJ","county":"Atlantic","geo_location":{ "type": "Point", "coordinates": [-74.4903, 39.5272] }},
{"zip_code":"8317","country":"US","city":"Dorothy","state":"New Jersey","state_ab":"NJ","county":"Atlantic","geo_location":{ "type": "Point", "coordinates": [-74.8316, 39.4031] }},
{"zip_code":"7031","country":"US","city":"North Arlington","state":"New Jersey","state_ab":"NJ","county":"Bergen","geo_location":{ "type": "Point", "coordinates": [-74.1343, 40.7898] }},
{"zip_code":"7057","country":"US","city":"Wallington","state":"New Jersey","state_ab":"NJ","county":"Bergen","geo_location":{ "type": "Point", "coordinates": [-74.1079, 40.8536] }},
{"zip_code":"7071","country":"US","city":"Lyndhurst","state":"New Jersey","state_ab":"NJ","county":"Bergen","geo_location":{ "type": "Point", "coordinates": [-74.1245, 40.8094] }},
{"zip_code":"7417","country":"US","city":"Franklin Lakes","state":"New Jersey","state_ab":"NJ","county":"Bergen","geo_location":{ "type": "Point", "coordinates": [-74.2113, 41.0081] }},
{"zip_code":"7624","country":"US","city":"Closter","state":"New Jersey","state_ab":"NJ","county":"Bergen","geo_location":{ "type": "Point", "coordinates": [-73.959, 40.9721] }},
{"zip_code":"7677","country":"US","city":"Woodcliff Lake","state":"New Jersey","state_ab":"NJ","county":"Bergen County","geo_location":{ "type": "Point", "coordinates": [-74.0603, 41.0234] }},
{"zip_code":"8511","country":"US","city":"Cookstown","state":"New Jersey","state_ab":"NJ","county":"Burlington","geo_location":{ "type": "Point", "coordinates": [-74.5595, 40.0481] }},
{"zip_code":"8641","country":"US","city":"Trenton","state":"New Jersey","state_ab":"NJ","county":"Burlington","geo_location":{ "type": "Point", "coordinates": [-74.588, 40.027] }},
{"zip_code":"8007","country":"US","city":"Barrington","state":"New Jersey","state_ab":"NJ","county":"Camden","geo_location":{ "type": "Point", "coordinates": [-75.0564, 39.8651] }},
{"zip_code":"8021","country":"US","city":"Clementon","state":"New Jersey","state_ab":"NJ","county":"Camden","geo_location":{ "type": "Point", "coordinates": [-75.0058, 39.8036] }},
{"zip_code":"8034","country":"US","city":"Cherry Hill","state":"New Jersey","state_ab":"NJ","county":"Camden","geo_location":{ "type": "Point", "coordinates": [-75.0008, 39.9074] }},
{"zip_code":"8214","country":"US","city":"Dennisville","state":"New Jersey","state_ab":"NJ","county":"Cape May","geo_location":{ "type": "Point", "coordinates": [-74.8166, 39.0565] }},
{"zip_code":"7004","country":"US","city":"Fairfield","state":"New Jersey","state_ab":"NJ","county":"Essex","geo_location":{ "type": "Point", "coordinates": [-74.296, 40.8822] }},
{"zip_code":"7017","country":"US","city":"East Orange","state":"New Jersey","state_ab":"NJ","county":"Essex","geo_location":{ "type": "Point", "coordinates": [-74.2077, 40.7696] }},
{"zip_code":"7044","country":"US","city":"Verona","state":"New Jersey","state_ab":"NJ","county":"Essex","geo_location":{ "type": "Point", "coordinates": [-74.2428, 40.8319] }},
{"zip_code":"7107","country":"US","city":"Newark","state":"New Jersey","state_ab":"NJ","county":"Essex","geo_location":{ "type": "Point", "coordinates": [-74.1882, 40.7607] }},
{"zip_code":"8061","country":"US","city":"Mount Royal","state":"New Jersey","state_ab":"NJ","county":"Gloucester","geo_location":{ "type": "Point", "coordinates": [-75.2082, 39.8097] }},
{"zip_code":"8074","country":"US","city":"Richwood","state":"New Jersey","state_ab":"NJ","county":"Gloucester","geo_location":{ "type": "Point", "coordinates": [-75.1681, 39.7206] }},
{"zip_code":"8344","country":"US","city":"Newfield","state":"New Jersey","state_ab":"NJ","county":"Gloucester","geo_location":{ "type": "Point", "coordinates": [-75.0276, 39.5553] }},
{"zip_code":"7097","country":"US","city":"Jersey City","state":"New Jersey","state_ab":"NJ","county":"Hudson","geo_location":{ "type": "Point", "coordinates": [-74.0755, 40.7328] }},
{"zip_code":"8551","country":"US","city":"Ringoes","state":"New Jersey","state_ab":"NJ","county":"Hunterdon","geo_location":{ "type": "Point", "coordinates": [-74.8288, 40.4459] }},
{"zip_code":"8834","country":"US","city":"Little York","state":"New Jersey","state_ab":"NJ","county":"Hunterdon","geo_location":{ "type": "Point", "coordinates": [-74.9494, 40.5637] }},
{"zip_code":"8887","country":"US","city":"Three Bridges","state":"New Jersey","state_ab":"NJ","county":"Hunterdon","geo_location":{ "type": "Point", "coordinates": [-74.7946, 40.5206] }},
{"zip_code":"8601","country":"US","city":"Trenton","state":"New Jersey","state_ab":"NJ","county":"Mercer","geo_location":{ "type": "Point", "coordinates": [-74.712, 40.2805] }},
{"zip_code":"8861","country":"US","city":"Perth Amboy","state":"New Jersey","state_ab":"NJ","county":"Middlesex","geo_location":{ "type": "Point", "coordinates": [-74.2754, 40.5176] }},
{"zip_code":"7701","country":"US","city":"Red Bank","state":"New Jersey","state_ab":"NJ","county":"Monmouth","geo_location":{ "type": "Point", "coordinates": [-74.0681, 40.3584] }},
{"zip_code":"7727","country":"US","city":"Farmingdale","state":"New Jersey","state_ab":"NJ","county":"Monmouth","geo_location":{ "type": "Point", "coordinates": [-74.1779, 40.2043] }},
{"zip_code":"7754","country":"US","city":"Neptune","state":"New Jersey","state_ab":"NJ","county":"Monmouth","geo_location":{ "type": "Point", "coordinates": [-74.2493, 40.3027] }},
{"zip_code":"7444","country":"US","city":"Pompton Plains","state":"New Jersey","state_ab":"NJ","county":"Morris","geo_location":{ "type": "Point", "coordinates": [-74.3016, 40.9655] }},
{"zip_code":"7457","country":"US","city":"Riverdale","state":"New Jersey","state_ab":"NJ","county":"Morris","geo_location":{ "type": "Point", "coordinates": [-74.3088, 40.9931] }},
{"zip_code":"7857","country":"US","city":"Netcong","state":"New Jersey","state_ab":"NJ","county":"Morris","geo_location":{ "type": "Point", "coordinates": [-74.6985, 40.8985] }},
{"zip_code":"7961","country":"US","city":"Morristown","state":"New Jersey","state_ab":"NJ","county":"Morris","geo_location":{ "type": "Point", "coordinates": [-74.4428, 40.7797] }},
{"zip_code":"8087","country":"US","city":"Tuckerton","state":"New Jersey","state_ab":"NJ","county":"Ocean","geo_location":{ "type": "Point", "coordinates": [-74.3646, 39.5881] }},
{"zip_code":"8731","country":"US","city":"Forked River","state":"New Jersey","state_ab":"NJ","county":"Ocean","geo_location":{ "type": "Point", "coordinates": [-74.1973, 39.8444] }},
{"zip_code":"8757","country":"US","city":"Toms River","state":"New Jersey","state_ab":"NJ","county":"Ocean","geo_location":{ "type": "Point", "coordinates": [-74.2512, 39.9715] }},
{"zip_code":"7507","country":"US","city":"Hawthorne","state":"New Jersey","state_ab":"NJ","county":"Passaic","geo_location":{ "type": "Point", "coordinates": [-74.3048, 41.0114] }},
{"zip_code":"7921","country":"US","city":"Bedminster","state":"New Jersey","state_ab":"NJ","county":"Somerset","geo_location":{ "type": "Point", "coordinates": [-74.6432, 40.6571] }},
{"zip_code":"7934","country":"US","city":"Gladstone","state":"New Jersey","state_ab":"NJ","county":"Somerset","geo_location":{ "type": "Point", "coordinates": [-74.6707, 40.7219] }},
{"zip_code":"8807","country":"US","city":"Bridgewater","state":"New Jersey","state_ab":"NJ","county":"Somerset","geo_location":{ "type": "Point", "coordinates": [-74.6267, 40.5904] }},
{"zip_code":"8821","country":"US","city":"Flagtown","state":"New Jersey","state_ab":"NJ","county":"Somerset","geo_location":{ "type": "Point", "coordinates": [-74.5998, 40.5666] }},
{"zip_code":"7871","country":"US","city":"Sparta","state":"New Jersey","state_ab":"NJ","county":"Sussex","geo_location":{ "type": "Point", "coordinates": [-74.6407, 41.0277] }},
{"zip_code":"49411","country":"US","city":"Free Soil","state":"Michigan","state_ab":"MI","county":"Mason","geo_location":{ "type": "Point", "coordinates": [-86.2652, 44.112] }},
{"zip_code":"49307","country":"US","city":"Big Rapids","state":"Michigan","state_ab":"MI","county":"Mecosta","geo_location":{ "type": "Point", "coordinates": [-85.4797, 43.6897] }},
{"zip_code":"49334","country":"US","city":"Millbrook","state":"Michigan","state_ab":"MI","county":"Mecosta County","geo_location":{ "type": "Point", "coordinates": [-85.0883, 43.5487] }},
{"zip_code":"48641","country":"US","city":"Midland","state":"Michigan","state_ab":"MI","county":"Midland","geo_location":{ "type": "Point", "coordinates": [-84.3878, 43.5383] }},
{"zip_code":"48667","country":"US","city":"Midland","state":"Michigan","state_ab":"MI","county":"Midland","geo_location":{ "type": "Point", "coordinates": [-84.3873, 43.6473] }},
{"zip_code":"49657","country":"US","city":"Mc Bain","state":"Michigan","state_ab":"MI","county":"Missaukee","geo_location":{ "type": "Point", "coordinates": [-85.2283, 44.2172] }},
{"zip_code":"48177","country":"US","city":"Samaria","state":"Michigan","state_ab":"MI","county":"Monroe","geo_location":{ "type": "Point", "coordinates": [-83.5793, 41.8076] }},
{"zip_code":"48834","country":"US","city":"Fenwick","state":"Michigan","state_ab":"MI","county":"Montcalm","geo_location":{ "type": "Point", "coordinates": [-85.0666, 43.1497] }},
{"zip_code":"49347","country":"US","city":"Trufant","state":"Michigan","state_ab":"MI","county":"Montcalm","geo_location":{ "type": "Point", "coordinates": [-85.3685, 43.3156] }},
{"zip_code":"49437","country":"US","city":"Montague","state":"Michigan","state_ab":"MI","county":"Muskegon","geo_location":{ "type": "Point", "coordinates": [-86.374, 43.4242] }},
{"zip_code":"49451","country":"US","city":"Ravenna","state":"Michigan","state_ab":"MI","county":"Muskegon","geo_location":{ "type": "Point", "coordinates": [-85.9648, 43.2091] }},
{"zip_code":"48007","country":"US","city":"Troy","state":"Michigan","state_ab":"MI","county":"Oakland","geo_location":{ "type": "Point", "coordinates": [-83.2976, 42.6061] }},
{"zip_code":"48034","country":"US","city":"Southfield","state":"Michigan","state_ab":"MI","county":"Oakland","geo_location":{ "type": "Point", "coordinates": [-83.2911, 42.4969] }},
{"zip_code":"48304","country":"US","city":"Bloomfield Hills","state":"Michigan","state_ab":"MI","county":"Oakland","geo_location":{ "type": "Point", "coordinates": [-83.2359, 42.587] }},
{"zip_code":"48331","country":"US","city":"Farmington","state":"Michigan","state_ab":"MI","county":"Oakland","geo_location":{ "type": "Point", "coordinates": [-83.4072, 42.5051] }},
{"zip_code":"48357","country":"US","city":"Highland","state":"Michigan","state_ab":"MI","county":"Oakland","geo_location":{ "type": "Point", "coordinates": [-83.637, 42.6595] }},
{"zip_code":"48371","country":"US","city":"Oxford","state":"Michigan","state_ab":"MI","county":"Oakland","geo_location":{ "type": "Point", "coordinates": [-83.2829, 42.8223] }},
{"zip_code":"48654","country":"US","city":"Rose City","state":"Michigan","state_ab":"MI","county":"Ogemaw","geo_location":{ "type": "Point", "coordinates": [-84.1256, 44.4167] }},
{"zip_code":"49967","country":"US","city":"Trout Creek","state":"Michigan","state_ab":"MI","county":"Ontonagon","geo_location":{ "type": "Point", "coordinates": [-89.027, 46.4864] }},
{"zip_code":"49631","country":"US","city":"Evart","state":"Michigan","state_ab":"MI","county":"Osceola","geo_location":{ "type": "Point", "coordinates": [-85.2649, 43.8888] }},
{"zip_code":"49734","country":"US","city":"Gaylord","state":"Michigan","state_ab":"MI","county":"Otsego","geo_location":{ "type": "Point", "coordinates": [-84.6122, 45.0284] }},
{"zip_code":"49424","country":"US","city":"Holland","state":"Michigan","state_ab":"MI","county":"Ottawa","geo_location":{ "type": "Point", "coordinates": [-86.1426, 42.8135] }},
{"zip_code":"49464","country":"US","city":"Zeeland","state":"Michigan","state_ab":"MI","county":"Ottawa","geo_location":{ "type": "Point", "coordinates": [-86.0104, 42.8256] }},
{"zip_code":"48627","country":"US","city":"Higgins Lake","state":"Michigan","state_ab":"MI","county":"Roscommon","geo_location":{ "type": "Point", "coordinates": [-84.7013, 44.3871] }},
{"zip_code":"48601","country":"US","city":"Saginaw","state":"Michigan","state_ab":"MI","county":"Saginaw","geo_location":{ "type": "Point", "coordinates": [-83.9156, 43.4047] }},
{"zip_code":"48614","country":"US","city":"Brant","state":"Michigan","state_ab":"MI","county":"Saginaw","geo_location":{ "type": "Point", "coordinates": [-84.2978, 43.2548] }},
{"zip_code":"48061","country":"US","city":"Port Huron","state":"Michigan","state_ab":"MI","county":"St. Clair","geo_location":{ "type": "Point", "coordinates": [-82.6652, 42.8241] }},
{"zip_code":"48074","country":"US","city":"Smiths Creek","state":"Michigan","state_ab":"MI","county":"St. Clair","geo_location":{ "type": "Point", "coordinates": [-82.5679, 42.9051] }},
{"zip_code":"49091","country":"US","city":"Sturgis","state":"Michigan","state_ab":"MI","county":"St. Joseph","geo_location":{ "type": "Point", "coordinates": [-85.4264, 41.8089] }},
{"zip_code":"48434","country":"US","city":"Forestville","state":"Michigan","state_ab":"MI","county":"Sanilac","geo_location":{ "type": "Point", "coordinates": [-82.6133, 43.6632] }},
{"zip_code":"48744","country":"US","city":"Mayville","state":"Michigan","state_ab":"MI","county":"Tuscola","geo_location":{ "type": "Point", "coordinates": [-83.3725, 43.3562] }},
{"zip_code":"48757","country":"US","city":"Reese","state":"Michigan","state_ab":"MI","county":"Tuscola","geo_location":{ "type": "Point", "coordinates": [-83.7015, 43.4531] }},
{"zip_code":"49064","country":"US","city":"Lawrence","state":"Michigan","state_ab":"MI","county":"Van Buren","geo_location":{ "type": "Point", "coordinates": [-86.0525, 42.2076] }},
{"zip_code":"48191","country":"US","city":"Willis","state":"Michigan","state_ab":"MI","county":"Washtenaw","geo_location":{ "type": "Point", "coordinates": [-83.5687, 42.1292] }},
{"zip_code":"48111","country":"US","city":"Belleville","state":"Michigan","state_ab":"MI","county":"Wayne","geo_location":{ "type": "Point", "coordinates": [-83.4854, 42.1949] }},
{"zip_code":"48124","country":"US","city":"Dearborn","state":"Michigan","state_ab":"MI","county":"Wayne","geo_location":{ "type": "Point", "coordinates": [-83.2536, 42.2941] }},
{"zip_code":"48151","country":"US","city":"Livonia","state":"Michigan","state_ab":"MI","county":"Wayne","geo_location":{ "type": "Point", "coordinates": [-83.1508, 42.2399] }},
{"zip_code":"48164","country":"US","city":"New Boston","state":"Michigan","state_ab":"MI","county":"Wayne","geo_location":{ "type": "Point", "coordinates": [-83.3589, 42.1449] }}]}