{"value": [{"zip_code":"14819","country":"US","city":"Cameron","state":"New York","state_ab":"NY","county":"Steuben","geo_location":{ "type": "Point", "coordinates": [-77.4403, 42.2128] }},
{"zip_code":"14820","country":"US","city":"Cameron Mills","state":"New York","state_ab":"NY","county":"Steuben","geo_location":{ "type": "Point", "coordinates": [-77.365, 42.1925] }},
{"zip_code":"14873","country":"US","city":"Prattsburgh","state":"New York","state_ab":"NY","county":"Steuben","geo_location":{ "type": "Point", "coordinates": [-77.2983, 42.5224] }},
{"zip_code":"11706","country":"US","city":"Bay Shore","state":"New York","state_ab":"NY","county":"Suffolk","geo_location":{ "type": "Point", "coordinates": [-73.243, 40.7051] }},
{"zip_code":"11719","country":"US","city":"Brookhaven","state":"New York","state_ab":"NY","county":"Suffolk","geo_location":{ "type": "Point", "coordinates": [-72.8921, 40.7843] }},
{"zip_code":"11720","country":"US","city":"Centereach","state":"New York","state_ab":"NY","county":"Suffolk","geo_location":{ "type": "Point", "coordinates": [-73.0822, 40.8705] }},
{"zip_code":"11733","country":"US","city":"East Setauket","state":"New York","state_ab":"NY","county":"Suffolk","geo_location":{ "type": "Point", "coordinates": [-73.1116, 40.9426] }},
{"zip_code":"11746","country":"US","city":"Huntington Station","state":"New York","state_ab":"NY","county":"Suffolk","geo_location":{ "type": "Point", "coordinates": [-73.3634, 40.8143] }},
{"zip_code":"11760","country":"US","city":"Hauppauge","state":"New York","state_ab":"NY","county":"Suffolk","geo_location":{ "type": "Point", "coordinates": [-73.1918, 40.8102] }},
{"zip_code":"11786","country":"US","city":"Shoreham","state":"New York","state_ab":"NY","county":"Suffolk","geo_location":{ "type": "Point", "coordinates": [-72.8927, 40.9485] }},
{"zip_code":"11939","country":"US","city":"East Marion","state":"New York","state_ab":"NY","county":"Suffolk","geo_location":{ "type": "Point", "coordinates": [-72.3419, 41.1264] }},
{"zip_code":"11940","country":"US","city":"East Moriches","state":"New York","state_ab":"NY","county":"Suffolk","geo_location":{ "type": "Point", "coordinates": [-72.7538, 40.809] }},
{"zip_code":"11953","country":"US","city":"Middle Island","state":"New York","state_ab":"NY","county":"Suffolk","geo_location":{ "type": "Point", "coordinates": [-72.9525, 40.8782] }},
{"zip_code":"11980","country":"US","city":"Yaphank","state":"New York","state_ab":"NY","county":"Suffolk","geo_location":{ "type": "Point", "coordinates": [-72.9174, 40.837] }},
{"zip_code":"12723","country":"US","city":"Callicoon","state":"New York","state_ab":"NY","county":"Sullivan","geo_location":{ "type": "Point", "coordinates": [-75.0257, 41.7754] }},
{"zip_code":"12736","country":"US","city":"Fremont Center","state":"New York","state_ab":"NY","county":"Sullivan","geo_location":{ "type": "Point", "coordinates": [-75.0343, 41.8782] }},
{"zip_code":"12749","country":"US","city":"Kauneonga Lake","state":"New York","state_ab":"NY","county":"Sullivan","geo_location":{ "type": "Point", "coordinates": [-74.8358, 41.6874] }},
{"zip_code":"12750","country":"US","city":"Kenoza Lake","state":"New York","state_ab":"NY","county":"Sullivan","geo_location":{ "type": "Point", "coordinates": [-74.9611, 41.7296] }},
{"zip_code":"12763","country":"US","city":"Mountain Dale","state":"New York","state_ab":"NY","county":"Sullivan","geo_location":{ "type": "Point", "coordinates": [-74.5358, 41.6918] }},
{"zip_code":"12776","country":"US","city":"Roscoe","state":"New York","state_ab":"NY","county":"Sullivan","geo_location":{ "type": "Point", "coordinates": [-74.9346, 41.9609] }},
{"zip_code":"12789","country":"US","city":"Woodridge","state":"New York","state_ab":"NY","county":"Sullivan","geo_location":{ "type": "Point", "coordinates": [-74.5815, 41.717] }},
{"zip_code":"12790","country":"US","city":"Wurtsboro","state":"New York","state_ab":"NY","county":"Sullivan","geo_location":{ "type": "Point", "coordinates": [-74.5039, 41.5877] }},
{"zip_code":"14859","country":"US","city":"Lockwood","state":"New York","state_ab":"NY","county":"Tioga","geo_location":{ "type": "Point", "coordinates": [-76.5366, 42.1149] }},
{"zip_code":"14886","country":"US","city":"Trumansburg","state":"New York","state_ab":"NY","county":"Tompkins","geo_location":{ "type": "Point", "coordinates": [-76.6681, 42.521] }},
{"zip_code":"12440","country":"US","city":"High Falls","state":"New York","state_ab":"NY","county":"Ulster","geo_location":{ "type": "Point", "coordinates": [-74.1311, 41.8167] }},
{"zip_code":"12453","country":"US","city":"Malden On Hudson","state":"New York","state_ab":"NY","county":"Ulster","geo_location":{ "type": "Point", "coordinates": [-73.9354, 42.0987] }},
{"zip_code":"12466","country":"US","city":"Port Ewen","state":"New York","state_ab":"NY","county":"Ulster","geo_location":{ "type": "Point", "coordinates": [-73.9767, 41.8948] }},
{"zip_code":"12480","country":"US","city":"Shandaken","state":"New York","state_ab":"NY","county":"Ulster","geo_location":{ "type": "Point", "coordinates": [-74.3774, 42.1363] }},
{"zip_code":"12493","country":"US","city":"West Park","state":"New York","state_ab":"NY","county":"Ulster","geo_location":{ "type": "Point", "coordinates": [-73.9809, 41.7953] }},
{"zip_code":"12853","country":"US","city":"North Creek","state":"New York","state_ab":"NY","county":"Warren","geo_location":{ "type": "Point", "coordinates": [-73.8928, 43.7138] }},
{"zip_code":"12826","country":"US","city":"East Greenwich","state":"New York","state_ab":"NY","county":"Washington County","geo_location":{ "type": "Point", "coordinates": [-73.3925, 43.1572] }},
{"zip_code":"12839","country":"US","city":"Hudson Falls","state":"New York","state_ab":"NY","county":"Washington","geo_location":{ "type": "Point", "coordinates": [-73.5746, 43.3149] }},
{"zip_code":"13146","country":"US","city":"Savannah","state":"New York","state_ab":"NY","county":"Wayne","geo_location":{ "type": "Point", "coordinates": [-76.7565, 43.0934] }},
{"zip_code":"14433","country":"US","city":"Clyde","state":"New York","state_ab":"NY","county":"Wayne","geo_location":{ "type": "Point", "coordinates": [-76.8725, 43.0855] }},
{"zip_code":"14563","country":"US","city":"Union Hill","state":"New York","state_ab":"NY","county":"Wayne","geo_location":{ "type": "Point", "coordinates": [-77.0453, 43.3484] }},
{"zip_code":"14589","country":"US","city":"Williamson","state":"New York","state_ab":"NY","county":"Wayne","geo_location":{ "type": "Point", "coordinates": [-77.17, 43.2421] }},
{"zip_code":"14590","country":"US","city":"Wolcott","state":"New York","state_ab":"NY","county":"Wayne","geo_location":{ "type": "Point", "coordinates": [-76.8217, 43.2341] }},
{"zip_code":"10510","country":"US","city":"Briarcliff Manor","state":"New York","state_ab":"NY","county":"Westchester","geo_location":{ "type": "Point", "coordinates": [-73.835, 41.1444] }},
{"zip_code":"10523","country":"US","city":"Elmsford","state":"New York","state_ab":"NY","county":"Westchester","geo_location":{ "type": "Point", "coordinates": [-73.8136, 41.0572] }},
{"zip_code":"10536","country":"US","city":"Katonah","state":"New York","state_ab":"NY","county":"Westchester","geo_location":{ "type": "Point", "coordinates": [-73.6841, 41.2709] }},
{"zip_code":"10549","country":"US","city":"Mount Kisco","state":"New York","state_ab":"NY","county":"Westchester","geo_location":{ "type": "Point", "coordinates": [-73.7299, 41.205] }},
{"zip_code":"10550","country":"US","city":"Mount Vernon","state":"New York","state_ab":"NY","county":"Westchester","geo_location":{ "type": "Point", "coordinates": [-73.838, 40.9079] }},
{"zip_code":"10576","country":"US","city":"Pound Ridge","state":"New York","state_ab":"NY","county":"Westchester","geo_location":{ "type": "Point", "coordinates": [-73.5732, 41.2042] }},
{"zip_code":"10589","country":"US","city":"Somers","state":"New York","state_ab":"NY","county":"Westchester","geo_location":{ "type": "Point", "coordinates": [-73.6951, 41.3346] }},
{"zip_code":"10590","country":"US","city":"South Salem","state":"New York","state_ab":"NY","county":"Westchester","geo_location":{ "type": "Point", "coordinates": [-73.5402, 41.2553] }},
{"zip_code":"10703","country":"US","city":"Yonkers","state":"New York","state_ab":"NY","county":"Westchester","geo_location":{ "type": "Point", "coordinates": [-73.8852, 40.9518] }},
{"zip_code":"4690","country":"US","city":"West Tremont","state":"Maine","state_ab":"ME","county":"Hancock","geo_location":{ "type": "Point", "coordinates": [-68.3915, 44.6419] }},
{"zip_code":"4843","country":"US","city":"Camden","state":"Maine","state_ab":"ME","county":"Knox","geo_location":{ "type": "Point", "coordinates": [-69.0767, 44.2137] }},
{"zip_code":"4856","country":"US","city":"Rockport","state":"Maine","state_ab":"ME","county":"Knox","geo_location":{ "type": "Point", "coordinates": [-69.0901, 44.1888] }},
{"zip_code":"4353","country":"US","city":"Whitefield","state":"Maine","state_ab":"ME","county":"Lincoln","geo_location":{ "type": "Point", "coordinates": [-69.5751, 44.1884] }},
{"zip_code":"4573","country":"US","city":"Walpole","state":"Maine","state_ab":"ME","county":"Lincoln","geo_location":{ "type": "Point", "coordinates": [-69.5516, 43.9462] }},
{"zip_code":"4016","country":"US","city":"Center Lovell","state":"Maine","state_ab":"ME","county":"Oxford","geo_location":{ "type": "Point", "coordinates": [-70.8917, 44.181] }},
{"zip_code":"4276","country":"US","city":"Rumford","state":"Maine","state_ab":"ME","county":"Oxford","geo_location":{ "type": "Point", "coordinates": [-70.5645, 44.5434] }},
{"zip_code":"4289","country":"US","city":"West Paris","state":"Maine","state_ab":"ME","county":"Oxford","geo_location":{ "type": "Point", "coordinates": [-70.5732, 44.3253] }},
{"zip_code":"4290","country":"US","city":"Peru","state":"Maine","state_ab":"ME","county":"Oxford","geo_location":{ "type": "Point", "coordinates": [-70.4435, 44.4944] }},
{"zip_code":"4429","country":"US","city":"Holden","state":"Maine","state_ab":"ME","county":"Penobscot","geo_location":{ "type": "Point", "coordinates": [-68.6165, 44.7208] }},
{"zip_code":"4430","country":"US","city":"East Millinocket","state":"Maine","state_ab":"ME","county":"Penobscot","geo_location":{ "type": "Point", "coordinates": [-68.5728, 45.63] }},
{"zip_code":"4456","country":"US","city":"Levant","state":"Maine","state_ab":"ME","county":"Penobscot","geo_location":{ "type": "Point", "coordinates": [-68.9837, 44.8843] }},
{"zip_code":"4469","country":"US","city":"Orono","state":"Maine","state_ab":"ME","county":"Penobscot","geo_location":{ "type": "Point", "coordinates": [-68.6334, 45.0028] }},
{"zip_code":"4933","country":"US","city":"East Newport","state":"Maine","state_ab":"ME","county":"Penobscot","geo_location":{ "type": "Point", "coordinates": [-68.6474, 45.5199] }},
{"zip_code":"4443","country":"US","city":"Guilford","state":"Maine","state_ab":"ME","county":"Piscataquis","geo_location":{ "type": "Point", "coordinates": [-69.3975, 45.1735] }},
{"zip_code":"4920","country":"US","city":"Bingham","state":"Maine","state_ab":"ME","county":"Somerset","geo_location":{ "type": "Point", "coordinates": [-69.8857, 45.0682] }},
{"zip_code":"4496","country":"US","city":"Winterport","state":"Maine","state_ab":"ME","county":"Waldo","geo_location":{ "type": "Point", "coordinates": [-68.8862, 44.6552] }},
{"zip_code":"4973","country":"US","city":"Searsmont","state":"Maine","state_ab":"ME","county":"Waldo","geo_location":{ "type": "Point", "coordinates": [-69.2196, 44.377] }},
{"zip_code":"4986","country":"US","city":"Thorndike","state":"Maine","state_ab":"ME","county":"Waldo","geo_location":{ "type": "Point", "coordinates": [-69.2487, 44.5744] }},
{"zip_code":"4623","country":"US","city":"Columbia Falls","state":"Maine","state_ab":"ME","county":"Washington","geo_location":{ "type": "Point", "coordinates": [-67.7534, 44.6699] }},
{"zip_code":"4649","country":"US","city":"Jonesport","state":"Maine","state_ab":"ME","county":"Washington","geo_location":{ "type": "Point", "coordinates": [-67.6044, 44.5509] }},
{"zip_code":"3903","country":"US","city":"Eliot","state":"Maine","state_ab":"ME","county":"York","geo_location":{ "type": "Point", "coordinates": [-70.7822, 43.1309] }},
{"zip_code":"4030","country":"US","city":"East Waterboro","state":"Maine","state_ab":"ME","county":"York","geo_location":{ "type": "Point", "coordinates": [-70.6906, 43.5995] }},
{"zip_code":"4043","country":"US","city":"Kennebunk","state":"Maine","state_ab":"ME","county":"York","geo_location":{ "type": "Point", "coordinates": [-70.5478, 43.3881] }},
{"zip_code":"4056","country":"US","city":"Newfield","state":"Maine","state_ab":"ME","county":"York","geo_location":{ "type": "Point", "coordinates": [-70.8689, 43.6584] }},
{"zip_code":"4083","country":"US","city":"Springvale","state":"Maine","state_ab":"ME","county":"York","geo_location":{ "type": "Point", "coordinates": [-70.8064, 43.4715] }},
{"zip_code":"96970","country":"US","city":"Ebeye","state":"","state_ab":"MH","county":"","geo_location":{ "type": "Point", "coordinates": [167.7365, 8.786] }},
{"zip_code":"48740","country":"US","city":"Harrisville","state":"Michigan","state_ab":"MI","county":"Alcona","geo_location":{ "type": "Point", "coordinates": [-83.3424, 44.6546] }},
{"zip_code":"49806","country":"US","city":"Au Train","state":"Michigan","state_ab":"MI","county":"Alger","geo_location":{ "type": "Point", "coordinates": [-86.9115, 46.4446] }},
{"zip_code":"49406","country":"US","city":"Douglas","state":"Michigan","state_ab":"MI","county":"Allegan","geo_location":{ "type": "Point", "coordinates": [-86.2022, 42.6369] }},
{"zip_code":"49419","country":"US","city":"Hamilton","state":"Michigan","state_ab":"MI","county":"Allegan","geo_location":{ "type": "Point", "coordinates": [-85.9747, 42.6881] }},
{"zip_code":"49729","country":"US","city":"Ellsworth","state":"Michigan","state_ab":"MI","county":"Antrim","geo_location":{ "type": "Point", "coordinates": [-85.2633, 45.1599] }},
{"zip_code":"48766","country":"US","city":"Twining","state":"Michigan","state_ab":"MI","county":"Arenac","geo_location":{ "type": "Point", "coordinates": [-83.8491, 44.1293] }},
{"zip_code":"49046","country":"US","city":"Delton","state":"Michigan","state_ab":"MI","county":"Barry","geo_location":{ "type": "Point", "coordinates": [-85.4067, 42.5141] }},
{"zip_code":"49060","country":"US","city":"Hickory Corners","state":"Michigan","state_ab":"MI","county":"Barry","geo_location":{ "type": "Point", "coordinates": [-85.3998, 42.4237] }},
{"zip_code":"49073","country":"US","city":"Nashville","state":"Michigan","state_ab":"MI","county":"Barry","geo_location":{ "type": "Point", "coordinates": [-85.122, 42.5937] }},
{"zip_code":"48650","country":"US","city":"Pinconning","state":"Michigan","state_ab":"MI","county":"Bay","geo_location":{ "type": "Point", "coordinates": [-84.0082, 43.8491] }},
{"zip_code":"49640","country":"US","city":"Honor","state":"Michigan","state_ab":"MI","county":"Benzie","geo_location":{ "type": "Point", "coordinates": [-86.0376, 44.6954] }},
{"zip_code":"49020","country":"US","city":"Bedford","state":"Michigan","state_ab":"MI","county":"Calhoun","geo_location":{ "type": "Point", "coordinates": [-85.0045, 42.2464] }},
{"zip_code":"49033","country":"US","city":"Ceresco","state":"Michigan","state_ab":"MI","county":"Calhoun","geo_location":{ "type": "Point", "coordinates": [-85.1128, 42.2127] }},
{"zip_code":"49796","country":"US","city":"Walloon Lake","state":"Michigan","state_ab":"MI","county":"Charlevoix","geo_location":{ "type": "Point", "coordinates": [-84.9382, 45.2454] }},
{"zip_code":"49716","country":"US","city":"Brutus","state":"Michigan","state_ab":"MI","county":"Cheboygan","geo_location":{ "type": "Point", "coordinates": [-84.7467, 45.5068] }},
{"zip_code":"49783","country":"US","city":"Sault Sainte Marie","state":"Michigan","state_ab":"MI","county":"Chippewa","geo_location":{ "type": "Point", "coordinates": [-84.2854, 46.4151] }},
{"zip_code":"49769","country":"US","city":"Pellston","state":"Michigan","state_ab":"MI","county":"Emmet","geo_location":{ "type": "Point", "coordinates": [-84.8425, 45.5703] }},
{"zip_code":"49770","country":"US","city":"Petoskey","state":"Michigan","state_ab":"MI","county":"Emmet","geo_location":{ "type": "Point", "coordinates": [-84.9133, 45.3559] }},
{"zip_code":"48430","country":"US","city":"Fenton","state":"Michigan","state_ab":"MI","county":"Genesee","geo_location":{ "type": "Point", "coordinates": [-83.7294, 42.7851] }},
{"zip_code":"48506","country":"US","city":"Flint","state":"Michigan","state_ab":"MI","county":"Genesee","geo_location":{ "type": "Point", "coordinates": [-83.631, 43.0653] }},
{"zip_code":"48519","country":"US","city":"Burton","state":"Michigan","state_ab":"MI","county":"Genesee","geo_location":{ "type": "Point", "coordinates": [-83.6135, 42.9859] }},
{"zip_code":"48559","country":"US","city":"Flint","state":"Michigan","state_ab":"MI","county":"Genesee","geo_location":{ "type": "Point", "coordinates": [-83.6925, 43.002] }},
{"zip_code":"49666","country":"US","city":"Mayfield","state":"Michigan","state_ab":"MI","county":"Grand Traverse","geo_location":{ "type": "Point", "coordinates": [-85.5425, 44.625] }},
{"zip_code":"48830","country":"US","city":"Elm Hall","state":"Michigan","state_ab":"MI","county":"Gratiot","geo_location":{ "type": "Point", "coordinates": [-84.8362, 43.3639] }},
{"zip_code":"48856","country":"US","city":"Middleton","state":"Michigan","state_ab":"MI","county":"Gratiot","geo_location":{ "type": "Point", "coordinates": [-84.7552, 43.1689] }},
{"zip_code":"49239","country":"US","city":"Frontier","state":"Michigan","state_ab":"MI","county":"Hillsdale","geo_location":{ "type": "Point", "coordinates": [-84.6047, 41.7825] }},
{"zip_code":"49266","country":"US","city":"Osseo","state":"Michigan","state_ab":"MI","county":"Hillsdale","geo_location":{ "type": "Point", "coordinates": [-84.5974, 41.8384] }},
{"zip_code":"49963","country":"US","city":"South Range","state":"Michigan","state_ab":"MI","county":"Houghton","geo_location":{ "type": "Point", "coordinates": [-88.652, 47.0719] }},
{"zip_code":"48470","country":"US","city":"Ruth","state":"Michigan","state_ab":"MI","county":"Huron","geo_location":{ "type": "Point", "coordinates": [-82.7414, 43.7404] }},
{"zip_code":"48906","country":"US","city":"Lansing","state":"Michigan","state_ab":"MI","county":"Ingham","geo_location":{ "type": "Point", "coordinates": [-84.558, 42.7635] }},
{"zip_code":"48919","country":"US","city":"Lansing","state":"Michigan","state_ab":"MI","county":"Ingham","geo_location":{ "type": "Point", "coordinates": [-84.5517, 42.7286] }},
{"zip_code":"48933","country":"US","city":"Lansing","state":"Michigan","state_ab":"MI","county":"Ingham","geo_location":{ "type": "Point", "coordinates": [-84.5571, 42.7334] }},
{"zip_code":"48870","country":"US","city":"Palo","state":"Michigan","state_ab":"MI","county":"Ionia","geo_location":{ "type": "Point", "coordinates": [-85.0077, 43.1136] }},
{"zip_code":"48739","country":"US","city":"Hale","state":"Michigan","state_ab":"MI","county":"Iosco","geo_location":{ "type": "Point", "coordinates": [-83.8359, 44.3819] }},
{"zip_code":"48753","country":"US","city":"Oscoda","state":"Michigan","state_ab":"MI","county":"Iosco County","geo_location":{ "type": "Point", "coordinates": [-83.36, 44.4418] }},
{"zip_code":"48883","country":"US","city":"Shepherd","state":"Michigan","state_ab":"MI","county":"Isabella","geo_location":{ "type": "Point", "coordinates": [-84.5873, 43.5657] }},
{"zip_code":"48896","country":"US","city":"Winn","state":"Michigan","state_ab":"MI","county":"Isabella","geo_location":{ "type": "Point", "coordinates": [-84.9063, 43.5308] }},
{"zip_code":"49240","country":"US","city":"Grass Lake","state":"Michigan","state_ab":"MI","county":"Jackson","geo_location":{ "type": "Point", "coordinates": [-84.194, 42.2711] }},
{"zip_code":"49006","country":"US","city":"Kalamazoo","state":"Michigan","state_ab":"MI","county":"Kalamazoo","geo_location":{ "type": "Point", "coordinates": [-85.633, 42.2922] }},
{"zip_code":"49019","country":"US","city":"Kalamazoo","state":"Michigan","state_ab":"MI","county":"Kalamazoo","geo_location":{ "type": "Point", "coordinates": [-85.5299, 42.2454] }},
{"zip_code":"49680","country":"US","city":"South Boardman","state":"Michigan","state_ab":"MI","county":"Kalkaska","geo_location":{ "type": "Point", "coordinates": [-85.2472, 44.6401] }},
{"zip_code":"49316","country":"US","city":"Caledonia","state":"Michigan","state_ab":"MI","county":"Kent","geo_location":{ "type": "Point", "coordinates": [-85.5244, 42.8187] }},
{"zip_code":"49330","country":"US","city":"Kent City","state":"Michigan","state_ab":"MI","county":"Kent","geo_location":{ "type": "Point", "coordinates": [-85.7399, 43.2362] }},
{"zip_code":"49343","country":"US","city":"Sand Lake","state":"Michigan","state_ab":"MI","county":"Kent","geo_location":{ "type": "Point", "coordinates": [-85.5367, 43.2981] }},
{"zip_code":"49356","country":"US","city":"Ada","state":"Michigan","state_ab":"MI","county":"Kent","geo_location":{ "type": "Point", "coordinates": [-85.5503, 43.0314] }},
{"zip_code":"49509","country":"US","city":"Grand Rapids","state":"Michigan","state_ab":"MI","county":"Kent","geo_location":{ "type": "Point", "coordinates": [-85.6929, 42.8975] }},
{"zip_code":"49510","country":"US","city":"Grand Rapids","state":"Michigan","state_ab":"MI","county":"Kent","geo_location":{ "type": "Point", "coordinates": [-85.5503, 43.0314] }},
{"zip_code":"49523","country":"US","city":"Grand Rapids","state":"Michigan","state_ab":"MI","county":"Kent","geo_location":{ "type": "Point", "coordinates": [-85.5503, 43.0314] }},
{"zip_code":"49550","country":"US","city":"Grand Rapids","state":"Michigan","state_ab":"MI","county":"Kent","geo_location":{ "type": "Point", "coordinates": [-85.5503, 43.0314] }},
{"zip_code":"49950","country":"US","city":"Mohawk","state":"Michigan","state_ab":"MI","county":"Keweenaw","geo_location":{ "type": "Point", "coordinates": [-88.2889, 47.3526] }},
{"zip_code":"48003","country":"US","city":"Almont","state":"Michigan","state_ab":"MI","county":"Lapeer","geo_location":{ "type": "Point", "coordinates": [-83.0362, 42.926] }},
{"zip_code":"49653","country":"US","city":"Lake Leelanau","state":"Michigan","state_ab":"MI","county":"Leelanau","geo_location":{ "type": "Point", "coordinates": [-85.7329, 44.9856] }},
{"zip_code":"49253","country":"US","city":"Manitou Beach","state":"Michigan","state_ab":"MI","county":"Lenawee","geo_location":{ "type": "Point", "coordinates": [-84.2767, 41.9671] }},
{"zip_code":"49279","country":"US","city":"Sand Creek","state":"Michigan","state_ab":"MI","county":"Lenawee","geo_location":{ "type": "Point", "coordinates": [-84.0755, 41.7793] }},
{"zip_code":"49280","country":"US","city":"Seneca","state":"Michigan","state_ab":"MI","county":"Lenawee","geo_location":{ "type": "Point", "coordinates": [-84.1866, 41.7958] }},
{"zip_code":"48353","country":"US","city":"Hartland","state":"Michigan","state_ab":"MI","county":"Livingston","geo_location":{ "type": "Point", "coordinates": [-83.7147, 42.6356] }},
{"zip_code":"48816","country":"US","city":"Cohoctah","state":"Michigan","state_ab":"MI","county":"Livingston","geo_location":{ "type": "Point", "coordinates": [-83.939, 42.7576] }},
{"zip_code":"48843","country":"US","city":"Howell","state":"Michigan","state_ab":"MI","county":"Livingston","geo_location":{ "type": "Point", "coordinates": [-83.9248, 42.6159] }},
{"zip_code":"49820","country":"US","city":"Curtis","state":"Michigan","state_ab":"MI","county":"Mackinac","geo_location":{ "type": "Point", "coordinates": [-85.7865, 46.2048] }},
{"zip_code":"48043","country":"US","city":"Mount Clemens","state":"Michigan","state_ab":"MI","county":"Macomb","geo_location":{ "type": "Point", "coordinates": [-82.8823, 42.5978] }},
{"zip_code":"48096","country":"US","city":"Ray","state":"Michigan","state_ab":"MI","county":"Macomb","geo_location":{ "type": "Point", "coordinates": [-82.9163, 42.754] }},
{"zip_code":"48313","country":"US","city":"Sterling Heights","state":"Michigan","state_ab":"MI","county":"Macomb","geo_location":{ "type": "Point", "coordinates": [-82.9998, 42.6005] }},
{"zip_code":"49613","country":"US","city":"Arcadia","state":"Michigan","state_ab":"MI","county":"Manistee","geo_location":{ "type": "Point", "coordinates": [-86.2061, 44.5232] }},
{"zip_code":"49626","country":"US","city":"Eastlake","state":"Michigan","state_ab":"MI","county":"Manistee","geo_location":{ "type": "Point", "coordinates": [-86.2913, 44.2413] }},
{"zip_code":"49819","country":"US","city":"Arnold","state":"Michigan","state_ab":"MI","county":"Marquette","geo_location":{ "type": "Point", "coordinates": [-87.6148, 46.6041] }},
{"zip_code":"49833","country":"US","city":"Little Lake","state":"Michigan","state_ab":"MI","county":"Marquette","geo_location":{ "type": "Point", "coordinates": [-87.3311, 46.2797] }},
{"zip_code":"49873","country":"US","city":"Perronville","state":"Michigan","state_ab":"MI","county":"Menominee","geo_location":{ "type": "Point", "coordinates": [-87.4816, 45.841] }},
{"zip_code":"49886","country":"US","city":"Spalding","state":"Michigan","state_ab":"MI","county":"Menominee","geo_location":{ "type": "Point", "coordinates": [-87.4852, 45.6777] }},
{"zip_code":"48133","country":"US","city":"Erie","state":"Michigan","state_ab":"MI","county":"Monroe","geo_location":{ "type": "Point", "coordinates": [-83.4958, 41.7829] }},
{"zip_code":"48159","country":"US","city":"Maybee","state":"Michigan","state_ab":"MI","county":"Monroe","geo_location":{ "type": "Point", "coordinates": [-83.5179, 42.0288] }},
{"zip_code":"48160","country":"US","city":"Milan","state":"Michigan","state_ab":"MI","county":"Monroe","geo_location":{ "type": "Point", "coordinates": [-83.6776, 42.0914] }},
{"zip_code":"48829","country":"US","city":"Edmore","state":"Michigan","state_ab":"MI","county":"Montcalm","geo_location":{ "type": "Point", "coordinates": [-85.028, 43.4116] }},
{"zip_code":"49329","country":"US","city":"Howard City","state":"Michigan","state_ab":"MI","county":"Montcalm","geo_location":{ "type": "Point", "coordinates": [-85.4856, 43.4083] }},
{"zip_code":"49756","country":"US","city":"Lewiston","state":"Michigan","state_ab":"MI","county":"Montmorency","geo_location":{ "type": "Point", "coordinates": [-84.2973, 44.8538] }},
{"zip_code":"49303","country":"US","city":"Bailey","state":"Michigan","state_ab":"MI","county":"Muskegon","geo_location":{ "type": "Point", "coordinates": [-85.8313, 43.2768] }},
{"zip_code":"48030","country":"US","city":"Hazel Park","state":"Michigan","state_ab":"MI","county":"Oakland","geo_location":{ "type": "Point", "coordinates": [-83.0982, 42.4608] }},
{"zip_code":"48069","country":"US","city":"Pleasant Ridge","state":"Michigan","state_ab":"MI","county":"Oakland","geo_location":{ "type": "Point", "coordinates": [-83.1438, 42.471] }},
{"zip_code":"48070","country":"US","city":"Huntington Woods","state":"Michigan","state_ab":"MI","county":"Oakland","geo_location":{ "type": "Point", "coordinates": [-83.1749, 42.4825] }},
{"zip_code":"48083","country":"US","city":"Troy","state":"Michigan","state_ab":"MI","county":"Oakland","geo_location":{ "type": "Point", "coordinates": [-83.1138, 42.5597] }},
{"zip_code":"48326","country":"US","city":"Auburn Hills","state":"Michigan","state_ab":"MI","county":"Oakland","geo_location":{ "type": "Point", "coordinates": [-83.2375, 42.6583] }},
{"zip_code":"48340","country":"US","city":"Pontiac","state":"Michigan","state_ab":"MI","county":"Oakland","geo_location":{ "type": "Point", "coordinates": [-83.2893, 42.668] }},
{"zip_code":"48366","country":"US","city":"Lakeville","state":"Michigan","state_ab":"MI","county":"Oakland","geo_location":{ "type": "Point", "coordinates": [-83.1841, 42.8033] }},
{"zip_code":"48380","country":"US","city":"Milford","state":"Michigan","state_ab":"MI","county":"Oakland","geo_location":{ "type": "Point", "coordinates": [-83.6508, 42.602] }},
{"zip_code":"48393","country":"US","city":"Wixom","state":"Michigan","state_ab":"MI","county":"Oakland","geo_location":{ "type": "Point", "coordinates": [-83.5285, 42.534] }},
{"zip_code":"49420","country":"US","city":"Hart","state":"Michigan","state_ab":"MI","county":"Oceana","geo_location":{ "type": "Point", "coordinates": [-86.3142, 43.7068] }},
{"zip_code":"49446","country":"US","city":"New Era","state":"Michigan","state_ab":"MI","county":"Oceana","geo_location":{ "type": "Point", "coordinates": [-86.3448, 43.5556] }},
{"zip_code":"49459","country":"US","city":"Walkerville","state":"Michigan","state_ab":"MI","county":"Oceana","geo_location":{ "type": "Point", "coordinates": [-86.083, 43.7626] }},
{"zip_code":"48610","country":"US","city":"Alger","state":"Michigan","state_ab":"MI","county":"Ogemaw","geo_location":{ "type": "Point", "coordinates": [-84.1872, 44.1395] }},
{"zip_code":"49910","country":"US","city":"Bergland","state":"Michigan","state_ab":"MI","county":"Ontonagon","geo_location":{ "type": "Point", "coordinates": [-89.5973, 46.5881] }},
{"zip_code":"49639","country":"US","city":"Hersey","state":"Michigan","state_ab":"MI","county":"Osceola","geo_location":{ "type": "Point", "coordinates": [-85.4059, 43.8481] }},
{"zip_code":"49679","country":"US","city":"Sears","state":"Michigan","state_ab":"MI","county":"Osceola","geo_location":{ "type": "Point", "coordinates": [-85.1465, 43.8776] }},
{"zip_code":"48636","country":"US","city":"Luzerne","state":"Michigan","state_ab":"MI","county":"Oscoda","geo_location":{ "type": "Point", "coordinates": [-84.2931, 44.6001] }},
{"zip_code":"49730","country":"US","city":"Elmira","state":"Michigan","state_ab":"MI","county":"Otsego","geo_location":{ "type": "Point", "coordinates": [-84.8303, 45.0346] }},
{"zip_code":"49460","country":"US","city":"West Olive","state":"Michigan","state_ab":"MI","county":"Ottawa","geo_location":{ "type": "Point", "coordinates": [-86.1317, 42.9099] }},
{"zip_code":"49909","country":"US","city":"Beechwood","state":"Michigan","state_ab":"MI","county":"Ottawa County","geo_location":{ "type": "Point", "coordinates": [-88.644, 46.0916] }},
{"zip_code":"49743","country":"US","city":"Hawks","state":"Michigan","state_ab":"MI","county":"Presque Isle","geo_location":{ "type": "Point", "coordinates": [-83.8542, 45.2975] }},
{"zip_code":"48609","country":"US","city":"Saginaw","state":"Michigan","state_ab":"MI","county":"Saginaw","geo_location":{ "type": "Point", "coordinates": [-84.0926, 43.3869] }},
{"zip_code":"48623","country":"US","city":"Freeland","state":"Michigan","state_ab":"MI","county":"Saginaw","geo_location":{ "type": "Point", "coordinates": [-84.1822, 43.5161] }},
{"zip_code":"48649","country":"US","city":"Oakley","state":"Michigan","state_ab":"MI","county":"Saginaw","geo_location":{ "type": "Point", "coordinates": [-84.2094, 43.1505] }},
{"zip_code":"48663","country":"US","city":"Saginaw","state":"Michigan","state_ab":"MI","county":"Saginaw","geo_location":{ "type": "Point", "coordinates": [-83.9755, 43.4673] }},
{"zip_code":"49099","country":"US","city":"White Pigeon","state":"Michigan","state_ab":"MI","county":"St. Joseph","geo_location":{ "type": "Point", "coordinates": [-85.675, 41.7929] }},
{"zip_code":"48416","country":"US","city":"Brown City","state":"Michigan","state_ab":"MI","county":"Sanilac","geo_location":{ "type": "Point", "coordinates": [-82.9978, 43.2171] }},
{"zip_code":"48456","country":"US","city":"Minden City","state":"Michigan","state_ab":"MI","county":"Sanilac","geo_location":{ "type": "Point", "coordinates": [-82.7299, 43.6814] }},
{"zip_code":"48469","country":"US","city":"Port Sanilac","state":"Michigan","state_ab":"MI","county":"Sanilac","geo_location":{ "type": "Point", "coordinates": [-82.5468, 43.4329] }},
{"zip_code":"48429","country":"US","city":"Durand","state":"Michigan","state_ab":"MI","county":"Shiawassee","geo_location":{ "type": "Point", "coordinates": [-83.9877, 42.9117] }},
{"zip_code":"48726","country":"US","city":"Cass City","state":"Michigan","state_ab":"MI","county":"Tuscola","geo_location":{ "type": "Point", "coordinates": [-83.1733, 43.5797] }},
{"zip_code":"48106","country":"US","city":"Ann Arbor","state":"Michigan","state_ab":"MI","county":"Washtenaw","geo_location":{ "type": "Point", "coordinates": [-83.8366, 42.2535] }},
{"zip_code":"48120","country":"US","city":"Dearborn","state":"Michigan","state_ab":"MI","county":"Wayne","geo_location":{ "type": "Point", "coordinates": [-83.1605, 42.3053] }},
{"zip_code":"48146","country":"US","city":"Lincoln Park","state":"Michigan","state_ab":"MI","county":"Wayne","geo_location":{ "type": "Point", "coordinates": [-83.1807, 42.2422] }},
{"zip_code":"48173","country":"US","city":"Rockwood","state":"Michigan","state_ab":"MI","county":"Wayne","geo_location":{ "type": "Point", "coordinates": [-83.2127, 42.0731] }},
{"zip_code":"48186","country":"US","city":"Westland","state":"Michigan","state_ab":"MI","county":"Wayne","geo_location":{ "type": "Point", "coordinates": [-83.3686, 42.289] }},
{"zip_code":"48209","country":"US","city":"Detroit","state":"Michigan","state_ab":"MI","county":"Wayne","geo_location":{ "type": "Point", "coordinates": [-83.1155, 42.3097] }},
{"zip_code":"48210","country":"US","city":"Detroit","state":"Michigan","state_ab":"MI","county":"Wayne","geo_location":{ "type": "Point", "coordinates": [-83.1303, 42.3376] }},
{"zip_code":"48223","country":"US","city":"Detroit","state":"Michigan","state_ab":"MI","county":"Wayne","geo_location":{ "type": "Point", "coordinates": [-83.2454, 42.3945] }},
{"zip_code":"48236","country":"US","city":"Grosse Pointe","state":"Michigan","state_ab":"MI","county":"Wayne","geo_location":{ "type": "Point", "coordinates": [-82.9002, 42.4274] }},
{"zip_code":"55760","country":"US","city":"Mcgregor","state":"Minnesota","state_ab":"MN","county":"Aitkin","geo_location":{ "type": "Point", "coordinates": [-93.3076, 46.6072] }},
{"zip_code":"56350","country":"US","city":"Mc Grath","state":"Minnesota","state_ab":"MN","county":"Aitkin","geo_location":{ "type": "Point", "coordinates": [-93.3774, 46.1957] }},
{"zip_code":"55449","country":"US","city":"Minneapolis","state":"Minnesota","state_ab":"MN","county":"Anoka","geo_location":{ "type": "Point", "coordinates": [-93.1889, 45.1697] }},
{"zip_code":"56569","country":"US","city":"Ogema","state":"Minnesota","state_ab":"MN","county":"Becker","geo_location":{ "type": "Point", "coordinates": [-95.9151, 47.1029] }},
{"zip_code":"56570","country":"US","city":"Osage","state":"Minnesota","state_ab":"MN","county":"Becker","geo_location":{ "type": "Point", "coordinates": [-95.2353, 46.9329] }},
{"zip_code":"56619","country":"US","city":"Bemidji","state":"Minnesota","state_ab":"MN","county":"Beltrami","geo_location":{ "type": "Point", "coordinates": [-94.8222, 47.6257] }},
{"zip_code":"56080","country":"US","city":"Saint Clair","state":"Minnesota","state_ab":"MN","county":"Blue Earth","geo_location":{ "type": "Point", "coordinates": [-93.8571, 44.0817] }},
{"zip_code":"55720","country":"US","city":"Cloquet","state":"Minnesota","state_ab":"MN","county":"Carlton","geo_location":{ "type": "Point", "coordinates": [-92.5408, 46.7546] }},
{"zip_code":"55733","country":"US","city":"Esko","state":"Minnesota","state_ab":"MN","county":"Carlton","geo_location":{ "type": "Point", "coordinates": [-92.3569, 46.7126] }},
{"zip_code":"55360","country":"US","city":"Mayer","state":"Minnesota","state_ab":"MN","county":"Carver","geo_location":{ "type": "Point", "coordinates": [-93.8859, 44.9022] }},
{"zip_code":"55386","country":"US","city":"Victoria","state":"Minnesota","state_ab":"MN","county":"Carver","geo_location":{ "type": "Point", "coordinates": [-93.6561, 44.8582] }},
{"zip_code":"55399","country":"US","city":"Young America","state":"Minnesota","state_ab":"MN","county":"Carver","geo_location":{ "type": "Point", "coordinates": [-93.7665, 44.8055] }},
{"zip_code":"55553","country":"US","city":"Young America","state":"Minnesota","state_ab":"MN","county":"Carver","geo_location":{ "type": "Point", "coordinates": [-93.7665, 44.8055] }},
{"zip_code":"55566","country":"US","city":"Young America","state":"Minnesota","state_ab":"MN","county":"Carver","geo_location":{ "type": "Point", "coordinates": [-93.7665, 44.8055] }},
{"zip_code":"56633","country":"US","city":"Cass Lake","state":"Minnesota","state_ab":"MN","county":"Cass","geo_location":{ "type": "Point", "coordinates": [-94.6119, 47.3516] }},
{"zip_code":"56260","country":"US","city":"Maynard","state":"Minnesota","state_ab":"MN","county":"Chippewa","geo_location":{ "type": "Point", "coordinates": [-95.4845, 44.9226] }},
{"zip_code":"56529","country":"US","city":"Dilworth","state":"Minnesota","state_ab":"MN","county":"Clay","geo_location":{ "type": "Point", "coordinates": [-96.7022, 46.8782] }},
{"zip_code":"56183","country":"US","city":"Westbrook","state":"Minnesota","state_ab":"MN","county":"Cottonwood","geo_location":{ "type": "Point", "coordinates": [-95.4232, 44.0654] }},
{"zip_code":"55010","country":"US","city":"Castle Rock","state":"Minnesota","state_ab":"MN","county":"Dakota","geo_location":{ "type": "Point", "coordinates": [-93.1531, 44.5472] }},
{"zip_code":"55076","country":"US","city":"Inver Grove Heights","state":"Minnesota","state_ab":"MN","county":"Dakota","geo_location":{ "type": "Point", "coordinates": [-93.0391, 44.8288] }},
{"zip_code":"55306","country":"US","city":"Burnsville","state":"Minnesota","state_ab":"MN","county":"Dakota","geo_location":{ "type": "Point", "coordinates": [-93.2921, 44.7307] }},
{"zip_code":"55940","country":"US","city":"Hayfield","state":"Minnesota","state_ab":"MN","county":"Dodge","geo_location":{ "type": "Point", "coordinates": [-92.8175, 43.8923] }},
{"zip_code":"56013","country":"US","city":"Blue Earth","state":"Minnesota","state_ab":"MN","county":"Faribault","geo_location":{ "type": "Point", "coordinates": [-94.0924, 43.6394] }},
{"zip_code":"55939","country":"US","city":"Harmony","state":"Minnesota","state_ab":"MN","county":"Fillmore","geo_location":{ "type": "Point", "coordinates": [-92.0145, 43.5663] }},
{"zip_code":"55009","country":"US","city":"Cannon Falls","state":"Minnesota","state_ab":"MN","county":"Goodhue","geo_location":{ "type": "Point", "coordinates": [-92.864, 44.496] }},
{"zip_code":"55089","country":"US","city":"Welch","state":"Minnesota","state_ab":"MN","county":"Goodhue","geo_location":{ "type": "Point", "coordinates": [-92.7263, 44.603] }},
{"zip_code":"56309","country":"US","city":"Ashby","state":"Minnesota","state_ab":"MN","county":"Grant","geo_location":{ "type": "Point", "coordinates": [-95.8214, 46.0781] }},
{"zip_code":"55346","country":"US","city":"Eden Prairie","state":"Minnesota","state_ab":"MN","county":"Hennepin","geo_location":{ "type": "Point", "coordinates": [-93.483, 44.8771] }},
{"zip_code":"55359","country":"US","city":"Maple Plain","state":"Minnesota","state_ab":"MN","county":"Hennepin","geo_location":{ "type": "Point", "coordinates": [-93.7002, 44.9787] }},
{"zip_code":"55409","country":"US","city":"Minneapolis","state":"Minnesota","state_ab":"MN","county":"Hennepin","geo_location":{ "type": "Point", "coordinates": [-93.2818, 44.9264] }},
{"zip_code":"55410","country":"US","city":"Minneapolis","state":"Minnesota","state_ab":"MN","county":"Hennepin","geo_location":{ "type": "Point", "coordinates": [-93.3188, 44.9124] }},
{"zip_code":"55423","country":"US","city":"Minneapolis","state":"Minnesota","state_ab":"MN","county":"Hennepin","geo_location":{ "type": "Point", "coordinates": [-93.2553, 44.8756] }},
{"zip_code":"55436","country":"US","city":"Minneapolis","state":"Minnesota","state_ab":"MN","county":"Hennepin","geo_location":{ "type": "Point", "coordinates": [-93.374, 44.9034] }},
{"zip_code":"55450","country":"US","city":"Minneapolis","state":"Minnesota","state_ab":"MN","county":"Hennepin","geo_location":{ "type": "Point", "coordinates": [-93.2207, 44.8811] }},
{"zip_code":"55579","country":"US","city":"Maple Plain","state":"Minnesota","state_ab":"MN","county":"Hennepin","geo_location":{ "type": "Point", "coordinates": [-93.4719, 45.0159] }},
{"zip_code":"55593","country":"US","city":"Maple Plain","state":"Minnesota","state_ab":"MN","county":"Hennepin","geo_location":{ "type": "Point", "coordinates": [-93.4719, 45.0159] }},
{"zip_code":"55786","country":"US","city":"Taconite","state":"Minnesota","state_ab":"MN","county":"Itasca","geo_location":{ "type": "Point", "coordinates": [-93.3904, 47.3164] }},
{"zip_code":"56659","country":"US","city":"Max","state":"Minnesota","state_ab":"MN","county":"Itasca","geo_location":{ "type": "Point", "coordinates": [-94.0156, 47.6618] }},
{"zip_code":"56143","country":"US","city":"Jackson","state":"Minnesota","state_ab":"MN","county":"Jackson","geo_location":{ "type": "Point", "coordinates": [-94.9938, 43.6457] }},
{"zip_code":"56246","country":"US","city":"Hawick","state":"Minnesota","state_ab":"MN","county":"Kandiyohi","geo_location":{ "type": "Point", "coordinates": [-94.8208, 45.3618] }},
{"zip_code":"40209","country":"US","city":"Louisville","state":"Kentucky","state_ab":"KY","county":"Jefferson","geo_location":{ "type": "Point", "coordinates": [-85.7519, 38.1901] }},
{"zip_code":"40210","country":"US","city":"Louisville","state":"Kentucky","state_ab":"KY","county":"Jefferson","geo_location":{ "type": "Point", "coordinates": [-85.7905, 38.2306] }},
{"zip_code":"40223","country":"US","city":"Louisville","state":"Kentucky","state_ab":"KY","county":"Jefferson","geo_location":{ "type": "Point", "coordinates": [-85.5582, 38.2651] }},
{"zip_code":"40250","country":"US","city":"Louisville","state":"Kentucky","state_ab":"KY","county":"Jefferson","geo_location":{ "type": "Point", "coordinates": [-85.6768, 38.189] }},
{"zip_code":"40289","country":"US","city":"Louisville","state":"Kentucky","state_ab":"KY","county":"Jefferson","geo_location":{ "type": "Point", "coordinates": [-85.6768, 38.189] }},
{"zip_code":"40290","country":"US","city":"Louisville","state":"Kentucky","state_ab":"KY","county":"Jefferson","geo_location":{ "type": "Point", "coordinates": [-85.6768, 38.189] }},
{"zip_code":"40339","country":"US","city":"Keene","state":"Kentucky","state_ab":"KY","county":"Jessamine","geo_location":{ "type": "Point", "coordinates": [-84.6569, 37.9504] }},
{"zip_code":"40340","country":"US","city":"Nicholasville","state":"Kentucky","state_ab":"KY","county":"Jessamine","geo_location":{ "type": "Point", "coordinates": [-84.5795, 37.8662] }},
{"zip_code":"41226","country":"US","city":"Keaton","state":"Kentucky","state_ab":"KY","county":"Johnson","geo_location":{ "type": "Point", "coordinates": [-82.9561, 37.968] }},
{"zip_code":"41240","country":"US","city":"Paintsville","state":"Kentucky","state_ab":"KY","county":"Johnson","geo_location":{ "type": "Point", "coordinates": [-82.7945, 37.8242] }},
{"zip_code":"41266","country":"US","city":"Volga","state":"Kentucky","state_ab":"KY","county":"Johnson County","geo_location":{ "type": "Point", "coordinates": [-82.9074, 37.8966] }},
{"zip_code":"41019","country":"US","city":"Covington","state":"Kentucky","state_ab":"KY","county":"Kenton","geo_location":{ "type": "Point", "coordinates": [-84.5205, 38.9447] }},
{"zip_code":"41743","country":"US","city":"Fisty","state":"Kentucky","state_ab":"KY","county":"Knott","geo_location":{ "type": "Point", "coordinates": [-83.0904, 37.3064] }},
{"zip_code":"41859","country":"US","city":"Dema","state":"Kentucky","state_ab":"KY","county":"Knott","geo_location":{ "type": "Point", "coordinates": [-82.7836, 37.3976] }},
{"zip_code":"40906","country":"US","city":"Barbourville","state":"Kentucky","state_ab":"KY","county":"Knox","geo_location":{ "type": "Point", "coordinates": [-83.8949, 36.8101] }},
{"zip_code":"40946","country":"US","city":"Green Road","state":"Kentucky","state_ab":"KY","county":"Knox","geo_location":{ "type": "Point", "coordinates": [-83.83, 36.8713] }},
{"zip_code":"40999","country":"US","city":"Woollum","state":"Kentucky","state_ab":"KY","county":"Knox","geo_location":{ "type": "Point", "coordinates": [-83.8472, 37.0097] }},
{"zip_code":"40740","country":"US","city":"Lily","state":"Kentucky","state_ab":"KY","county":"Laurel","geo_location":{ "type": "Point", "coordinates": [-84.0282, 37.0256] }},
{"zip_code":"40803","country":"US","city":"Asher","state":"Kentucky","state_ab":"KY","county":"Leslie","geo_location":{ "type": "Point", "coordinates": [-83.4553, 37.0114] }},
{"zip_code":"40816","country":"US","city":"Chappell","state":"Kentucky","state_ab":"KY","county":"Leslie","geo_location":{ "type": "Point", "coordinates": [-83.3494, 37.0098] }},
{"zip_code":"41730","country":"US","city":"Confluence","state":"Kentucky","state_ab":"KY","county":"Leslie","geo_location":{ "type": "Point", "coordinates": [-83.3711, 37.2719] }},
{"zip_code":"41819","country":"US","city":"Gordon","state":"Kentucky","state_ab":"KY","county":"Letcher","geo_location":{ "type": "Point", "coordinates": [-83.0655, 36.9891] }},
{"zip_code":"41833","country":"US","city":"Linefork","state":"Kentucky","state_ab":"KY","county":"Letcher","geo_location":{ "type": "Point", "coordinates": [-82.9878, 37.0233] }},
{"zip_code":"41189","country":"US","city":"Tollesboro","state":"Kentucky","state_ab":"KY","county":"Lewis","geo_location":{ "type": "Point", "coordinates": [-83.5605, 38.5723] }},
{"zip_code":"42256","country":"US","city":"Lewisburg","state":"Kentucky","state_ab":"KY","county":"Logan","geo_location":{ "type": "Point", "coordinates": [-86.9887, 37.0037] }},
{"zip_code":"42283","country":"US","city":"South Union","state":"Kentucky","state_ab":"KY","county":"Logan","geo_location":{ "type": "Point", "coordinates": [-86.6632, 36.8692] }},
{"zip_code":"42643","country":"US","city":"Sawyer","state":"Kentucky","state_ab":"KY","county":"McCreary County","geo_location":{ "type": "Point", "coordinates": [-84.3624, 36.923] }},
{"zip_code":"40403","country":"US","city":"Berea","state":"Kentucky","state_ab":"KY","county":"Madison","geo_location":{ "type": "Point", "coordinates": [-84.2749, 37.5799] }},
{"zip_code":"40430","country":"US","city":"Annville","state":"Kentucky","state_ab":"KY","county":"Madison County","geo_location":{ "type": "Point", "coordinates": [-83.896, 37.3129] }},
{"zip_code":"41419","country":"US","city":"Edna","state":"Kentucky","state_ab":"KY","county":"Magoffin","geo_location":{ "type": "Point", "coordinates": [-83.0746, 37.6906] }},
{"zip_code":"41433","country":"US","city":"Gapville","state":"Kentucky","state_ab":"KY","county":"Magoffin","geo_location":{ "type": "Point", "coordinates": [-83.0746, 37.6906] }},
{"zip_code":"42166","country":"US","city":"Summer Shade","state":"Kentucky","state_ab":"KY","county":"Metcalfe","geo_location":{ "type": "Point", "coordinates": [-85.7083, 36.8883] }},
{"zip_code":"42140","country":"US","city":"Gamaliel","state":"Kentucky","state_ab":"KY","county":"Monroe","geo_location":{ "type": "Point", "coordinates": [-85.8134, 36.654] }},
{"zip_code":"40353","country":"US","city":"Mount Sterling","state":"Kentucky","state_ab":"KY","county":"Montgomery","geo_location":{ "type": "Point", "coordinates": [-83.9388, 38.0548] }},
{"zip_code":"41459","country":"US","city":"Ophir","state":"Kentucky","state_ab":"KY","county":"Morgan","geo_location":{ "type": "Point", "coordinates": [-83.2338, 37.914] }},
{"zip_code":"42320","country":"US","city":"Beaver Dam","state":"Kentucky","state_ab":"KY","county":"Ohio","geo_location":{ "type": "Point", "coordinates": [-86.8729, 37.387] }},
{"zip_code":"42333","country":"US","city":"Cromwell","state":"Kentucky","state_ab":"KY","county":"Ohio","geo_location":{ "type": "Point", "coordinates": [-86.77, 37.3418] }},
{"zip_code":"40056","country":"US","city":"Pewee Valley","state":"Kentucky","state_ab":"KY","county":"Oldham","geo_location":{ "type": "Point", "coordinates": [-85.4834, 38.3039] }},
{"zip_code":"41006","country":"US","city":"Butler","state":"Kentucky","state_ab":"KY","county":"Pendleton","geo_location":{ "type": "Point", "coordinates": [-84.3446, 38.8013] }},
{"zip_code":"41033","country":"US","city":"De Mossville","state":"Kentucky","state_ab":"KY","county":"Pendleton","geo_location":{ "type": "Point", "coordinates": [-84.4859, 38.7623] }},
{"zip_code":"41729","country":"US","city":"Combs","state":"Kentucky","state_ab":"KY","county":"Perry","geo_location":{ "type": "Point", "coordinates": [-83.2174, 37.2649] }},
{"zip_code":"41756","country":"US","city":"Leatherwood","state":"Kentucky","state_ab":"KY","county":"Perry County","geo_location":{ "type": "Point", "coordinates": [-83.1499, 37.0357] }},
{"zip_code":"41406","country":"US","city":"Buskirk","state":"Kentucky","state_ab":"KY","county":"Pike County","geo_location":{ "type": "Point", "coordinates": [-82.1689, 37.6194] }},
{"zip_code":"41536","country":"US","city":"Jamboree","state":"Kentucky","state_ab":"KY","county":"Pike County","geo_location":{ "type": "Point", "coordinates": [-82.0893, 37.484] }},
{"zip_code":"41549","country":"US","city":"Myra","state":"Kentucky","state_ab":"KY","county":"Pike","geo_location":{ "type": "Point", "coordinates": [-82.3488, 37.4706] }},
{"zip_code":"41550","country":"US","city":"Nelse","state":"Kentucky","state_ab":"KY","county":"Pike County","geo_location":{ "type": "Point", "coordinates": [-82.4401, 37.4037] }},
{"zip_code":"41563","country":"US","city":"Shelby Gap","state":"Kentucky","state_ab":"KY","county":"Pike","geo_location":{ "type": "Point", "coordinates": [-82.5286, 37.2311] }},
{"zip_code":"40380","country":"US","city":"Stanton","state":"Kentucky","state_ab":"KY","county":"Powell","geo_location":{ "type": "Point", "coordinates": [-83.7853, 37.8223] }},
{"zip_code":"42553","country":"US","city":"Science Hill","state":"Kentucky","state_ab":"KY","county":"Pulaski","geo_location":{ "type": "Point", "coordinates": [-84.6487, 37.1683] }},
{"zip_code":"40456","country":"US","city":"Mount Vernon","state":"Kentucky","state_ab":"KY","county":"Rockcastle","geo_location":{ "type": "Point", "coordinates": [-84.3379, 37.3983] }},
{"zip_code":"40313","country":"US","city":"Clearfield","state":"Kentucky","state_ab":"KY","county":"Rowan","geo_location":{ "type": "Point", "coordinates": [-83.4425, 38.1287] }},
{"zip_code":"42629","country":"US","city":"Jamestown","state":"Kentucky","state_ab":"KY","county":"Russell","geo_location":{ "type": "Point", "coordinates": [-85.0968, 36.968] }},
{"zip_code":"40379","country":"US","city":"Stamping Ground","state":"Kentucky","state_ab":"KY","county":"Scott","geo_location":{ "type": "Point", "coordinates": [-84.6818, 38.2888] }},
{"zip_code":"40003","country":"US","city":"Bagdad","state":"Kentucky","state_ab":"KY","county":"Shelby","geo_location":{ "type": "Point", "coordinates": [-85.0651, 38.2608] }},
{"zip_code":"42719","country":"US","city":"Campbellsville","state":"Kentucky","state_ab":"KY","county":"Taylor","geo_location":{ "type": "Point", "coordinates": [-85.3304, 37.3379] }},
{"zip_code":"42733","country":"US","city":"Elk Horn","state":"Kentucky","state_ab":"KY","county":"Taylor","geo_location":{ "type": "Point", "coordinates": [-85.1918, 37.3393] }},
{"zip_code":"42203","country":"US","city":"Allegre","state":"Kentucky","state_ab":"KY","county":"Todd","geo_location":{ "type": "Point", "coordinates": [-87.2193, 36.9292] }},
{"zip_code":"42216","country":"US","city":"Clifty","state":"Kentucky","state_ab":"KY","county":"Todd","geo_location":{ "type": "Point", "coordinates": [-87.1521, 37.0045] }},
{"zip_code":"42270","country":"US","city":"Richardsville","state":"Kentucky","state_ab":"KY","county":"Warren","geo_location":{ "type": "Point", "coordinates": [-86.394, 36.9834] }},
{"zip_code":"40069","country":"US","city":"Springfield","state":"Kentucky","state_ab":"KY","county":"Washington","geo_location":{ "type": "Point", "coordinates": [-85.2107, 37.7342] }},
{"zip_code":"42409","country":"US","city":"Dixon","state":"Kentucky","state_ab":"KY","county":"Webster","geo_location":{ "type": "Point", "coordinates": [-87.7019, 37.5106] }},
{"zip_code":"42450","country":"US","city":"Providence","state":"Kentucky","state_ab":"KY","county":"Webster","geo_location":{ "type": "Point", "coordinates": [-87.7505, 37.405] }},
{"zip_code":"42463","country":"US","city":"Wheatcroft","state":"Kentucky","state_ab":"KY","county":"Webster","geo_location":{ "type": "Point", "coordinates": [-87.8661, 37.488] }},
{"zip_code":"41343","country":"US","city":"Leeco","state":"Kentucky","state_ab":"KY","county":"Wolfe County","geo_location":{ "type": "Point", "coordinates": [-83.6928, 37.6989] }},
{"zip_code":"41396","country":"US","city":"Zachariah","state":"Kentucky","state_ab":"KY","county":"Wolfe County","geo_location":{ "type": "Point", "coordinates": [-83.6658, 37.6813] }},
{"zip_code":"70516","country":"US","city":"Branch","state":"Louisiana","state_ab":"LA","county":"Acadia","geo_location":{ "type": "Point", "coordinates": [-92.3459, 30.3446] }},
{"zip_code":"70543","country":"US","city":"Iota","state":"Louisiana","state_ab":"LA","county":"Acadia","geo_location":{ "type": "Point", "coordinates": [-92.5322, 30.3001] }},
{"zip_code":"70556","country":"US","city":"Mermentau","state":"Louisiana","state_ab":"LA","county":"Acadia","geo_location":{ "type": "Point", "coordinates": [-92.5722, 30.1861] }},
{"zip_code":"70376","country":"US","city":"Modeste","state":"Louisiana","state_ab":"LA","county":"Ascension","geo_location":{ "type": "Point", "coordinates": [-90.8695, 30.2047] }},
{"zip_code":"70390","country":"US","city":"Napoleonville","state":"Louisiana","state_ab":"LA","county":"Assumption","geo_location":{ "type": "Point", "coordinates": [-91.0266, 29.9288] }},
{"zip_code":"71339","country":"US","city":"Hamburg","state":"Louisiana","state_ab":"LA","county":"Avoyelles","geo_location":{ "type": "Point", "coordinates": [-91.9042, 31.0376] }},
{"zip_code":"70660","country":"US","city":"Singer","state":"Louisiana","state_ab":"LA","county":"Beauregard","geo_location":{ "type": "Point", "coordinates": [-93.465, 30.5329] }},
{"zip_code":"71016","country":"US","city":"Castor","state":"Louisiana","state_ab":"LA","county":"Bienville","geo_location":{ "type": "Point", "coordinates": [-93.0936, 32.2452] }},
{"zip_code":"71070","country":"US","city":"Saline","state":"Louisiana","state_ab":"LA","county":"Bienville","geo_location":{ "type": "Point", "coordinates": [-92.917, 32.197] }},
{"zip_code":"71029","country":"US","city":"Gilliam","state":"Louisiana","state_ab":"LA","county":"Caddo","geo_location":{ "type": "Point", "coordinates": [-93.8293, 32.8251] }},
{"zip_code":"71043","country":"US","city":"Hosston","state":"Louisiana","state_ab":"LA","county":"Caddo","geo_location":{ "type": "Point", "coordinates": [-93.8834, 32.8967] }},
{"zip_code":"71069","country":"US","city":"Rodessa","state":"Louisiana","state_ab":"LA","county":"Caddo","geo_location":{ "type": "Point", "coordinates": [-93.9885, 32.9701] }},
{"zip_code":"71106","country":"US","city":"Shreveport","state":"Louisiana","state_ab":"LA","county":"Caddo","geo_location":{ "type": "Point", "coordinates": [-93.7116, 32.3912] }},
{"zip_code":"71119","country":"US","city":"Shreveport","state":"Louisiana","state_ab":"LA","county":"Caddo","geo_location":{ "type": "Point", "coordinates": [-93.8726, 32.4771] }},
{"zip_code":"71120","country":"US","city":"Shreveport","state":"Louisiana","state_ab":"LA","county":"Caddo","geo_location":{ "type": "Point", "coordinates": [-93.7526, 32.6076] }},
{"zip_code":"71133","country":"US","city":"Shreveport","state":"Louisiana","state_ab":"LA","county":"Caddo","geo_location":{ "type": "Point", "coordinates": [-93.7526, 32.6076] }},
{"zip_code":"70606","country":"US","city":"Lake Charles","state":"Louisiana","state_ab":"LA","county":"Calcasieu","geo_location":{ "type": "Point", "coordinates": [-93.3265, 30.2642] }},
{"zip_code":"70633","country":"US","city":"Dequincy","state":"Louisiana","state_ab":"LA","county":"Calcasieu","geo_location":{ "type": "Point", "coordinates": [-93.4151, 30.4211] }},
{"zip_code":"70646","country":"US","city":"Hayes","state":"Louisiana","state_ab":"LA","county":"Calcasieu","geo_location":{ "type": "Point", "coordinates": [-92.9146, 30.097] }},
{"zip_code":"71340","country":"US","city":"Harrisonburg","state":"Louisiana","state_ab":"LA","county":"Catahoula","geo_location":{ "type": "Point", "coordinates": [-91.8133, 31.7779] }},
{"zip_code":"71003","country":"US","city":"Athens","state":"Louisiana","state_ab":"LA","county":"Claiborne","geo_location":{ "type": "Point", "coordinates": [-93.0239, 32.6451] }},
{"zip_code":"71326","country":"US","city":"Clayton","state":"Louisiana","state_ab":"LA","county":"Concordia","geo_location":{ "type": "Point", "coordinates": [-91.5163, 31.7158] }},
{"zip_code":"71030","country":"US","city":"Gloster","state":"Louisiana","state_ab":"LA","county":"De Soto","geo_location":{ "type": "Point", "coordinates": [-93.801, 32.1858] }},
{"zip_code":"70813","country":"US","city":"Baton Rouge","state":"Louisiana","state_ab":"LA","county":"East Baton Rouge","geo_location":{ "type": "Point", "coordinates": [-91.1949, 30.5201] }},
{"zip_code":"70826","country":"US","city":"Baton Rouge","state":"Louisiana","state_ab":"LA","county":"East Baton Rouge","geo_location":{ "type": "Point", "coordinates": [-91.0804, 30.5159] }},
{"zip_code":"70879","country":"US","city":"Baton Rouge","state":"Louisiana","state_ab":"LA","county":"East Baton Rouge","geo_location":{ "type": "Point", "coordinates": [-91.0804, 30.5159] }},
{"zip_code":"70893","country":"US","city":"Baton Rouge","state":"Louisiana","state_ab":"LA","county":"East Baton Rouge","geo_location":{ "type": "Point", "coordinates": [-91.1715, 30.413] }},
{"zip_code":"71276","country":"US","city":"Sondheimer","state":"Louisiana","state_ab":"LA","county":"East Carroll","geo_location":{ "type": "Point", "coordinates": [-91.1496, 32.5756] }},
{"zip_code":"70789","country":"US","city":"Wilson","state":"Louisiana","state_ab":"LA","county":"East Feliciana","geo_location":{ "type": "Point", "coordinates": [-91.0655, 30.9473] }},
{"zip_code":"71249","country":"US","city":"Jigger","state":"Louisiana","state_ab":"LA","county":"Franklin","geo_location":{ "type": "Point", "coordinates": [-91.6919, 32.1389] }},
{"zip_code":"70569","country":"US","city":"Lydia","state":"Louisiana","state_ab":"LA","county":"Iberia","geo_location":{ "type": "Point", "coordinates": [-91.8126, 29.9096] }},
{"zip_code":"70776","country":"US","city":"Saint Gabriel","state":"Louisiana","state_ab":"LA","county":"Iberville","geo_location":{ "type": "Point", "coordinates": [-91.0857, 30.2528] }},
{"zip_code":"70053","country":"US","city":"Gretna","state":"Louisiana","state_ab":"LA","county":"Jefferson","geo_location":{ "type": "Point", "coordinates": [-90.0531, 29.9108] }},
{"zip_code":"70183","country":"US","city":"New Orleans","state":"Louisiana","state_ab":"LA","county":"Jefferson","geo_location":{ "type": "Point", "coordinates": [-90.0901, 29.6779] }},
{"zip_code":"70503","country":"US","city":"Lafayette","state":"Louisiana","state_ab":"LA","county":"Lafayette","geo_location":{ "type": "Point", "coordinates": [-92.0497, 30.1843] }},
{"zip_code":"70529","country":"US","city":"Duson","state":"Louisiana","state_ab":"LA","county":"Lafayette","geo_location":{ "type": "Point", "coordinates": [-92.1525, 30.1912] }},
{"zip_code":"70583","country":"US","city":"Scott","state":"Louisiana","state_ab":"LA","county":"Lafayette","geo_location":{ "type": "Point", "coordinates": [-92.0981, 30.2504] }},
{"zip_code":"70596","country":"US","city":"Lafayette","state":"Louisiana","state_ab":"LA","county":"Lafayette","geo_location":{ "type": "Point", "coordinates": [-92.0951, 30.2081] }},
{"zip_code":"70310","country":"US","city":"Thibodaux","state":"Louisiana","state_ab":"LA","county":"Lafourche","geo_location":{ "type": "Point", "coordinates": [-90.8169, 29.8033] }},
{"zip_code":"56273","country":"US","city":"New London","state":"Minnesota","state_ab":"MN","county":"Kandiyohi","geo_location":{ "type": "Point", "coordinates": [-94.948, 45.2949] }},
{"zip_code":"56053","country":"US","city":"Klossner","state":"Minnesota","state_ab":"MN","county":"Koochiching County","geo_location":{ "type": "Point", "coordinates": [-94.4254, 44.3658] }},
{"zip_code":"56660","country":"US","city":"Mizpah","state":"Minnesota","state_ab":"MN","county":"Koochiching","geo_location":{ "type": "Point", "coordinates": [-94.1467, 47.9495] }},
{"zip_code":"55603","country":"US","city":"Finland","state":"Minnesota","state_ab":"MN","county":"Lake","geo_location":{ "type": "Point", "coordinates": [-91.2096, 47.4197] }},
{"zip_code":"55616","country":"US","city":"Two Harbors","state":"Minnesota","state_ab":"MN","county":"Lake","geo_location":{ "type": "Point", "coordinates": [-91.6783, 47.0394] }},
{"zip_code":"56686","country":"US","city":"Williams","state":"Minnesota","state_ab":"MN","county":"Lake of the Woods","geo_location":{ "type": "Point", "coordinates": [-94.9556, 48.8022] }},
{"zip_code":"56169","country":"US","city":"Russell","state":"Minnesota","state_ab":"MN","county":"Lyon","geo_location":{ "type": "Point", "coordinates": [-95.9426, 44.3201] }},
{"zip_code":"56516","country":"US","city":"Bejou","state":"Minnesota","state_ab":"MN","county":"Mahnomen","geo_location":{ "type": "Point", "coordinates": [-95.9454, 47.4491] }},
{"zip_code":"56710","country":"US","city":"Alvarado","state":"Minnesota","state_ab":"MN","county":"Marshall","geo_location":{ "type": "Point", "coordinates": [-96.9915, 48.202] }},
{"zip_code":"56039","country":"US","city":"Granada","state":"Minnesota","state_ab":"MN","county":"Martin","geo_location":{ "type": "Point", "coordinates": [-94.3307, 43.7061] }},
{"zip_code":"56363","country":"US","city":"Pease","state":"Minnesota","state_ab":"MN","county":"Mille Lacs","geo_location":{ "type": "Point", "coordinates": [-93.6465, 45.6974] }},
{"zip_code":"56466","country":"US","city":"Motley","state":"Minnesota","state_ab":"MN","county":"Morrison","geo_location":{ "type": "Point", "coordinates": [-94.5638, 46.2881] }},
{"zip_code":"55926","country":"US","city":"Dexter","state":"Minnesota","state_ab":"MN","county":"Mower","geo_location":{ "type": "Point", "coordinates": [-92.7268, 43.716] }},
{"zip_code":"55953","country":"US","city":"Lyle","state":"Minnesota","state_ab":"MN","county":"Mower","geo_location":{ "type": "Point", "coordinates": [-92.9328, 43.5309] }},
{"zip_code":"56129","country":"US","city":"Ellsworth","state":"Minnesota","state_ab":"MN","county":"Nobles","geo_location":{ "type": "Point", "coordinates": [-96.0112, 43.5265] }},
{"zip_code":"55036","country":"US","city":"Henriette","state":"Minnesota","state_ab":"MN","county":"Pine","geo_location":{ "type": "Point", "coordinates": [-93.1196, 45.8712] }},
{"zip_code":"55063","country":"US","city":"Pine City","state":"Minnesota","state_ab":"MN","county":"Pine","geo_location":{ "type": "Point", "coordinates": [-92.9042, 45.8363] }},
{"zip_code":"56170","country":"US","city":"Ruthton","state":"Minnesota","state_ab":"MN","county":"Pipestone","geo_location":{ "type": "Point", "coordinates": [-96.0871, 44.1682] }},
{"zip_code":"56556","country":"US","city":"Mcintosh","state":"Minnesota","state_ab":"MN","county":"Polk","geo_location":{ "type": "Point", "coordinates": [-95.8863, 47.6522] }},
{"zip_code":"56646","country":"US","city":"Gully","state":"Minnesota","state_ab":"MN","county":"Polk","geo_location":{ "type": "Point", "coordinates": [-95.641, 47.7697] }},
{"zip_code":"56723","country":"US","city":"Fisher","state":"Minnesota","state_ab":"MN","county":"Polk","geo_location":{ "type": "Point", "coordinates": [-96.8803, 47.8381] }},
{"zip_code":"56736","country":"US","city":"Mentor","state":"Minnesota","state_ab":"MN","county":"Polk","geo_location":{ "type": "Point", "coordinates": [-96.1778, 47.6576] }},
{"zip_code":"56323","country":"US","city":"Cyrus","state":"Minnesota","state_ab":"MN","county":"Pope","geo_location":{ "type": "Point", "coordinates": [-95.7096, 45.6414] }},
{"zip_code":"56349","country":"US","city":"Lowry","state":"Minnesota","state_ab":"MN","county":"Pope","geo_location":{ "type": "Point", "coordinates": [-95.5322, 45.7105] }},
{"zip_code":"55113","country":"US","city":"Saint Paul","state":"Minnesota","state_ab":"MN","county":"Ramsey","geo_location":{ "type": "Point", "coordinates": [-93.1571, 45.0139] }},
{"zip_code":"55126","country":"US","city":"Saint Paul","state":"Minnesota","state_ab":"MN","county":"Ramsey","geo_location":{ "type": "Point", "coordinates": [-93.138, 45.0736] }},
{"zip_code":"55166","country":"US","city":"Saint Paul","state":"Minnesota","state_ab":"MN","county":"Ramsey","geo_location":{ "type": "Point", "coordinates": [-93.1059, 45.0059] }},
{"zip_code":"56750","country":"US","city":"Red Lake Falls","state":"Minnesota","state_ab":"MN","county":"Red Lake","geo_location":{ "type": "Point", "coordinates": [-96.2681, 47.8823] }},
{"zip_code":"55333","country":"US","city":"Franklin","state":"Minnesota","state_ab":"MN","county":"Renville","geo_location":{ "type": "Point", "coordinates": [-94.8931, 44.5421] }},
{"zip_code":"56116","country":"US","city":"Beaver Creek","state":"Minnesota","state_ab":"MN","county":"Rock","geo_location":{ "type": "Point", "coordinates": [-96.3698, 43.6223] }},
{"zip_code":"56156","country":"US","city":"Luverne","state":"Minnesota","state_ab":"MN","county":"Rock","geo_location":{ "type": "Point", "coordinates": [-96.2216, 43.6614] }},
{"zip_code":"56673","country":"US","city":"Roosevelt","state":"Minnesota","state_ab":"MN","county":"Roseau","geo_location":{ "type": "Point", "coordinates": [-95.1119, 48.8279] }},
{"zip_code":"56763","country":"US","city":"Warroad","state":"Minnesota","state_ab":"MN","county":"Roseau","geo_location":{ "type": "Point", "coordinates": [-95.3538, 48.9111] }},
{"zip_code":"55706","country":"US","city":"Babbitt","state":"Minnesota","state_ab":"MN","county":"St. Louis","geo_location":{ "type": "Point", "coordinates": [-91.957, 47.7091] }},
{"zip_code":"55719","country":"US","city":"Chisholm","state":"Minnesota","state_ab":"MN","county":"St. Louis","geo_location":{ "type": "Point", "coordinates": [-92.8617, 47.5007] }},
{"zip_code":"55746","country":"US","city":"Hibbing","state":"Minnesota","state_ab":"MN","county":"St. Louis","geo_location":{ "type": "Point", "coordinates": [-92.9356, 47.4156] }},
{"zip_code":"55773","country":"US","city":"Parkville","state":"Minnesota","state_ab":"MN","county":"Saint Louis County","geo_location":{ "type": "Point", "coordinates": [-92.5826, 47.5209] }},
{"zip_code":"55799","country":"US","city":"Zim","state":"Minnesota","state_ab":"MN","county":"Saint Louis County","geo_location":{ "type": "Point", "coordinates": [-92.6517, 47.2882] }},
{"zip_code":"55810","country":"US","city":"Duluth","state":"Minnesota","state_ab":"MN","county":"St. Louis","geo_location":{ "type": "Point", "coordinates": [-92.266, 46.7606] }},
{"zip_code":"55319","country":"US","city":"Clear Lake","state":"Minnesota","state_ab":"MN","county":"Sherburne","geo_location":{ "type": "Point", "coordinates": [-93.9684, 45.4795] }},
{"zip_code":"56310","country":"US","city":"Avon","state":"Minnesota","state_ab":"MN","county":"Stearns","geo_location":{ "type": "Point", "coordinates": [-94.436, 45.6122] }},
{"zip_code":"56376","country":"US","city":"Saint Martin","state":"Minnesota","state_ab":"MN","county":"Stearns","geo_location":{ "type": "Point", "coordinates": [-94.7182, 45.4896] }},
{"zip_code":"55049","country":"US","city":"Medford","state":"Minnesota","state_ab":"MN","county":"Steele","geo_location":{ "type": "Point", "coordinates": [-93.2437, 44.1741] }},
{"zip_code":"56026","country":"US","city":"Ellendale","state":"Minnesota","state_ab":"MN","county":"Steele","geo_location":{ "type": "Point", "coordinates": [-93.3195, 43.8826] }},
{"zip_code":"56233","country":"US","city":"De Graff","state":"Minnesota","state_ab":"MN","county":"Swift County","geo_location":{ "type": "Point", "coordinates": [-95.4484, 45.2735] }},
{"zip_code":"56336","country":"US","city":"Grey Eagle","state":"Minnesota","state_ab":"MN","county":"Todd","geo_location":{ "type": "Point", "coordinates": [-94.8321, 45.8107] }},
{"zip_code":"56389","country":"US","city":"West Union","state":"Minnesota","state_ab":"MN","county":"Todd","geo_location":{ "type": "Point", "coordinates": [-95.0821, 45.7995] }},
{"zip_code":"56440","country":"US","city":"Clarissa","state":"Minnesota","state_ab":"MN","county":"Todd","geo_location":{ "type": "Point", "coordinates": [-94.9572, 46.1373] }},
{"zip_code":"56453","country":"US","city":"Hewitt","state":"Minnesota","state_ab":"MN","county":"Todd","geo_location":{ "type": "Point", "coordinates": [-95.0504, 46.325] }},
{"zip_code":"56479","country":"US","city":"Staples","state":"Minnesota","state_ab":"MN","county":"Todd","geo_location":{ "type": "Point", "coordinates": [-94.7633, 46.3536] }},
{"zip_code":"56219","country":"US","city":"Browns Valley","state":"Minnesota","state_ab":"MN","county":"Traverse","geo_location":{ "type": "Point", "coordinates": [-96.8063, 45.6069] }},
{"zip_code":"56583","country":"US","city":"Tintah","state":"Minnesota","state_ab":"MN","county":"Traverse","geo_location":{ "type": "Point", "coordinates": [-96.3593, 46.0074] }},
{"zip_code":"56093","country":"US","city":"Waseca","state":"Minnesota","state_ab":"MN","county":"Waseca","geo_location":{ "type": "Point", "coordinates": [-93.5108, 44.0834] }},
{"zip_code":"55090","country":"US","city":"Willernie","state":"Minnesota","state_ab":"MN","county":"Washington","geo_location":{ "type": "Point", "coordinates": [-92.957, 45.0535] }},
{"zip_code":"56543","country":"US","city":"Foxhome","state":"Minnesota","state_ab":"MN","county":"Wilkin","geo_location":{ "type": "Point", "coordinates": [-96.3176, 46.2584] }},
{"zip_code":"55979","country":"US","city":"Utica","state":"Minnesota","state_ab":"MN","county":"Winona","geo_location":{ "type": "Point", "coordinates": [-91.9417, 43.9587] }},
{"zip_code":"55320","country":"US","city":"Clearwater","state":"Minnesota","state_ab":"MN","county":"Wright","geo_location":{ "type": "Point", "coordinates": [-94.0452, 45.3877] }},
{"zip_code":"55373","country":"US","city":"Rockford","state":"Minnesota","state_ab":"MN","county":"Wright","geo_location":{ "type": "Point", "coordinates": [-93.7237, 45.0882] }},
{"zip_code":"55580","country":"US","city":"Monticello","state":"Minnesota","state_ab":"MN","county":"Wright","geo_location":{ "type": "Point", "coordinates": [-93.8881, 45.2009] }},
{"zip_code":"56220","country":"US","city":"Canby","state":"Minnesota","state_ab":"MN","county":"Yellow Medicine","geo_location":{ "type": "Point", "coordinates": [-96.2784, 44.7202] }},
{"zip_code":"56286","country":"US","city":"Saint Leo","state":"Minnesota","state_ab":"MN","county":"Yellow Medicine County","geo_location":{ "type": "Point", "coordinates": [-96.0425, 44.7111] }},
{"zip_code":"64436","country":"US","city":"Cosby","state":"Missouri","state_ab":"MO","county":"Andrew","geo_location":{ "type": "Point", "coordinates": [-94.6977, 39.8555] }},
{"zip_code":"64449","country":"US","city":"Fillmore","state":"Missouri","state_ab":"MO","county":"Andrew","geo_location":{ "type": "Point", "coordinates": [-94.9555, 40.0142] }},
{"zip_code":"64759","country":"US","city":"Lamar","state":"Missouri","state_ab":"MO","county":"Barton","geo_location":{ "type": "Point", "coordinates": [-94.3364, 37.5191] }},
{"zip_code":"64720","country":"US","city":"Adrian","state":"Missouri","state_ab":"MO","county":"Bates","geo_location":{ "type": "Point", "coordinates": [-94.3683, 38.4125] }},
{"zip_code":"65039","country":"US","city":"Hartsburg","state":"Missouri","state_ab":"MO","county":"Boone","geo_location":{ "type": "Point", "coordinates": [-92.2864, 38.7159] }},
{"zip_code":"65299","country":"US","city":"Mid Missouri","state":"Missouri","state_ab":"MO","county":"Boone","geo_location":{ "type": "Point", "coordinates": [-92.1022, 38.9033] }},
{"zip_code":"65080","country":"US","city":"Tebbetts","state":"Missouri","state_ab":"MO","county":"Callaway","geo_location":{ "type": "Point", "coordinates": [-91.9673, 38.6402] }},
{"zip_code":"65079","country":"US","city":"Sunrise Beach","state":"Missouri","state_ab":"MO","county":"Camden","geo_location":{ "type": "Point", "coordinates": [-92.7854, 38.1558] }},
{"zip_code":"63703","country":"US","city":"Cape Girardeau","state":"Missouri","state_ab":"MO","county":"Cape Girardeau","geo_location":{ "type": "Point", "coordinates": [-89.5715, 37.2844] }},
{"zip_code":"63743","country":"US","city":"Daisy","state":"Missouri","state_ab":"MO","county":"Cape Girardeau","geo_location":{ "type": "Point", "coordinates": [-89.8213, 37.5151] }},
{"zip_code":"63769","country":"US","city":"Oak Ridge","state":"Missouri","state_ab":"MO","county":"Cape Girardeau","geo_location":{ "type": "Point", "coordinates": [-89.7508, 37.5258] }},
{"zip_code":"63770","country":"US","city":"Old Appleton","state":"Missouri","state_ab":"MO","county":"Cape Girardeau","geo_location":{ "type": "Point", "coordinates": [-89.703, 37.5975] }},
{"zip_code":"64643","country":"US","city":"Hale","state":"Missouri","state_ab":"MO","county":"Carroll","geo_location":{ "type": "Point", "coordinates": [-93.3445, 39.5953] }},
{"zip_code":"64090","country":"US","city":"Strasburg","state":"Missouri","state_ab":"MO","county":"Cass","geo_location":{ "type": "Point", "coordinates": [-94.1609, 38.7658] }},
{"zip_code":"64746","country":"US","city":"Freeman","state":"Missouri","state_ab":"MO","county":"Cass","geo_location":{ "type": "Point", "coordinates": [-94.4956, 38.6245] }},
{"zip_code":"65246","country":"US","city":"Dalton","state":"Missouri","state_ab":"MO","county":"Chariton","geo_location":{ "type": "Point", "coordinates": [-92.9944, 39.4035] }},
{"zip_code":"65286","country":"US","city":"Triplett","state":"Missouri","state_ab":"MO","county":"Chariton","geo_location":{ "type": "Point", "coordinates": [-93.1928, 39.5011] }},
{"zip_code":"65620","country":"US","city":"Bruner","state":"Missouri","state_ab":"MO","county":"Christian","geo_location":{ "type": "Point", "coordinates": [-92.9692, 36.999] }},
{"zip_code":"64089","country":"US","city":"Smithville","state":"Missouri","state_ab":"MO","county":"Clay","geo_location":{ "type": "Point", "coordinates": [-94.5592, 39.3917] }},
{"zip_code":"64166","country":"US","city":"Kansas City","state":"Missouri","state_ab":"MO","county":"Clay","geo_location":{ "type": "Point", "coordinates": [-94.5199, 39.3294] }},
{"zip_code":"65040","country":"US","city":"Henley","state":"Missouri","state_ab":"MO","county":"Cole","geo_location":{ "type": "Point", "coordinates": [-92.3123, 38.3881] }},
{"zip_code":"65053","country":"US","city":"Lohman","state":"Missouri","state_ab":"MO","county":"Cole","geo_location":{ "type": "Point", "coordinates": [-92.3842, 38.5484] }},
{"zip_code":"65103","country":"US","city":"Jefferson City","state":"Missouri","state_ab":"MO","county":"Cole","geo_location":{ "type": "Point", "coordinates": [-92.2493, 38.5309] }},
{"zip_code":"65233","country":"US","city":"Boonville","state":"Missouri","state_ab":"MO","county":"Cooper","geo_location":{ "type": "Point", "coordinates": [-92.745, 38.9536] }},
{"zip_code":"65453","country":"US","city":"Cuba","state":"Missouri","state_ab":"MO","county":"Crawford","geo_location":{ "type": "Point", "coordinates": [-91.4081, 38.0926] }},
{"zip_code":"65646","country":"US","city":"Everton","state":"Missouri","state_ab":"MO","county":"Dade","geo_location":{ "type": "Point", "coordinates": [-93.6894, 37.2354] }},
{"zip_code":"64670","country":"US","city":"Pattonsburg","state":"Missouri","state_ab":"MO","county":"Daviess","geo_location":{ "type": "Point", "coordinates": [-94.1343, 40.0428] }},
{"zip_code":"64490","country":"US","city":"Stewartsville","state":"Missouri","state_ab":"MO","county":"DeKalb","geo_location":{ "type": "Point", "coordinates": [-94.5175, 39.7984] }},
{"zip_code":"65440","country":"US","city":"Boss","state":"Missouri","state_ab":"MO","county":"Dent","geo_location":{ "type": "Point", "coordinates": [-91.2109, 37.6373] }},
{"zip_code":"63060","country":"US","city":"Lonedell","state":"Missouri","state_ab":"MO","county":"Franklin","geo_location":{ "type": "Point", "coordinates": [-90.8903, 38.2743] }},
{"zip_code":"63073","country":"US","city":"Saint Albans","state":"Missouri","state_ab":"MO","county":"Franklin","geo_location":{ "type": "Point", "coordinates": [-91.0173, 38.5277] }},
{"zip_code":"65066","country":"US","city":"Owensville","state":"Missouri","state_ab":"MO","county":"Gasconade","geo_location":{ "type": "Point", "coordinates": [-91.4867, 38.3511] }},
{"zip_code":"64463","country":"US","city":"King City","state":"Missouri","state_ab":"MO","county":"Gentry","geo_location":{ "type": "Point", "coordinates": [-94.5234, 40.0652] }},
{"zip_code":"64489","country":"US","city":"Stanberry","state":"Missouri","state_ab":"MO","county":"Gentry","geo_location":{ "type": "Point", "coordinates": [-94.5387, 40.2293] }},
{"zip_code":"65619","country":"US","city":"Brookline Station","state":"Missouri","state_ab":"MO","county":"Greene","geo_location":{ "type": "Point", "coordinates": [-93.3849, 37.1393] }},
{"zip_code":"64683","country":"US","city":"Trenton","state":"Missouri","state_ab":"MO","county":"Grundy","geo_location":{ "type": "Point", "coordinates": [-93.6086, 40.0823] }},
{"zip_code":"73100","country":"US","city":"Oklahoma City","state":"Oklahoma","state_ab":"OK","county":"Oklahoma County","geo_location":{ "type": "Point", "coordinates": [-97.4953, 35.3513] }},
{"zip_code":"73113","country":"US","city":"Oklahoma City","state":"Oklahoma","state_ab":"OK","county":"Oklahoma","geo_location":{ "type": "Point", "coordinates": [-97.4075, 35.5514] }},
{"zip_code":"73126","country":"US","city":"Oklahoma City","state":"Oklahoma","state_ab":"OK","county":"Oklahoma","geo_location":{ "type": "Point", "coordinates": [-97.4075, 35.5514] }},
{"zip_code":"73140","country":"US","city":"Oklahoma City","state":"Oklahoma","state_ab":"OK","county":"Oklahoma","geo_location":{ "type": "Point", "coordinates": [-97.4275, 35.5185] }},
{"zip_code":"73153","country":"US","city":"Oklahoma City","state":"Oklahoma","state_ab":"OK","county":"Oklahoma","geo_location":{ "type": "Point", "coordinates": [-97.4075, 35.5514] }},
{"zip_code":"73179","country":"US","city":"Oklahoma City","state":"Oklahoma","state_ab":"OK","county":"Oklahoma","geo_location":{ "type": "Point", "coordinates": [-97.6547, 35.4242] }},
{"zip_code":"73180","country":"US","city":"Oklahoma City","state":"Oklahoma","state_ab":"OK","county":"Oklahoma","geo_location":{ "type": "Point", "coordinates": [-97.4075, 35.5514] }},
{"zip_code":"73193","country":"US","city":"Oklahoma City","state":"Oklahoma","state_ab":"OK","county":"Oklahoma","geo_location":{ "type": "Point", "coordinates": [-97.4075, 35.5514] }},
{"zip_code":"74633","country":"US","city":"Burbank","state":"Oklahoma","state_ab":"OK","county":"Osage","geo_location":{ "type": "Point", "coordinates": [-96.7869, 36.6966] }},
{"zip_code":"74363","country":"US","city":"Quapaw","state":"Oklahoma","state_ab":"OK","county":"Ottawa","geo_location":{ "type": "Point", "coordinates": [-94.743, 36.9282] }},
{"zip_code":"74529","country":"US","city":"Blocker","state":"Oklahoma","state_ab":"OK","county":"Pittsburg","geo_location":{ "type": "Point", "coordinates": [-95.7207, 34.9473] }},
{"zip_code":"74826","country":"US","city":"Asher","state":"Oklahoma","state_ab":"OK","county":"Pottawatomie","geo_location":{ "type": "Point", "coordinates": [-96.8763, 34.9849] }},
{"zip_code":"74840","country":"US","city":"Earlsboro","state":"Oklahoma","state_ab":"OK","county":"Pottawatomie","geo_location":{ "type": "Point", "coordinates": [-96.8041, 35.2628] }},
{"zip_code":"74866","country":"US","city":"Saint Louis","state":"Oklahoma","state_ab":"OK","county":"Pottawatomie","geo_location":{ "type": "Point", "coordinates": [-96.8444, 35.0588] }},
{"zip_code":"74543","country":"US","city":"Finley","state":"Oklahoma","state_ab":"OK","county":"Pushmataha","geo_location":{ "type": "Point", "coordinates": [-95.5385, 34.3407] }},
{"zip_code":"74053","country":"US","city":"Oologah","state":"Oklahoma","state_ab":"OK","county":"Rogers","geo_location":{ "type": "Point", "coordinates": [-95.7047, 36.4482] }},
{"zip_code":"74080","country":"US","city":"Talala","state":"Oklahoma","state_ab":"OK","county":"Rogers","geo_location":{ "type": "Point", "coordinates": [-95.7142, 36.5429] }},
{"zip_code":"73939","country":"US","city":"Goodwell","state":"Oklahoma","state_ab":"OK","county":"Texas","geo_location":{ "type": "Point", "coordinates": [-101.7137, 36.6744] }},
{"zip_code":"73553","country":"US","city":"Loveland","state":"Oklahoma","state_ab":"OK","county":"Tillman","geo_location":{ "type": "Point", "coordinates": [-98.7235, 34.391] }},
{"zip_code":"74013","country":"US","city":"Broken Arrow","state":"Oklahoma","state_ab":"OK","county":"Tulsa","geo_location":{ "type": "Point", "coordinates": [-96.0297, 36.1398] }},
{"zip_code":"74103","country":"US","city":"Tulsa","state":"Oklahoma","state_ab":"OK","county":"Tulsa","geo_location":{ "type": "Point", "coordinates": [-95.9954, 36.1539] }},
{"zip_code":"74116","country":"US","city":"Tulsa","state":"Oklahoma","state_ab":"OK","county":"Tulsa","geo_location":{ "type": "Point", "coordinates": [-95.8477, 36.175] }},
{"zip_code":"74129","country":"US","city":"Tulsa","state":"Oklahoma","state_ab":"OK","county":"Tulsa","geo_location":{ "type": "Point", "coordinates": [-95.8654, 36.1259] }},
{"zip_code":"74130","country":"US","city":"Tulsa","state":"Oklahoma","state_ab":"OK","county":"Tulsa","geo_location":{ "type": "Point", "coordinates": [-95.9596, 36.2395] }},
{"zip_code":"74156","country":"US","city":"Tulsa","state":"Oklahoma","state_ab":"OK","county":"Tulsa","geo_location":{ "type": "Point", "coordinates": [-95.9605, 36.3024] }},
{"zip_code":"74169","country":"US","city":"Tulsa","state":"Oklahoma","state_ab":"OK","county":"Tulsa","geo_location":{ "type": "Point", "coordinates": [-96.0297, 36.1398] }},
{"zip_code":"74170","country":"US","city":"Tulsa","state":"Oklahoma","state_ab":"OK","county":"Tulsa","geo_location":{ "type": "Point", "coordinates": [-96.0297, 36.1398] }},
{"zip_code":"74183","country":"US","city":"Tulsa","state":"Oklahoma","state_ab":"OK","county":"Tulsa","geo_location":{ "type": "Point", "coordinates": [-96.0297, 36.1398] }},
{"zip_code":"74466","country":"US","city":"Tullahassee","state":"Oklahoma","state_ab":"OK","county":"Wagoner","geo_location":{ "type": "Point", "coordinates": [-95.5139, 35.9636] }},
{"zip_code":"73746","country":"US","city":"Hopeton","state":"Oklahoma","state_ab":"OK","county":"Woods","geo_location":{ "type": "Point", "coordinates": [-98.6464, 36.6887] }},
{"zip_code":"97870","country":"US","city":"Richland","state":"Oregon","state_ab":"OR","county":"Baker","geo_location":{ "type": "Point", "coordinates": [-117.3018, 44.797] }},
{"zip_code":"97326","country":"US","city":"Blodgett","state":"Oregon","state_ab":"OR","county":"Benton","geo_location":{ "type": "Point", "coordinates": [-123.6067, 44.6281] }},
{"zip_code":"97339","country":"US","city":"Corvallis","state":"Oregon","state_ab":"OR","county":"Benton","geo_location":{ "type": "Point", "coordinates": [-123.445, 44.4989] }},
{"zip_code":"97456","country":"US","city":"Monroe","state":"Oregon","state_ab":"OR","county":"Benton","geo_location":{ "type": "Point", "coordinates": [-123.3203, 44.3245] }},
{"zip_code":"97070","country":"US","city":"Wilsonville","state":"Oregon","state_ab":"OR","county":"Clackamas","geo_location":{ "type": "Point", "coordinates": [-122.7699, 45.2986] }},
{"zip_code":"97146","country":"US","city":"Warrenton","state":"Oregon","state_ab":"OR","county":"Clatsop","geo_location":{ "type": "Point", "coordinates": [-123.9254, 46.145] }},
{"zip_code":"97016","country":"US","city":"Clatskanie","state":"Oregon","state_ab":"OR","county":"Columbia","geo_location":{ "type": "Point", "coordinates": [-123.2059, 46.0665] }},
{"zip_code":"97056","country":"US","city":"Scappoose","state":"Oregon","state_ab":"OR","county":"Columbia","geo_location":{ "type": "Point", "coordinates": [-122.8928, 45.7655] }},
{"zip_code":"97753","country":"US","city":"Powell Butte","state":"Oregon","state_ab":"OR","county":"Crook","geo_location":{ "type": "Point", "coordinates": [-121.0113, 44.2415] }},
{"zip_code":"97739","country":"US","city":"La Pine","state":"Oregon","state_ab":"OR","county":"Deschutes","geo_location":{ "type": "Point", "coordinates": [-121.5194, 43.7091] }},
{"zip_code":"97416","country":"US","city":"Camas Valley","state":"Oregon","state_ab":"OR","county":"Douglas","geo_location":{ "type": "Point", "coordinates": [-123.6655, 43.0557] }},
{"zip_code":"97429","country":"US","city":"Days Creek","state":"Oregon","state_ab":"OR","county":"Douglas","geo_location":{ "type": "Point", "coordinates": [-123.1439, 42.9819] }},
{"zip_code":"97443","country":"US","city":"Glide","state":"Oregon","state_ab":"OR","county":"Douglas","geo_location":{ "type": "Point", "coordinates": [-122.9638, 43.2774] }},
{"zip_code":"97469","country":"US","city":"Riddle","state":"Oregon","state_ab":"OR","county":"Douglas","geo_location":{ "type": "Point", "coordinates": [-123.3612, 42.9389] }},
{"zip_code":"97470","country":"US","city":"Roseburg","state":"Oregon","state_ab":"OR","county":"Douglas","geo_location":{ "type": "Point", "coordinates": [-123.2343, 43.2297] }},
{"zip_code":"97496","country":"US","city":"Winston","state":"Oregon","state_ab":"OR","county":"Douglas","geo_location":{ "type": "Point", "coordinates": [-123.4325, 43.1049] }},
{"zip_code":"97856","country":"US","city":"Long Creek","state":"Oregon","state_ab":"OR","county":"Grant","geo_location":{ "type": "Point", "coordinates": [-119.097, 44.7554] }},
{"zip_code":"97869","country":"US","city":"Prairie City","state":"Oregon","state_ab":"OR","county":"Grant","geo_location":{ "type": "Point", "coordinates": [-118.6952, 44.457] }},
{"zip_code":"97740","country":"US","city":"Lawen","state":"Oregon","state_ab":"OR","county":"Harney","geo_location":{ "type": "Point", "coordinates": [-119.0696, 43.0198] }},
{"zip_code":"97520","country":"US","city":"Ashland","state":"Oregon","state_ab":"OR","county":"Jackson","geo_location":{ "type": "Point", "coordinates": [-122.693, 42.1885] }},
{"zip_code":"97533","country":"US","city":"Murphy","state":"Oregon","state_ab":"OR","county":"Josephine","geo_location":{ "type": "Point", "coordinates": [-123.3273, 42.308] }},
{"zip_code":"97623","country":"US","city":"Bonanza","state":"Oregon","state_ab":"OR","county":"Klamath","geo_location":{ "type": "Point", "coordinates": [-121.3336, 42.2463] }},
{"zip_code":"97636","country":"US","city":"Paisley","state":"Oregon","state_ab":"OR","county":"Lake","geo_location":{ "type": "Point", "coordinates": [-120.5532, 42.7031] }},
{"zip_code":"97403","country":"US","city":"Eugene","state":"Oregon","state_ab":"OR","county":"Lane","geo_location":{ "type": "Point", "coordinates": [-123.0614, 44.0385] }},
{"zip_code":"97430","country":"US","city":"Deadwood","state":"Oregon","state_ab":"OR","county":"Lane","geo_location":{ "type": "Point", "coordinates": [-123.6816, 44.1462] }},
{"zip_code":"97366","country":"US","city":"South Beach","state":"Oregon","state_ab":"OR","county":"Lincoln","geo_location":{ "type": "Point", "coordinates": [-124.06, 44.5712] }},
{"zip_code":"97380","country":"US","city":"Siletz","state":"Oregon","state_ab":"OR","county":"Lincoln","geo_location":{ "type": "Point", "coordinates": [-123.9062, 44.7313] }},
{"zip_code":"97906","country":"US","city":"Harper","state":"Oregon","state_ab":"OR","county":"Malheur","geo_location":{ "type": "Point", "coordinates": [-117.5284, 43.8734] }},
{"zip_code":"97920","country":"US","city":"Westfall","state":"Oregon","state_ab":"OR","county":"Malheur","geo_location":{ "type": "Point", "coordinates": [-117.6877, 43.9922] }},
{"zip_code":"97313","country":"US","city":"Salem","state":"Oregon","state_ab":"OR","county":"Marion","geo_location":{ "type": "Point", "coordinates": [-122.9988, 44.9849] }},
{"zip_code":"97843","country":"US","city":"Ione","state":"Oregon","state_ab":"OR","county":"Morrow","geo_location":{ "type": "Point", "coordinates": [-119.769, 45.5403] }},
{"zip_code":"97030","country":"US","city":"Gresham","state":"Oregon","state_ab":"OR","county":"Multnomah","geo_location":{ "type": "Point", "coordinates": [-122.4203, 45.5154] }},
{"zip_code":"97209","country":"US","city":"Portland","state":"Oregon","state_ab":"OR","county":"Multnomah","geo_location":{ "type": "Point", "coordinates": [-122.6854, 45.527] }},
{"zip_code":"97210","country":"US","city":"Portland","state":"Oregon","state_ab":"OR","county":"Multnomah","geo_location":{ "type": "Point", "coordinates": [-122.7033, 45.5303] }},
{"zip_code":"97236","country":"US","city":"Portland","state":"Oregon","state_ab":"OR","county":"Multnomah","geo_location":{ "type": "Point", "coordinates": [-122.5091, 45.4887] }},
{"zip_code":"97290","country":"US","city":"Portland","state":"Oregon","state_ab":"OR","county":"Multnomah","geo_location":{ "type": "Point", "coordinates": [-122.3748, 45.5806] }},
{"zip_code":"97029","country":"US","city":"Grass Valley","state":"Oregon","state_ab":"OR","county":"Sherman","geo_location":{ "type": "Point", "coordinates": [-120.7478, 45.3013] }},
{"zip_code":"97883","country":"US","city":"Union","state":"Oregon","state_ab":"OR","county":"Union","geo_location":{ "type": "Point", "coordinates": [-117.8536, 45.2019] }},
{"zip_code":"97003","country":"US","city":"Beaverton","state":"Oregon","state_ab":"OR","county":"Washington","geo_location":{ "type": "Point", "coordinates": [-122.8604, 45.5201] }},
{"zip_code":"97106","country":"US","city":"Banks","state":"Oregon","state_ab":"OR","county":"Washington","geo_location":{ "type": "Point", "coordinates": [-123.121, 45.6535] }},
{"zip_code":"97119","country":"US","city":"Gaston","state":"Oregon","state_ab":"OR","county":"Washington","geo_location":{ "type": "Point", "coordinates": [-123.1666, 45.4427] }}]}