{"value": [{"zip_code":"37641","country":"US","city":"Chuckey","state":"Tennessee","state_ab":"TN","county":"Greene","geo_location":{ "type": "Point", "coordinates": [-82.6905, 36.2569] }},
{"zip_code":"37744","country":"US","city":"Greeneville","state":"Tennessee","state_ab":"TN","county":"Greene","geo_location":{ "type": "Point", "coordinates": [-82.8548, 36.1683] }},
{"zip_code":"37304","country":"US","city":"Bakewell","state":"Tennessee","state_ab":"TN","county":"Hamilton","geo_location":{ "type": "Point", "coordinates": [-85.138, 35.3452] }},
{"zip_code":"37384","country":"US","city":"Soddy Daisy","state":"Tennessee","state_ab":"TN","county":"Hamilton","geo_location":{ "type": "Point", "coordinates": [-85.2091, 35.2211] }},
{"zip_code":"37407","country":"US","city":"Chattanooga","state":"Tennessee","state_ab":"TN","county":"Hamilton","geo_location":{ "type": "Point", "coordinates": [-85.2849, 35.0024] }},
{"zip_code":"37421","country":"US","city":"Chattanooga","state":"Tennessee","state_ab":"TN","county":"Hamilton","geo_location":{ "type": "Point", "coordinates": [-85.1459, 35.025] }},
{"zip_code":"38361","country":"US","city":"Morris Chapel","state":"Tennessee","state_ab":"TN","county":"Hardin","geo_location":{ "type": "Point", "coordinates": [-88.3176, 35.3026] }},
{"zip_code":"37731","country":"US","city":"Eidson","state":"Tennessee","state_ab":"TN","county":"Hawkins","geo_location":{ "type": "Point", "coordinates": [-83.0827, 36.4995] }},
{"zip_code":"38231","country":"US","city":"Henry","state":"Tennessee","state_ab":"TN","county":"Henry","geo_location":{ "type": "Point", "coordinates": [-88.4536, 36.2013] }},
{"zip_code":"37137","country":"US","city":"Nunnelly","state":"Tennessee","state_ab":"TN","county":"Hickman","geo_location":{ "type": "Point", "coordinates": [-87.5067, 35.8763] }},
{"zip_code":"37061","country":"US","city":"Erin","state":"Tennessee","state_ab":"TN","county":"Houston","geo_location":{ "type": "Point", "coordinates": [-87.679, 36.3067] }},
{"zip_code":"37924","country":"US","city":"Knoxville","state":"Tennessee","state_ab":"TN","county":"Knox","geo_location":{ "type": "Point", "coordinates": [-83.8021, 36.032] }},
{"zip_code":"38077","country":"US","city":"Wynnburg","state":"Tennessee","state_ab":"TN","county":"Lake","geo_location":{ "type": "Point", "coordinates": [-89.4744, 36.3281] }},
{"zip_code":"38037","country":"US","city":"Gates","state":"Tennessee","state_ab":"TN","county":"Lauderdale","geo_location":{ "type": "Point", "coordinates": [-89.3938, 35.796] }},
{"zip_code":"38464","country":"US","city":"Lawrenceburg","state":"Tennessee","state_ab":"TN","county":"Lawrence","geo_location":{ "type": "Point", "coordinates": [-87.3526, 35.2507] }},
{"zip_code":"37771","country":"US","city":"Lenoir City","state":"Tennessee","state_ab":"TN","county":"Loudon","geo_location":{ "type": "Point", "coordinates": [-84.2665, 35.8104] }},
{"zip_code":"37331","country":"US","city":"Etowah","state":"Tennessee","state_ab":"TN","county":"McMinn","geo_location":{ "type": "Point", "coordinates": [-84.5283, 35.3314] }},
{"zip_code":"37371","country":"US","city":"Athens","state":"Tennessee","state_ab":"TN","county":"McMinn","geo_location":{ "type": "Point", "coordinates": [-84.6416, 35.4414] }},
{"zip_code":"38334","country":"US","city":"Finger","state":"Tennessee","state_ab":"TN","county":"McNairy","geo_location":{ "type": "Point", "coordinates": [-88.5876, 35.3544] }},
{"zip_code":"37397","country":"US","city":"Whitwell","state":"Tennessee","state_ab":"TN","county":"Marion","geo_location":{ "type": "Point", "coordinates": [-85.5011, 35.1972] }},
{"zip_code":"37034","country":"US","city":"Chapel Hill","state":"Tennessee","state_ab":"TN","county":"Marshall","geo_location":{ "type": "Point", "coordinates": [-86.6836, 35.6354] }},
{"zip_code":"37047","country":"US","city":"Cornersville","state":"Tennessee","state_ab":"TN","county":"Marshall","geo_location":{ "type": "Point", "coordinates": [-86.8286, 35.3409] }},
{"zip_code":"38451","country":"US","city":"Culleoka","state":"Tennessee","state_ab":"TN","county":"Maury","geo_location":{ "type": "Point", "coordinates": [-87.0005, 35.4749] }},
{"zip_code":"37874","country":"US","city":"Sweetwater","state":"Tennessee","state_ab":"TN","county":"Monroe","geo_location":{ "type": "Point", "coordinates": [-84.4304, 35.5957] }},
{"zip_code":"37191","country":"US","city":"Woodlawn","state":"Tennessee","state_ab":"TN","county":"Montgomery","geo_location":{ "type": "Point", "coordinates": [-87.5393, 36.5147] }},
{"zip_code":"37887","country":"US","city":"Wartburg","state":"Tennessee","state_ab":"TN","county":"Morgan","geo_location":{ "type": "Point", "coordinates": [-84.5652, 36.1016] }},
{"zip_code":"38257","country":"US","city":"South Fulton","state":"Tennessee","state_ab":"TN","county":"Obion","geo_location":{ "type": "Point", "coordinates": [-88.8808, 36.4814] }},
{"zip_code":"38271","country":"US","city":"Woodland Mills","state":"Tennessee","state_ab":"TN","county":"Obion","geo_location":{ "type": "Point", "coordinates": [-89.2332, 36.4583] }},
{"zip_code":"38541","country":"US","city":"Allons","state":"Tennessee","state_ab":"TN","county":"Overton","geo_location":{ "type": "Point", "coordinates": [-85.3197, 36.497] }},
{"zip_code":"38554","country":"US","city":"Crawford","state":"Tennessee","state_ab":"TN","county":"Overton","geo_location":{ "type": "Point", "coordinates": [-85.1688, 36.2361] }},
{"zip_code":"37317","country":"US","city":"Copperhill","state":"Tennessee","state_ab":"TN","county":"Polk","geo_location":{ "type": "Point", "coordinates": [-84.3748, 35.0207] }},
{"zip_code":"38501","country":"US","city":"Cookeville","state":"Tennessee","state_ab":"TN","county":"Putnam","geo_location":{ "type": "Point", "coordinates": [-85.5423, 36.2178] }},
{"zip_code":"38101","country":"US","city":"Memphis","state":"Tennessee","state_ab":"TN","county":"Shelby","geo_location":{ "type": "Point", "coordinates": [-89.8478, 35.0507] }},
{"zip_code":"38114","country":"US","city":"Memphis","state":"Tennessee","state_ab":"TN","county":"Shelby","geo_location":{ "type": "Point", "coordinates": [-89.9825, 35.0981] }},
{"zip_code":"38127","country":"US","city":"Memphis","state":"Tennessee","state_ab":"TN","county":"Shelby","geo_location":{ "type": "Point", "coordinates": [-90.0296, 35.251] }},
{"zip_code":"38141","country":"US","city":"Memphis","state":"Tennessee","state_ab":"TN","county":"Shelby","geo_location":{ "type": "Point", "coordinates": [-89.8492, 35.0231] }},
{"zip_code":"38167","country":"US","city":"Memphis","state":"Tennessee","state_ab":"TN","county":"Shelby","geo_location":{ "type": "Point", "coordinates": [-89.9715, 35.2017] }},
{"zip_code":"38181","country":"US","city":"Memphis","state":"Tennessee","state_ab":"TN","county":"Shelby","geo_location":{ "type": "Point", "coordinates": [-89.9715, 35.2017] }},
{"zip_code":"38194","country":"US","city":"Memphis","state":"Tennessee","state_ab":"TN","county":"Shelby","geo_location":{ "type": "Point", "coordinates": [-89.9715, 35.2017] }},
{"zip_code":"37151","country":"US","city":"Riddleton","state":"Tennessee","state_ab":"TN","county":"Smith","geo_location":{ "type": "Point", "coordinates": [-86.0335, 36.3506] }},
{"zip_code":"38567","country":"US","city":"Hickman","state":"Tennessee","state_ab":"TN","county":"Smith","geo_location":{ "type": "Point", "coordinates": [-85.9023, 36.1197] }},
{"zip_code":"38011","country":"US","city":"Brighton","state":"Tennessee","state_ab":"TN","county":"Tipton","geo_location":{ "type": "Point", "coordinates": [-89.7525, 35.4703] }},
{"zip_code":"37074","country":"US","city":"Hartsville","state":"Tennessee","state_ab":"TN","county":"Trousdale","geo_location":{ "type": "Point", "coordinates": [-86.1704, 36.3947] }},
{"zip_code":"37807","country":"US","city":"Maynardville","state":"Tennessee","state_ab":"TN","county":"Union","geo_location":{ "type": "Point", "coordinates": [-83.8403, 36.2343] }},
{"zip_code":"37111","country":"US","city":"Mc Minnville","state":"Tennessee","state_ab":"TN","county":"Warren","geo_location":{ "type": "Point", "coordinates": [-85.7776, 35.6784] }},
{"zip_code":"37357","country":"US","city":"Morrison","state":"Tennessee","state_ab":"TN","county":"Warren","geo_location":{ "type": "Point", "coordinates": [-85.8899, 35.6] }},
{"zip_code":"38581","country":"US","city":"Rock Island","state":"Tennessee","state_ab":"TN","county":"Warren","geo_location":{ "type": "Point", "coordinates": [-85.6788, 35.7668] }},
{"zip_code":"37601","country":"US","city":"Johnson City","state":"Tennessee","state_ab":"TN","county":"Washington","geo_location":{ "type": "Point", "coordinates": [-82.3408, 36.3339] }},
{"zip_code":"37614","country":"US","city":"Johnson City","state":"Tennessee","state_ab":"TN","county":"Washington","geo_location":{ "type": "Point", "coordinates": [-82.5626, 36.1571] }},
{"zip_code":"37681","country":"US","city":"Limestone","state":"Tennessee","state_ab":"TN","county":"Washington","geo_location":{ "type": "Point", "coordinates": [-82.625, 36.254] }},
{"zip_code":"37087","country":"US","city":"Lebanon","state":"Tennessee","state_ab":"TN","county":"Wilson","geo_location":{ "type": "Point", "coordinates": [-86.3024, 36.2098] }},
{"zip_code":"75801","country":"US","city":"Palestine","state":"Texas","state_ab":"TX","county":"Anderson","geo_location":{ "type": "Point", "coordinates": [-95.6342, 31.7588] }},
{"zip_code":"75904","country":"US","city":"Lufkin","state":"Texas","state_ab":"TX","county":"Angelina","geo_location":{ "type": "Point", "coordinates": [-94.8327, 31.3489] }},
{"zip_code":"79094","country":"US","city":"Wayside","state":"Texas","state_ab":"TX","county":"Armstrong","geo_location":{ "type": "Point", "coordinates": [-101.3578, 34.9653] }},
{"zip_code":"78011","country":"US","city":"Charlotte","state":"Texas","state_ab":"TX","county":"Atascosa","geo_location":{ "type": "Point", "coordinates": [-98.707, 28.8649] }},
{"zip_code":"78064","country":"US","city":"Pleasanton","state":"Texas","state_ab":"TX","county":"Atascosa","geo_location":{ "type": "Point", "coordinates": [-98.4831, 28.9924] }},
{"zip_code":"77474","country":"US","city":"Sealy","state":"Texas","state_ab":"TX","county":"Austin","geo_location":{ "type": "Point", "coordinates": [-96.1592, 29.7826] }},
{"zip_code":"79324","country":"US","city":"Enochs","state":"Texas","state_ab":"TX","county":"Bailey","geo_location":{ "type": "Point", "coordinates": [-102.7641, 33.8502] }},
{"zip_code":"76534","country":"US","city":"Holland","state":"Texas","state_ab":"TX","county":"Bell","geo_location":{ "type": "Point", "coordinates": [-97.3857, 30.88] }},
{"zip_code":"76547","country":"US","city":"Killeen","state":"Texas","state_ab":"TX","county":"Bell","geo_location":{ "type": "Point", "coordinates": [-97.492, 31.0363] }},
{"zip_code":"78101","country":"US","city":"Adkins","state":"Texas","state_ab":"TX","county":"Bexar","geo_location":{ "type": "Point", "coordinates": [-98.265, 29.3805] }},
{"zip_code":"78204","country":"US","city":"San Antonio","state":"Texas","state_ab":"TX","county":"Bexar","geo_location":{ "type": "Point", "coordinates": [-98.5078, 29.4059] }},
{"zip_code":"78217","country":"US","city":"San Antonio","state":"Texas","state_ab":"TX","county":"Bexar","geo_location":{ "type": "Point", "coordinates": [-98.4194, 29.5395] }},
{"zip_code":"78231","country":"US","city":"San Antonio","state":"Texas","state_ab":"TX","county":"Bexar","geo_location":{ "type": "Point", "coordinates": [-98.5414, 29.5714] }},
{"zip_code":"78244","country":"US","city":"San Antonio","state":"Texas","state_ab":"TX","county":"Bexar","geo_location":{ "type": "Point", "coordinates": [-98.3476, 29.4793] }},
{"zip_code":"78257","country":"US","city":"San Antonio","state":"Texas","state_ab":"TX","county":"Bexar","geo_location":{ "type": "Point", "coordinates": [-98.6137, 29.6495] }},
{"zip_code":"78284","country":"US","city":"San Antonio","state":"Texas","state_ab":"TX","county":"Bexar","geo_location":{ "type": "Point", "coordinates": [-98.4913, 29.4426] }},
{"zip_code":"78297","country":"US","city":"San Antonio","state":"Texas","state_ab":"TX","county":"Bexar","geo_location":{ "type": "Point", "coordinates": [-98.4616, 29.4375] }},
{"zip_code":"76637","country":"US","city":"Cranfills Gap","state":"Texas","state_ab":"TX","county":"Bosque","geo_location":{ "type": "Point", "coordinates": [-97.8113, 31.7486] }},
{"zip_code":"75504","country":"US","city":"Texarkana","state":"Texas","state_ab":"TX","county":"Bowie","geo_location":{ "type": "Point", "coordinates": [-94.3949, 33.4766] }},
{"zip_code":"77511","country":"US","city":"Alvin","state":"Texas","state_ab":"TX","county":"Brazoria","geo_location":{ "type": "Point", "coordinates": [-95.2515, 29.412] }},
{"zip_code":"77577","country":"US","city":"Liverpool","state":"Texas","state_ab":"TX","county":"Brazoria","geo_location":{ "type": "Point", "coordinates": [-95.2889, 29.2667] }},
{"zip_code":"77807","country":"US","city":"Bryan","state":"Texas","state_ab":"TX","county":"Brazos","geo_location":{ "type": "Point", "coordinates": [-96.4799, 30.6711] }},
{"zip_code":"76804","country":"US","city":"Brownwood","state":"Texas","state_ab":"TX","county":"Brown","geo_location":{ "type": "Point", "coordinates": [-99.0921, 31.7742] }},
{"zip_code":"76857","country":"US","city":"May","state":"Texas","state_ab":"TX","county":"Brown","geo_location":{ "type": "Point", "coordinates": [-98.9656, 31.9571] }},
{"zip_code":"78657","country":"US","city":"Marble Falls","state":"Texas","state_ab":"TX","county":"Burnet","geo_location":{ "type": "Point", "coordinates": [-98.3737, 30.5373] }},
{"zip_code":"78644","country":"US","city":"Lockhart","state":"Texas","state_ab":"TX","county":"Caldwell","geo_location":{ "type": "Point", "coordinates": [-97.6769, 29.8868] }},
{"zip_code":"79504","country":"US","city":"Baird","state":"Texas","state_ab":"TX","county":"Callahan","geo_location":{ "type": "Point", "coordinates": [-99.3777, 32.3916] }},
{"zip_code":"78567","country":"US","city":"Los Indios","state":"Texas","state_ab":"TX","county":"Cameron","geo_location":{ "type": "Point", "coordinates": [-97.6937, 26.0417] }},
{"zip_code":"79027","country":"US","city":"Dimmitt","state":"Texas","state_ab":"TX","county":"Castro","geo_location":{ "type": "Point", "coordinates": [-102.3046, 34.5341] }},
{"zip_code":"75764","country":"US","city":"Gallatin","state":"Texas","state_ab":"TX","county":"Cherokee","geo_location":{ "type": "Point", "coordinates": [-95.1572, 31.8849] }},
{"zip_code":"76884","country":"US","city":"Valera","state":"Texas","state_ab":"TX","county":"Coleman","geo_location":{ "type": "Point", "coordinates": [-99.564, 31.7731] }},
{"zip_code":"75094","country":"US","city":"Plano","state":"Texas","state_ab":"TX","county":"Collin","geo_location":{ "type": "Point", "coordinates": [-96.6189, 33.0148] }},
{"zip_code":"75454","country":"US","city":"Melissa","state":"Texas","state_ab":"TX","county":"Collin","geo_location":{ "type": "Point", "coordinates": [-96.574, 33.2841] }},
{"zip_code":"77434","country":"US","city":"Eagle Lake","state":"Texas","state_ab":"TX","county":"Colorado","geo_location":{ "type": "Point", "coordinates": [-96.3354, 29.5842] }},
{"zip_code":"76444","country":"US","city":"De Leon","state":"Texas","state_ab":"TX","county":"Comanche","geo_location":{ "type": "Point", "coordinates": [-98.5489, 32.1087] }},
{"zip_code":"76561","country":"US","city":"Oglesby","state":"Texas","state_ab":"TX","county":"Coryell","geo_location":{ "type": "Point", "coordinates": [-97.5501, 31.4438] }},
{"zip_code":"75001","country":"US","city":"Addison","state":"Texas","state_ab":"TX","county":"Dallas","geo_location":{ "type": "Point", "coordinates": [-96.8385, 32.96] }},
{"zip_code":"75014","country":"US","city":"Irving","state":"Texas","state_ab":"TX","county":"Dallas","geo_location":{ "type": "Point", "coordinates": [-96.7776, 32.7673] }},
{"zip_code":"75041","country":"US","city":"Garland","state":"Texas","state_ab":"TX","county":"Dallas","geo_location":{ "type": "Point", "coordinates": [-96.6411, 32.8794] }},
{"zip_code":"75054","country":"US","city":"Grand Prairie","state":"Texas","state_ab":"TX","county":"Dallas","geo_location":{ "type": "Point", "coordinates": [-97.0405, 32.5907] }},
{"zip_code":"75081","country":"US","city":"Richardson","state":"Texas","state_ab":"TX","county":"Dallas","geo_location":{ "type": "Point", "coordinates": [-96.7058, 32.9462] }},
{"zip_code":"75104","country":"US","city":"Cedar Hill","state":"Texas","state_ab":"TX","county":"Dallas","geo_location":{ "type": "Point", "coordinates": [-96.9438, 32.5885] }},
{"zip_code":"75207","country":"US","city":"Dallas","state":"Texas","state_ab":"TX","county":"Dallas","geo_location":{ "type": "Point", "coordinates": [-96.8319, 32.7939] }},
{"zip_code":"75221","country":"US","city":"Dallas","state":"Texas","state_ab":"TX","county":"Dallas","geo_location":{ "type": "Point", "coordinates": [-96.7877, 32.8147] }},
{"zip_code":"75234","country":"US","city":"Dallas","state":"Texas","state_ab":"TX","county":"Dallas","geo_location":{ "type": "Point", "coordinates": [-96.8938, 32.9245] }},
{"zip_code":"75247","country":"US","city":"Dallas","state":"Texas","state_ab":"TX","county":"Dallas","geo_location":{ "type": "Point", "coordinates": [-96.8703, 32.8152] }},
{"zip_code":"75261","country":"US","city":"Dallas","state":"Texas","state_ab":"TX","county":"Dallas","geo_location":{ "type": "Point", "coordinates": [-96.7776, 32.7673] }},
{"zip_code":"75287","country":"US","city":"Dallas","state":"Texas","state_ab":"TX","county":"Dallas","geo_location":{ "type": "Point", "coordinates": [-96.8314, 33.0005] }},
{"zip_code":"75364","country":"US","city":"Dallas","state":"Texas","state_ab":"TX","county":"Dallas","geo_location":{ "type": "Point", "coordinates": [-96.7776, 32.7673] }},
{"zip_code":"75391","country":"US","city":"Dallas","state":"Texas","state_ab":"TX","county":"Dallas","geo_location":{ "type": "Point", "coordinates": [-96.7776, 32.7673] }},
{"zip_code":"79377","country":"US","city":"Welch","state":"Texas","state_ab":"TX","county":"Dawson","geo_location":{ "type": "Point", "coordinates": [-102.1278, 32.9298] }},
{"zip_code":"75441","country":"US","city":"Enloe","state":"Texas","state_ab":"TX","county":"Delta","geo_location":{ "type": "Point", "coordinates": [-95.6518, 33.4291] }},
{"zip_code":"75027","country":"US","city":"Flower Mound","state":"Texas","state_ab":"TX","county":"Denton","geo_location":{ "type": "Point", "coordinates": [-97.1163, 33.2074] }},
{"zip_code":"75067","country":"US","city":"Lewisville","state":"Texas","state_ab":"TX","county":"Denton","geo_location":{ "type": "Point", "coordinates": [-96.9925, 33.0198] }},
{"zip_code":"78141","country":"US","city":"Nordheim","state":"Texas","state_ab":"TX","county":"DeWitt","geo_location":{ "type": "Point", "coordinates": [-97.5946, 28.9142] }},
{"zip_code":"76471","country":"US","city":"Rising Star","state":"Texas","state_ab":"TX","county":"Eastland","geo_location":{ "type": "Point", "coordinates": [-98.9859, 32.128] }},
{"zip_code":"79764","country":"US","city":"Odessa","state":"Texas","state_ab":"TX","county":"Ector","geo_location":{ "type": "Point", "coordinates": [-102.4375, 31.8767] }},
{"zip_code":"76651","country":"US","city":"Italy","state":"Texas","state_ab":"TX","county":"Ellis","geo_location":{ "type": "Point", "coordinates": [-96.8823, 32.1785] }},
{"zip_code":"79904","country":"US","city":"El Paso","state":"Texas","state_ab":"TX","county":"El Paso","geo_location":{ "type": "Point", "coordinates": [-106.4381, 31.8533] }},
{"zip_code":"79917","country":"US","city":"El Paso","state":"Texas","state_ab":"TX","county":"El Paso","geo_location":{ "type": "Point", "coordinates": [-106.3, 31.6948] }},
{"zip_code":"79931","country":"US","city":"El Paso","state":"Texas","state_ab":"TX","county":"El Paso","geo_location":{ "type": "Point", "coordinates": [-106.3, 31.6948] }},
{"zip_code":"79944","country":"US","city":"El Paso","state":"Texas","state_ab":"TX","county":"El Paso","geo_location":{ "type": "Point", "coordinates": [-106.3, 31.6948] }},
{"zip_code":"79984","country":"US","city":"El Paso","state":"Texas","state_ab":"TX","county":"El Paso","geo_location":{ "type": "Point", "coordinates": [-106.3, 31.6948] }},
{"zip_code":"79997","country":"US","city":"El Paso","state":"Texas","state_ab":"TX","county":"El Paso","geo_location":{ "type": "Point", "coordinates": [-106.3, 31.6948] }},
{"zip_code":"88517","country":"US","city":"El Paso","state":"Texas","state_ab":"TX","county":"El Paso","geo_location":{ "type": "Point", "coordinates": [-106.3, 31.6948] }},
{"zip_code":"88531","country":"US","city":"El Paso","state":"Texas","state_ab":"TX","county":"El Paso","geo_location":{ "type": "Point", "coordinates": [-106.3, 31.6948] }},
{"zip_code":"88544","country":"US","city":"El Paso","state":"Texas","state_ab":"TX","county":"El Paso","geo_location":{ "type": "Point", "coordinates": [-106.3, 31.6948] }},
{"zip_code":"88557","country":"US","city":"El Paso","state":"Texas","state_ab":"TX","county":"El Paso","geo_location":{ "type": "Point", "coordinates": [-106.3, 31.6948] }},
{"zip_code":"88571","country":"US","city":"El Paso","state":"Texas","state_ab":"TX","county":"El Paso","geo_location":{ "type": "Point", "coordinates": [-106.3, 31.6948] }},
{"zip_code":"88584","country":"US","city":"El Paso","state":"Texas","state_ab":"TX","county":"El Paso","geo_location":{ "type": "Point", "coordinates": [-106.3, 31.6948] }},
{"zip_code":"76677","country":"US","city":"Perry","state":"Texas","state_ab":"TX","county":"Falls","geo_location":{ "type": "Point", "coordinates": [-96.9376, 31.2542] }},
{"zip_code":"78941","country":"US","city":"Flatonia","state":"Texas","state_ab":"TX","county":"Fayette","geo_location":{ "type": "Point", "coordinates": [-97.0987, 29.7095] }},
{"zip_code":"78954","country":"US","city":"Round Top","state":"Texas","state_ab":"TX","county":"Fayette","geo_location":{ "type": "Point", "coordinates": [-96.7341, 30.0411] }},
{"zip_code":"79221","country":"US","city":"Aiken","state":"Texas","state_ab":"TX","county":"Floyd","geo_location":{ "type": "Point", "coordinates": [-101.3031, 34.0715] }},
{"zip_code":"77407","country":"US","city":"Richmond","state":"Texas","state_ab":"TX","county":"Fort Bend","geo_location":{ "type": "Point", "coordinates": [-95.7272, 29.6625] }},
{"zip_code":"77461","country":"US","city":"Needville","state":"Texas","state_ab":"TX","county":"Fort Bend","geo_location":{ "type": "Point", "coordinates": [-95.8273, 29.4117] }},
{"zip_code":"77487","country":"US","city":"Sugar Land","state":"Texas","state_ab":"TX","county":"Fort Bend","geo_location":{ "type": "Point", "coordinates": [-95.7565, 29.5255] }},
{"zip_code":"77551","country":"US","city":"Galveston","state":"Texas","state_ab":"TX","county":"Galveston","geo_location":{ "type": "Point", "coordinates": [-94.8303, 29.2766] }},
{"zip_code":"77591","country":"US","city":"Texas City","state":"Texas","state_ab":"TX","county":"Galveston","geo_location":{ "type": "Point", "coordinates": [-94.9942, 29.3891] }},
{"zip_code":"78631","country":"US","city":"Harper","state":"Texas","state_ab":"TX","county":"Gillespie","geo_location":{ "type": "Point", "coordinates": [-99.241, 30.2816] }},
{"zip_code":"78671","country":"US","city":"Stonewall","state":"Texas","state_ab":"TX","county":"Gillespie","geo_location":{ "type": "Point", "coordinates": [-98.6131, 30.2088] }},
{"zip_code":"78604","country":"US","city":"Belmont","state":"Texas","state_ab":"TX","county":"Gonzales","geo_location":{ "type": "Point", "coordinates": [-97.4946, 29.4472] }},
{"zip_code":"79054","country":"US","city":"Lefors","state":"Texas","state_ab":"TX","county":"Gray","geo_location":{ "type": "Point", "coordinates": [-100.8059, 35.4391] }},
{"zip_code":"75414","country":"US","city":"Bells","state":"Texas","state_ab":"TX","county":"Grayson","geo_location":{ "type": "Point", "coordinates": [-96.4237, 33.6178] }},
{"zip_code":"76264","country":"US","city":"Sadler","state":"Texas","state_ab":"TX","county":"Grayson","geo_location":{ "type": "Point", "coordinates": [-96.84, 33.731] }},
{"zip_code":"75607","country":"US","city":"Longview","state":"Texas","state_ab":"TX","county":"Gregg","geo_location":{ "type": "Point", "coordinates": [-94.7835, 32.5112] }},
{"zip_code":"75647","country":"US","city":"Gladewater","state":"Texas","state_ab":"TX","county":"Gregg","geo_location":{ "type": "Point", "coordinates": [-94.932, 32.5559] }},
{"zip_code":"77861","country":"US","city":"Iola","state":"Texas","state_ab":"TX","county":"Grimes","geo_location":{ "type": "Point", "coordinates": [-96.0911, 30.7326] }},
{"zip_code":"78154","country":"US","city":"Schertz","state":"Texas","state_ab":"TX","county":"Guadalupe","geo_location":{ "type": "Point", "coordinates": [-98.2778, 29.579] }},
{"zip_code":"79041","country":"US","city":"Hale Center","state":"Texas","state_ab":"TX","county":"Hale","geo_location":{ "type": "Point", "coordinates": [-101.8736, 34.0669] }},
{"zip_code":"79311","country":"US","city":"Abernathy","state":"Texas","state_ab":"TX","county":"Hale","geo_location":{ "type": "Point", "coordinates": [-101.8611, 33.85] }},
{"zip_code":"79261","country":"US","city":"Turkey","state":"Texas","state_ab":"TX","county":"Hall","geo_location":{ "type": "Point", "coordinates": [-100.8449, 34.4036] }},
{"zip_code":"76457","country":"US","city":"Hico","state":"Texas","state_ab":"TX","county":"Hamilton","geo_location":{ "type": "Point", "coordinates": [-98.0249, 31.9597] }},
{"zip_code":"79081","country":"US","city":"Spearman","state":"Texas","state_ab":"TX","county":"Hansford","geo_location":{ "type": "Point", "coordinates": [-101.1952, 36.1927] }},
{"zip_code":"77007","country":"US","city":"Houston","state":"Texas","state_ab":"TX","county":"Harris","geo_location":{ "type": "Point", "coordinates": [-95.4034, 29.7736] }},
{"zip_code":"77021","country":"US","city":"Houston","state":"Texas","state_ab":"TX","county":"Harris","geo_location":{ "type": "Point", "coordinates": [-95.3562, 29.6954] }},
{"zip_code":"77034","country":"US","city":"Houston","state":"Texas","state_ab":"TX","county":"Harris","geo_location":{ "type": "Point", "coordinates": [-95.2216, 29.6364] }},
{"zip_code":"77047","country":"US","city":"Houston","state":"Texas","state_ab":"TX","county":"Harris","geo_location":{ "type": "Point", "coordinates": [-95.375, 29.6254] }},
{"zip_code":"77061","country":"US","city":"Houston","state":"Texas","state_ab":"TX","county":"Harris","geo_location":{ "type": "Point", "coordinates": [-95.279, 29.6652] }},
{"zip_code":"77074","country":"US","city":"Houston","state":"Texas","state_ab":"TX","county":"Harris","geo_location":{ "type": "Point", "coordinates": [-95.5106, 29.6896] }},
{"zip_code":"77087","country":"US","city":"Houston","state":"Texas","state_ab":"TX","county":"Harris","geo_location":{ "type": "Point", "coordinates": [-95.3011, 29.6876] }},
{"zip_code":"77201","country":"US","city":"Houston","state":"Texas","state_ab":"TX","county":"Harris","geo_location":{ "type": "Point", "coordinates": [-95.4342, 29.834] }},
{"zip_code":"77227","country":"US","city":"Houston","state":"Texas","state_ab":"TX","county":"Harris","geo_location":{ "type": "Point", "coordinates": [-95.4342, 29.834] }},
{"zip_code":"77241","country":"US","city":"Houston","state":"Texas","state_ab":"TX","county":"Harris","geo_location":{ "type": "Point", "coordinates": [-95.4342, 29.834] }},
{"zip_code":"77254","country":"US","city":"Houston","state":"Texas","state_ab":"TX","county":"Harris","geo_location":{ "type": "Point", "coordinates": [-95.4342, 29.834] }},
{"zip_code":"77267","country":"US","city":"Houston","state":"Texas","state_ab":"TX","county":"Harris","geo_location":{ "type": "Point", "coordinates": [-95.4342, 29.834] }},
{"zip_code":"77281","country":"US","city":"Houston","state":"Texas","state_ab":"TX","county":"Harris","geo_location":{ "type": "Point", "coordinates": [-95.4342, 29.834] }},
{"zip_code":"77294","country":"US","city":"Houston","state":"Texas","state_ab":"TX","county":"Harris County","geo_location":{ "type": "Point", "coordinates": [-95.2476, 29.8615] }},
{"zip_code":"77447","country":"US","city":"Hockley","state":"Texas","state_ab":"TX","county":"Harris","geo_location":{ "type": "Point", "coordinates": [-95.8104, 30.0729] }},
{"zip_code":"75661","country":"US","city":"Karnack","state":"Texas","state_ab":"TX","county":"Harrison","geo_location":{ "type": "Point", "coordinates": [-94.2001, 32.6205] }},
{"zip_code":"79544","country":"US","city":"Rochester","state":"Texas","state_ab":"TX","county":"Haskell","geo_location":{ "type": "Point", "coordinates": [-99.8594, 33.3105] }},
{"zip_code":"79014","country":"US","city":"Canadian","state":"Texas","state_ab":"TX","county":"Hemphill","geo_location":{ "type": "Point", "coordinates": [-100.3841, 35.9045] }},
{"zip_code":"75751","country":"US","city":"Athens","state":"Texas","state_ab":"TX","county":"Henderson","geo_location":{ "type": "Point", "coordinates": [-95.8432, 32.1935] }},
{"zip_code":"78501","country":"US","city":"Mcallen","state":"Texas","state_ab":"TX","county":"Hidalgo","geo_location":{ "type": "Point", "coordinates": [-98.2359, 26.2154] }},
{"zip_code":"78541","country":"US","city":"Edinburg","state":"Texas","state_ab":"TX","county":"Hidalgo County","geo_location":{ "type": "Point", "coordinates": [-98.2842, 26.4481] }},
{"zip_code":"75481","country":"US","city":"Sulphur Bluff","state":"Texas","state_ab":"TX","county":"Hopkins","geo_location":{ "type": "Point", "coordinates": [-95.374, 33.3334] }},
{"zip_code":"75401","country":"US","city":"Greenville","state":"Texas","state_ab":"TX","county":"Hunt","geo_location":{ "type": "Point", "coordinates": [-96.1304, 33.1854] }},
{"zip_code":"77991","country":"US","city":"Vanderbilt","state":"Texas","state_ab":"TX","county":"Jackson","geo_location":{ "type": "Point", "coordinates": [-96.6042, 28.8068] }},
{"zip_code":"75957","country":"US","city":"Magnolia Springs","state":"Texas","state_ab":"TX","county":"Jasper County","geo_location":{ "type": "Point", "coordinates": [-94.0709, 30.7629] }},
{"zip_code":"79854","country":"US","city":"Valentine","state":"Texas","state_ab":"TX","county":"Jeff Davis","geo_location":{ "type": "Point", "coordinates": [-104.4811, 30.62] }},
{"zip_code":"77627","country":"US","city":"Nederland","state":"Texas","state_ab":"TX","county":"Jefferson","geo_location":{ "type": "Point", "coordinates": [-94.0012, 29.9716] }},
{"zip_code":"77641","country":"US","city":"Port Arthur","state":"Texas","state_ab":"TX","county":"Jefferson","geo_location":{ "type": "Point", "coordinates": [-94.1297, 29.8476] }},
{"zip_code":"77704","country":"US","city":"Beaumont","state":"Texas","state_ab":"TX","county":"Jefferson","geo_location":{ "type": "Point", "coordinates": [-94.1539, 30.1236] }},
{"zip_code":"78361","country":"US","city":"Hebbronville","state":"Texas","state_ab":"TX","county":"Jim Hogg","geo_location":{ "type": "Point", "coordinates": [-98.6829, 27.2997] }},
{"zip_code":"76031","country":"US","city":"Cleburne","state":"Texas","state_ab":"TX","county":"Johnson","geo_location":{ "type": "Point", "coordinates": [-97.3311, 32.3485] }},
{"zip_code":"76044","country":"US","city":"Godley","state":"Texas","state_ab":"TX","county":"Johnson","geo_location":{ "type": "Point", "coordinates": [-97.5349, 32.4282] }},
{"zip_code":"76084","country":"US","city":"Venus","state":"Texas","state_ab":"TX","county":"Johnson","geo_location":{ "type": "Point", "coordinates": [-97.1087, 32.433] }},
{"zip_code":"76097","country":"US","city":"Burleson","state":"Texas","state_ab":"TX","county":"Johnson","geo_location":{ "type": "Point", "coordinates": [-97.2609, 32.5244] }},
{"zip_code":"75157","country":"US","city":"Rosser","state":"Texas","state_ab":"TX","county":"Kaufman","geo_location":{ "type": "Point", "coordinates": [-96.4395, 32.4554] }},
{"zip_code":"78024","country":"US","city":"Hunt","state":"Texas","state_ab":"TX","county":"Kerr","geo_location":{ "type": "Point", "coordinates": [-99.4823, 30.0027] }},
{"zip_code":"77964","country":"US","city":"Hallettsville","state":"Texas","state_ab":"TX","county":"Lavaca","geo_location":{ "type": "Point", "coordinates": [-96.9234, 29.4426] }},
{"zip_code":"77564","country":"US","city":"Hull","state":"Texas","state_ab":"TX","county":"Liberty","geo_location":{ "type": "Point", "coordinates": [-94.6604, 30.1334] }},
{"zip_code":"76831","country":"US","city":"Castell","state":"Texas","state_ab":"TX","county":"Llano","geo_location":{ "type": "Point", "coordinates": [-98.9712, 30.7565] }},
{"zip_code":"79364","country":"US","city":"Slaton","state":"Texas","state_ab":"TX","county":"Lubbock","geo_location":{ "type": "Point", "coordinates": [-101.6732, 33.4629] }},
{"zip_code":"79401","country":"US","city":"Lubbock","state":"Texas","state_ab":"TX","county":"Lubbock","geo_location":{ "type": "Point", "coordinates": [-101.8606, 33.5865] }},
{"zip_code":"79414","country":"US","city":"Lubbock","state":"Texas","state_ab":"TX","county":"Lubbock","geo_location":{ "type": "Point", "coordinates": [-101.9187, 33.5497] }},
{"zip_code":"79351","country":"US","city":"Odonnell","state":"Texas","state_ab":"TX","county":"Lynn","geo_location":{ "type": "Point", "coordinates": [-101.8271, 32.9773] }},
{"zip_code":"76624","country":"US","city":"Axtell","state":"Texas","state_ab":"TX","county":"McLennan","geo_location":{ "type": "Point", "coordinates": [-96.9882, 31.661] }},
{"zip_code":"76664","country":"US","city":"Mart","state":"Texas","state_ab":"TX","county":"McLennan","geo_location":{ "type": "Point", "coordinates": [-96.8381, 31.5458] }},
{"zip_code":"76691","country":"US","city":"West","state":"Texas","state_ab":"TX","county":"McLennan","geo_location":{ "type": "Point", "coordinates": [-97.1258, 31.7754] }},
{"zip_code":"76701","country":"US","city":"Waco","state":"Texas","state_ab":"TX","county":"McLennan","geo_location":{ "type": "Point", "coordinates": [-97.1396, 31.5525] }},
{"zip_code":"76714","country":"US","city":"Waco","state":"Texas","state_ab":"TX","county":"McLennan","geo_location":{ "type": "Point", "coordinates": [-97.2032, 31.5536] }},
{"zip_code":"78877","country":"US","city":"Quemado","state":"Texas","state_ab":"TX","county":"Maverick","geo_location":{ "type": "Point", "coordinates": [-100.5912, 28.9256] }},
{"zip_code":"79711","country":"US","city":"Midland","state":"Texas","state_ab":"TX","county":"Midland","geo_location":{ "type": "Point", "coordinates": [-102.0317, 31.8693] }},
{"zip_code":"76844","country":"US","city":"Goldthwaite","state":"Texas","state_ab":"TX","county":"Mills","geo_location":{ "type": "Point", "coordinates": [-98.5744, 31.4458] }},
{"zip_code":"76251","country":"US","city":"Montague","state":"Texas","state_ab":"TX","county":"Montague","geo_location":{ "type": "Point", "coordinates": [-97.7282, 33.6639] }},
{"zip_code":"77304","country":"US","city":"Conroe","state":"Texas","state_ab":"TX","county":"Montgomery","geo_location":{ "type": "Point", "coordinates": [-95.5285, 30.3217] }},
{"zip_code":"77357","country":"US","city":"New Caney","state":"Texas","state_ab":"TX","county":"Montgomery","geo_location":{ "type": "Point", "coordinates": [-95.198, 30.1579] }},
{"zip_code":"77384","country":"US","city":"Conroe","state":"Texas","state_ab":"TX","county":"Montgomery","geo_location":{ "type": "Point", "coordinates": [-95.4924, 30.2257] }},
{"zip_code":"75571","country":"US","city":"Omaha","state":"Texas","state_ab":"TX","county":"Morris","geo_location":{ "type": "Point", "coordinates": [-94.7639, 33.1808] }},
{"zip_code":"79234","country":"US","city":"Flomot","state":"Texas","state_ab":"TX","county":"Motley","geo_location":{ "type": "Point", "coordinates": [-101.0038, 34.2321] }},
{"zip_code":"75944","country":"US","city":"Etoile","state":"Texas","state_ab":"TX","county":"Nacogdoches","geo_location":{ "type": "Point", "coordinates": [-94.4064, 31.3601] }},
{"zip_code":"75144","country":"US","city":"Kerens","state":"Texas","state_ab":"TX","county":"Navarro","geo_location":{ "type": "Point", "coordinates": [-96.2298, 32.1275] }},
{"zip_code":"77614","country":"US","city":"Deweyville","state":"Texas","state_ab":"TX","county":"Newton","geo_location":{ "type": "Point", "coordinates": [-93.7488, 30.2894] }},
{"zip_code":"78347","country":"US","city":"Chapman Ranch","state":"Texas","state_ab":"TX","county":"Nueces","geo_location":{ "type": "Point", "coordinates": [-97.462, 27.5988] }},
{"zip_code":"78411","country":"US","city":"Corpus Christi","state":"Texas","state_ab":"TX","county":"Nueces","geo_location":{ "type": "Point", "coordinates": [-97.3877, 27.7311] }},
{"zip_code":"78477","country":"US","city":"Corpus Christi","state":"Texas","state_ab":"TX","county":"Nueces","geo_location":{ "type": "Point", "coordinates": [-97.4632, 27.777] }},
{"zip_code":"79001","country":"US","city":"Adrian","state":"Texas","state_ab":"TX","county":"Oldham","geo_location":{ "type": "Point", "coordinates": [-102.697, 35.2758] }},
{"zip_code":"76484","country":"US","city":"Palo Pinto","state":"Texas","state_ab":"TX","county":"Palo Pinto","geo_location":{ "type": "Point", "coordinates": [-98.3469, 32.7048] }},
{"zip_code":"79104","country":"US","city":"Amarillo","state":"Texas","state_ab":"TX","county":"Potter","geo_location":{ "type": "Point", "coordinates": [-101.7975, 35.1939] }},
{"zip_code":"79117","country":"US","city":"Amarillo","state":"Texas","state_ab":"TX","county":"Potter","geo_location":{ "type": "Point", "coordinates": [-101.843, 35.3089] }},
{"zip_code":"79171","country":"US","city":"Amarillo","state":"Texas","state_ab":"TX","county":"Potter","geo_location":{ "type": "Point", "coordinates": [-101.8951, 35.4015] }},
{"zip_code":"79184","country":"US","city":"Amarillo","state":"Texas","state_ab":"TX","county":"Potter","geo_location":{ "type": "Point", "coordinates": [-101.8951, 35.4015] }},
{"zip_code":"75687","country":"US","city":"Price","state":"Texas","state_ab":"TX","county":"Rusk","geo_location":{ "type": "Point", "coordinates": [-94.9554, 32.1518] }},
{"zip_code":"75931","country":"US","city":"Brookeland","state":"Texas","state_ab":"TX","county":"Sabine","geo_location":{ "type": "Point", "coordinates": [-93.9684, 31.0922] }},
{"zip_code":"77331","country":"US","city":"Coldspring","state":"Texas","state_ab":"TX","county":"San Jacinto","geo_location":{ "type": "Point", "coordinates": [-95.1086, 30.6027] }},
{"zip_code":"77371","country":"US","city":"Shepherd","state":"Texas","state_ab":"TX","county":"San Jacinto","geo_location":{ "type": "Point", "coordinates": [-95.0929, 30.4834] }},
{"zip_code":"78374","country":"US","city":"Portland","state":"Texas","state_ab":"TX","county":"San Patricio","geo_location":{ "type": "Point", "coordinates": [-97.3169, 27.8935] }},
{"zip_code":"78387","country":"US","city":"Sinton","state":"Texas","state_ab":"TX","county":"San Patricio","geo_location":{ "type": "Point", "coordinates": [-97.5196, 28.0339] }},
{"zip_code":"76871","country":"US","city":"Richland Springs","state":"Texas","state_ab":"TX","county":"San Saba","geo_location":{ "type": "Point", "coordinates": [-98.9128, 31.3003] }},
{"zip_code":"79517","country":"US","city":"Fluvanna","state":"Texas","state_ab":"TX","county":"Scurry","geo_location":{ "type": "Point", "coordinates": [-101.103, 32.853] }},
{"zip_code":"75711","country":"US","city":"Tyler","state":"Texas","state_ab":"TX","county":"Smith","geo_location":{ "type": "Point", "coordinates": [-95.42, 32.5399] }},
{"zip_code":"75791","country":"US","city":"Whitehouse","state":"Texas","state_ab":"TX","county":"Smith","geo_location":{ "type": "Point", "coordinates": [-95.2266, 32.222] }},
{"zip_code":"76004","country":"US","city":"Arlington","state":"Texas","state_ab":"TX","county":"Tarrant","geo_location":{ "type": "Point", "coordinates": [-97.2915, 32.7714] }},
{"zip_code":"76017","country":"US","city":"Arlington","state":"Texas","state_ab":"TX","county":"Tarrant","geo_location":{ "type": "Point", "coordinates": [-97.1599, 32.6555] }},
{"zip_code":"76107","country":"US","city":"Fort Worth","state":"Texas","state_ab":"TX","county":"Tarrant","geo_location":{ "type": "Point", "coordinates": [-97.3852, 32.7392] }},
{"zip_code":"76121","country":"US","city":"Fort Worth","state":"Texas","state_ab":"TX","county":"Tarrant","geo_location":{ "type": "Point", "coordinates": [-97.2915, 32.7714] }},
{"zip_code":"76134","country":"US","city":"Fort Worth","state":"Texas","state_ab":"TX","county":"Tarrant","geo_location":{ "type": "Point", "coordinates": [-97.3325, 32.6469] }},
{"zip_code":"76147","country":"US","city":"Fort Worth","state":"Texas","state_ab":"TX","county":"Tarrant","geo_location":{ "type": "Point", "coordinates": [-97.2915, 32.7714] }},
{"zip_code":"76161","country":"US","city":"Fort Worth","state":"Texas","state_ab":"TX","county":"Tarrant","geo_location":{ "type": "Point", "coordinates": [-97.2915, 32.7714] }},
{"zip_code":"79607","country":"US","city":"Dyess Afb","state":"Texas","state_ab":"TX","county":"Taylor","geo_location":{ "type": "Point", "coordinates": [-99.8221, 32.419] }},
{"zip_code":"78851","country":"US","city":"Dryden","state":"Texas","state_ab":"TX","county":"Terrell","geo_location":{ "type": "Point", "coordinates": [-102.1066, 30.2186] }},
{"zip_code":"76934","country":"US","city":"Carlsbad","state":"Texas","state_ab":"TX","county":"Tom Green","geo_location":{ "type": "Point", "coordinates": [-100.6694, 31.6266] }},
{"zip_code":"73344","country":"US","city":"Austin","state":"Texas","state_ab":"TX","county":"Travis","geo_location":{ "type": "Point", "coordinates": [-97.7713, 30.3264] }},
{"zip_code":"78617","country":"US","city":"Del Valle","state":"Texas","state_ab":"TX","county":"Travis","geo_location":{ "type": "Point", "coordinates": [-97.6134, 30.1745] }},
{"zip_code":"78721","country":"US","city":"Austin","state":"Texas","state_ab":"TX","county":"Travis","geo_location":{ "type": "Point", "coordinates": [-97.6868, 30.2721] }},
{"zip_code":"78734","country":"US","city":"Austin","state":"Texas","state_ab":"TX","county":"Travis","geo_location":{ "type": "Point", "coordinates": [-97.9427, 30.3705] }},
{"zip_code":"78747","country":"US","city":"Austin","state":"Texas","state_ab":"TX","county":"Travis","geo_location":{ "type": "Point", "coordinates": [-97.7433, 30.1204] }},
{"zip_code":"78761","country":"US","city":"Austin","state":"Texas","state_ab":"TX","county":"Travis","geo_location":{ "type": "Point", "coordinates": [-97.7713, 30.3264] }},
{"zip_code":"78774","country":"US","city":"Austin","state":"Texas","state_ab":"TX","county":"Travis","geo_location":{ "type": "Point", "coordinates": [-97.7713, 30.3264] }},
{"zip_code":"78787","country":"US","city":"Austin","state":"Texas","state_ab":"TX","county":"Travis","geo_location":{ "type": "Point", "coordinates": [-97.7713, 30.3264] }},
{"zip_code":"78837","country":"US","city":"Comstock","state":"Texas","state_ab":"TX","county":"Val Verde","geo_location":{ "type": "Point", "coordinates": [-101.2628, 29.7484] }},
{"zip_code":"75117","country":"US","city":"Edgewood","state":"Texas","state_ab":"TX","county":"Van Zandt","geo_location":{ "type": "Point", "coordinates": [-95.878, 32.7003] }},
{"zip_code":"77951","country":"US","city":"Bloomington","state":"Texas","state_ab":"TX","county":"Victoria","geo_location":{ "type": "Point", "coordinates": [-96.8945, 28.6495] }},
{"zip_code":"77977","country":"US","city":"Placedo","state":"Texas","state_ab":"TX","county":"Victoria","geo_location":{ "type": "Point", "coordinates": [-96.8254, 28.6923] }},
{"zip_code":"77344","country":"US","city":"Huntsville","state":"Texas","state_ab":"TX","county":"Walker","geo_location":{ "type": "Point", "coordinates": [-95.5953, 30.7813] }},
{"zip_code":"79777","country":"US","city":"Pyote","state":"Texas","state_ab":"TX","county":"Ward","geo_location":{ "type": "Point", "coordinates": [-103.1267, 31.5387] }},
{"zip_code":"77834","country":"US","city":"Brenham","state":"Texas","state_ab":"TX","county":"Washington","geo_location":{ "type": "Point", "coordinates": [-96.2904, 30.2313] }},
{"zip_code":"76301","country":"US","city":"Wichita Falls","state":"Texas","state_ab":"TX","county":"Wichita","geo_location":{ "type": "Point", "coordinates": [-98.4976, 33.9053] }},
{"zip_code":"76354","country":"US","city":"Burkburnett","state":"Texas","state_ab":"TX","county":"Wichita","geo_location":{ "type": "Point", "coordinates": [-98.5708, 34.086] }},
{"zip_code":"76367","country":"US","city":"Iowa Park","state":"Texas","state_ab":"TX","county":"Wichita","geo_location":{ "type": "Point", "coordinates": [-98.6745, 33.9423] }},
{"zip_code":"79247","country":"US","city":"Odell","state":"Texas","state_ab":"TX","county":"Wilbarger","geo_location":{ "type": "Point", "coordinates": [-99.4196, 34.3452] }},
{"zip_code":"78594","country":"US","city":"Sebastian","state":"Texas","state_ab":"TX","county":"Willacy","geo_location":{ "type": "Point", "coordinates": [-97.8123, 26.344] }},
{"zip_code":"76574","country":"US","city":"Taylor","state":"Texas","state_ab":"TX","county":"Williamson","geo_location":{ "type": "Point", "coordinates": [-97.4401, 30.5807] }},
{"zip_code":"78114","country":"US","city":"Floresville","state":"Texas","state_ab":"TX","county":"Wilson","geo_location":{ "type": "Point", "coordinates": [-98.1936, 29.1693] }},
{"zip_code":"76071","country":"US","city":"Newark","state":"Texas","state_ab":"TX","county":"Wise","geo_location":{ "type": "Point", "coordinates": [-97.4923, 33.007] }},
{"zip_code":"76431","country":"US","city":"Chico","state":"Texas","state_ab":"TX","county":"Wise","geo_location":{ "type": "Point", "coordinates": [-97.8031, 33.3193] }},
{"zip_code":"75494","country":"US","city":"Winnsboro","state":"Texas","state_ab":"TX","county":"Wood","geo_location":{ "type": "Point", "coordinates": [-95.2726, 32.9146] }},
{"zip_code":"84751","country":"US","city":"Milford","state":"Utah","state_ab":"UT","county":"Beaver","geo_location":{ "type": "Point", "coordinates": [-112.9934, 38.3311] }},
{"zip_code":"84311","country":"US","city":"Fielding","state":"Utah","state_ab":"UT","county":"Box Elder","geo_location":{ "type": "Point", "coordinates": [-112.119, 41.8118] }},
{"zip_code":"84324","country":"US","city":"Mantua","state":"Utah","state_ab":"UT","county":"Box Elder","geo_location":{ "type": "Point", "coordinates": [-111.9416, 41.4975] }},
{"zip_code":"84337","country":"US","city":"Tremonton","state":"Utah","state_ab":"UT","county":"Box Elder","geo_location":{ "type": "Point", "coordinates": [-112.1813, 41.7016] }},
{"zip_code":"84014","country":"US","city":"Centerville","state":"Utah","state_ab":"UT","county":"Davis","geo_location":{ "type": "Point", "coordinates": [-111.877, 40.9268] }},
{"zip_code":"84041","country":"US","city":"Layton","state":"Utah","state_ab":"UT","county":"Davis","geo_location":{ "type": "Point", "coordinates": [-111.9704, 41.0879] }},
{"zip_code":"84054","country":"US","city":"North Salt Lake","state":"Utah","state_ab":"UT","county":"Davis","geo_location":{ "type": "Point", "coordinates": [-111.9191, 40.8446] }},
{"zip_code":"84001","country":"US","city":"Altamont","state":"Utah","state_ab":"UT","county":"Duchesne","geo_location":{ "type": "Point", "coordinates": [-110.2754, 40.3514] }},
{"zip_code":"84027","country":"US","city":"Fruitland","state":"Utah","state_ab":"UT","county":"Duchesne","geo_location":{ "type": "Point", "coordinates": [-110.8226, 40.1575] }},
{"zip_code":"84764","country":"US","city":"Bryce","state":"Utah","state_ab":"UT","county":"Garfield","geo_location":{ "type": "Point", "coordinates": [-112.1735, 37.6184] }},
{"zip_code":"84081","country":"US","city":"West Jordan","state":"Utah","state_ab":"UT","county":"Salt Lake","geo_location":{ "type": "Point", "coordinates": [-112.0411, 40.6037] }},
{"zip_code":"84094","country":"US","city":"Sandy","state":"Utah","state_ab":"UT","county":"Salt Lake","geo_location":{ "type": "Point", "coordinates": [-111.8617, 40.5688] }},
{"zip_code":"84104","country":"US","city":"Salt Lake City","state":"Utah","state_ab":"UT","county":"Salt Lake","geo_location":{ "type": "Point", "coordinates": [-111.926, 40.7499] }},
{"zip_code":"84117","country":"US","city":"Salt Lake City","state":"Utah","state_ab":"UT","county":"Salt Lake","geo_location":{ "type": "Point", "coordinates": [-111.834, 40.6551] }},
{"zip_code":"84131","country":"US","city":"Salt Lake City","state":"Utah","state_ab":"UT","county":"Salt Lake","geo_location":{ "type": "Point", "coordinates": [-111.9083, 40.6681] }},
{"zip_code":"84144","country":"US","city":"Salt Lake City","state":"Utah","state_ab":"UT","county":"Salt Lake","geo_location":{ "type": "Point", "coordinates": [-111.8908, 40.7679] }},
{"zip_code":"84157","country":"US","city":"Salt Lake City","state":"Utah","state_ab":"UT","county":"Salt Lake","geo_location":{ "type": "Point", "coordinates": [-111.9083, 40.6681] }},
{"zip_code":"84171","country":"US","city":"Salt Lake City","state":"Utah","state_ab":"UT","county":"Salt Lake","geo_location":{ "type": "Point", "coordinates": [-111.9083, 40.6681] }},
{"zip_code":"84184","country":"US","city":"Salt Lake City","state":"Utah","state_ab":"UT","county":"Salt Lake","geo_location":{ "type": "Point", "coordinates": [-111.9568, 40.6768] }},
{"zip_code":"84531","country":"US","city":"Mexican Hat","state":"Utah","state_ab":"UT","county":"San Juan","geo_location":{ "type": "Point", "coordinates": [-109.9919, 37.1184] }},
{"zip_code":"84621","country":"US","city":"Axtell","state":"Utah","state_ab":"UT","county":"Sanpete","geo_location":{ "type": "Point", "coordinates": [-111.8243, 39.0532] }},
{"zip_code":"84634","country":"US","city":"Gunnison","state":"Utah","state_ab":"UT","county":"Sanpete","geo_location":{ "type": "Point", "coordinates": [-111.8167, 39.1545] }},
{"zip_code":"84647","country":"US","city":"Mount Pleasant","state":"Utah","state_ab":"UT","county":"Sanpete","geo_location":{ "type": "Point", "coordinates": [-111.5039, 39.5232] }},
{"zip_code":"84711","country":"US","city":"Annabella","state":"Utah","state_ab":"UT","county":"Sevier","geo_location":{ "type": "Point", "coordinates": [-112.0657, 38.7168] }},
{"zip_code":"84724","country":"US","city":"Elsinore","state":"Utah","state_ab":"UT","county":"Sevier","geo_location":{ "type": "Point", "coordinates": [-112.1489, 38.6753] }},
{"zip_code":"84737","country":"US","city":"Hurricane","state":"Utah","state_ab":"UT","county":"Washington","geo_location":{ "type": "Point", "coordinates": [-113.3675, 37.1454] }},
{"zip_code":"84791","country":"US","city":"Saint George","state":"Utah","state_ab":"UT","county":"Washington","geo_location":{ "type": "Point", "coordinates": [-113.4762, 37.3092] }},
{"zip_code":"84067","country":"US","city":"Roy","state":"Utah","state_ab":"UT","county":"Weber","geo_location":{ "type": "Point", "coordinates": [-112.0382, 41.1724] }},
{"zip_code":"84401","country":"US","city":"Ogden","state":"Utah","state_ab":"UT","county":"Weber","geo_location":{ "type": "Point", "coordinates": [-111.9621, 41.2215] }},
{"zip_code":"84414","country":"US","city":"Ogden","state":"Utah","state_ab":"UT","county":"Weber","geo_location":{ "type": "Point", "coordinates": [-111.9689, 41.3112] }},
{"zip_code":"23301","country":"US","city":"Accomac","state":"Virginia","state_ab":"VA","county":"Accomack","geo_location":{ "type": "Point", "coordinates": [-75.6803, 37.7159] }},
{"zip_code":"23341","country":"US","city":"Craddockville","state":"Virginia","state_ab":"VA","county":"Accomack","geo_location":{ "type": "Point", "coordinates": [-75.8646, 37.5773] }},
{"zip_code":"23404","country":"US","city":"Locustville","state":"Virginia","state_ab":"VA","county":"Accomack","geo_location":{ "type": "Point", "coordinates": [-75.6735, 37.6534] }},
{"zip_code":"23417","country":"US","city":"Onancock","state":"Virginia","state_ab":"VA","county":"Accomack","geo_location":{ "type": "Point", "coordinates": [-75.7528, 37.7102] }},
{"zip_code":"22931","country":"US","city":"Covesville","state":"Virginia","state_ab":"VA","county":"Albemarle","geo_location":{ "type": "Point", "coordinates": [-78.7127, 37.908] }},
{"zip_code":"24474","country":"US","city":"Selma","state":"Virginia","state_ab":"VA","county":"Alleghany","geo_location":{ "type": "Point", "coordinates": [-79.8404, 37.8062] }},
{"zip_code":"22207","country":"US","city":"Arlington","state":"Virginia","state_ab":"VA","county":"Arlington","geo_location":{ "type": "Point", "coordinates": [-77.1263, 38.9033] }},
{"zip_code":"22234","country":"US","city":"Arlington","state":"Virginia","state_ab":"VA","county":"Arlington","geo_location":{ "type": "Point", "coordinates": [-77.1129, 38.8808] }},
{"zip_code":"24407","country":"US","city":"Staunton","state":"Virginia","state_ab":"VA","county":"Augusta","geo_location":{ "type": "Point", "coordinates": [-79.1413, 38.1797] }},
{"zip_code":"24421","country":"US","city":"Churchville","state":"Virginia","state_ab":"VA","county":"Augusta","geo_location":{ "type": "Point", "coordinates": [-79.1791, 38.2346] }},
{"zip_code":"24487","country":"US","city":"Williamsville","state":"Virginia","state_ab":"VA","county":"Bath","geo_location":{ "type": "Point", "coordinates": [-79.5879, 38.1898] }},
{"zip_code":"24551","country":"US","city":"Forest","state":"Virginia","state_ab":"VA","county":"Bedford","geo_location":{ "type": "Point", "coordinates": [-79.2791, 37.3379] }},
{"zip_code":"23857","country":"US","city":"Gasburg","state":"Virginia","state_ab":"VA","county":"Brunswick","geo_location":{ "type": "Point", "coordinates": [-77.8836, 36.5856] }},
{"zip_code":"24614","country":"US","city":"Grundy","state":"Virginia","state_ab":"VA","county":"Buchanan","geo_location":{ "type": "Point", "coordinates": [-82.1061, 37.2967] }},
{"zip_code":"24627","country":"US","city":"Mavisdale","state":"Virginia","state_ab":"VA","county":"Buchanan","geo_location":{ "type": "Point", "coordinates": [-82.0274, 37.288] }},
{"zip_code":"23004","country":"US","city":"Arvonia","state":"Virginia","state_ab":"VA","county":"Buckingham","geo_location":{ "type": "Point", "coordinates": [-78.3889, 37.6714] }},
{"zip_code":"23921","country":"US","city":"Buckingham","state":"Virginia","state_ab":"VA","county":"Buckingham","geo_location":{ "type": "Point", "coordinates": [-78.5985, 37.5833] }},
{"zip_code":"22427","country":"US","city":"Bowling Green","state":"Virginia","state_ab":"VA","county":"Caroline","geo_location":{ "type": "Point", "coordinates": [-77.1802, 38.0137] }},
{"zip_code":"24317","country":"US","city":"Cana","state":"Virginia","state_ab":"VA","county":"Carroll","geo_location":{ "type": "Point", "coordinates": [-80.6705, 36.5957] }},
{"zip_code":"23147","country":"US","city":"Ruthville","state":"Virginia","state_ab":"VA","county":"Charles City","geo_location":{ "type": "Point", "coordinates": [-77.0348, 37.3796] }},
{"zip_code":"23934","country":"US","city":"Cullen","state":"Virginia","state_ab":"VA","county":"Charlotte","geo_location":{ "type": "Point", "coordinates": [-78.6459, 37.1552] }},
{"zip_code":"23947","country":"US","city":"Keysville","state":"Virginia","state_ab":"VA","county":"Charlotte","geo_location":{ "type": "Point", "coordinates": [-78.4699, 37.0411] }},
{"zip_code":"23237","country":"US","city":"Richmond","state":"Virginia","state_ab":"VA","county":"Chesterfield","geo_location":{ "type": "Point", "coordinates": [-77.4615, 37.4011] }},
{"zip_code":"23831","country":"US","city":"Chester","state":"Virginia","state_ab":"VA","county":"Chesterfield","geo_location":{ "type": "Point", "coordinates": [-77.4156, 37.3429] }},
{"zip_code":"22724","country":"US","city":"Jeffersonton","state":"Virginia","state_ab":"VA","county":"Culpeper","geo_location":{ "type": "Point", "coordinates": [-77.9069, 38.6256] }},
{"zip_code":"22737","country":"US","city":"Rixeyville","state":"Virginia","state_ab":"VA","county":"Culpeper","geo_location":{ "type": "Point", "coordinates": [-78.0282, 38.5852] }},
{"zip_code":"22454","country":"US","city":"Dunnsville","state":"Virginia","state_ab":"VA","county":"Essex","geo_location":{ "type": "Point", "coordinates": [-76.8475, 37.8527] }},
{"zip_code":"22504","country":"US","city":"Laneview","state":"Virginia","state_ab":"VA","county":"Essex","geo_location":{ "type": "Point", "coordinates": [-76.7117, 37.7681] }},
{"zip_code":"20124","country":"US","city":"Clifton","state":"Virginia","state_ab":"VA","county":"Fairfax","geo_location":{ "type": "Point", "coordinates": [-77.3818, 38.7818] }},
{"zip_code":"20151","country":"US","city":"Chantilly","state":"Virginia","state_ab":"VA","county":"Fairfax","geo_location":{ "type": "Point", "coordinates": [-77.4457, 38.8867] }},
{"zip_code":"20191","country":"US","city":"Reston","state":"Virginia","state_ab":"VA","county":"Fairfax","geo_location":{ "type": "Point", "coordinates": [-77.3527, 38.9318] }},
{"zip_code":"22027","country":"US","city":"Dunn Loring","state":"Virginia","state_ab":"VA","county":"Fairfax","geo_location":{ "type": "Point", "coordinates": [-77.2214, 38.8954] }},
{"zip_code":"22041","country":"US","city":"Falls Church","state":"Virginia","state_ab":"VA","county":"Fairfax","geo_location":{ "type": "Point", "coordinates": [-77.1448, 38.8502] }},
{"zip_code":"22067","country":"US","city":"Greenway","state":"Virginia","state_ab":"VA","county":"Fairfax","geo_location":{ "type": "Point", "coordinates": [-77.2331, 38.9645] }},
{"zip_code":"22081","country":"US","city":"Merrifield","state":"Virginia","state_ab":"VA","county":"Fairfax","geo_location":{ "type": "Point", "coordinates": [-77.2345, 38.8739] }},
{"zip_code":"22094","country":"US","city":"Reston","state":"Virginia","state_ab":"VA","county":"Fairfax County","geo_location":{ "type": "Point", "coordinates": [-77.3504, 38.9758] }},
{"zip_code":"22184","country":"US","city":"Vienna","state":"Virginia","state_ab":"VA","county":"Fairfax","geo_location":{ "type": "Point", "coordinates": [-77.2888, 38.8318] }},
{"zip_code":"20137","country":"US","city":"Broad Run","state":"Virginia","state_ab":"VA","county":"Fauquier","geo_location":{ "type": "Point", "coordinates": [-77.7368, 38.8195] }},
{"zip_code":"22014","country":"US","city":"Broad Run","state":"Virginia","state_ab":"VA","county":"Fauquier County","geo_location":{ "type": "Point", "coordinates": [-77.6864, 38.8292] }},
{"zip_code":"23084","country":"US","city":"Kents Store","state":"Virginia","state_ab":"VA","county":"Fluvanna","geo_location":{ "type": "Point", "coordinates": [-78.1208, 37.8942] }},
{"zip_code":"24137","country":"US","city":"Penhook","state":"Virginia","state_ab":"VA","county":"Franklin","geo_location":{ "type": "Point", "coordinates": [-79.6645, 36.9201] }},
{"zip_code":"24151","country":"US","city":"Rocky Mount","state":"Virginia","state_ab":"VA","county":"Franklin","geo_location":{ "type": "Point", "coordinates": [-79.884, 36.9891] }},
{"zip_code":"24124","country":"US","city":"Narrows","state":"Virginia","state_ab":"VA","county":"Giles","geo_location":{ "type": "Point", "coordinates": [-80.8548, 37.3198] }},
{"zip_code":"23017","country":"US","city":"Bellamy","state":"Virginia","state_ab":"VA","county":"Gloucester","geo_location":{ "type": "Point", "coordinates": [-76.5084, 37.4182] }},
{"zip_code":"23107","country":"US","city":"Maryus","state":"Virginia","state_ab":"VA","county":"Gloucester","geo_location":{ "type": "Point", "coordinates": [-76.4048, 37.2864] }},
{"zip_code":"24577","country":"US","city":"Nathalie","state":"Virginia","state_ab":"VA","county":"Halifax","geo_location":{ "type": "Point", "coordinates": [-78.972, 36.9356] }},
{"zip_code":"23314","country":"US","city":"Carrollton","state":"Virginia","state_ab":"VA","county":"Isle of Wight","geo_location":{ "type": "Point", "coordinates": [-76.543, 36.955] }},
{"zip_code":"23431","country":"US","city":"Smithfield","state":"Virginia","state_ab":"VA","county":"Isle of Wight","geo_location":{ "type": "Point", "coordinates": [-76.6877, 36.8989] }},
{"zip_code":"23161","country":"US","city":"Stevensville","state":"Virginia","state_ab":"VA","county":"King and Queen","geo_location":{ "type": "Point", "coordinates": [-76.9352, 37.7146] }},
{"zip_code":"22481","country":"US","city":"Jersey","state":"Virginia","state_ab":"VA","county":"King George","geo_location":{ "type": "Point", "coordinates": [-77.1726, 38.2711] }},
{"zip_code":"22544","country":"US","city":"Rollins Fork","state":"Virginia","state_ab":"VA","county":"King George","geo_location":{ "type": "Point", "coordinates": [-77.1726, 38.2711] }},
{"zip_code":"22517","country":"US","city":"Mollusk","state":"Virginia","state_ab":"VA","county":"Lancaster","geo_location":{ "type": "Point", "coordinates": [-76.5781, 37.7503] }},
{"zip_code":"24281","country":"US","city":"Rose Hill","state":"Virginia","state_ab":"VA","county":"Lee","geo_location":{ "type": "Point", "coordinates": [-83.3486, 36.6583] }},
{"zip_code":"20164","country":"US","city":"Sterling","state":"Virginia","state_ab":"VA","county":"Loudoun","geo_location":{ "type": "Point", "coordinates": [-77.3994, 39.023] }},
{"zip_code":"20177","country":"US","city":"Leesburg","state":"Virginia","state_ab":"VA","county":"Loudoun","geo_location":{ "type": "Point", "coordinates": [-77.6669, 39.1581] }},
{"zip_code":"22001","country":"US","city":"Aldie","state":"Virginia","state_ab":"VA","county":"Loudoun County","geo_location":{ "type": "Point", "coordinates": [-77.6005, 38.9604] }},
{"zip_code":"22117","country":"US","city":"Middleburg","state":"Virginia","state_ab":"VA","county":"Loudoun County","geo_location":{ "type": "Point", "coordinates": [-77.7327, 38.9966] }},
{"zip_code":"22131","country":"US","city":"Philomont","state":"Virginia","state_ab":"VA","county":"Loudoun County","geo_location":{ "type": "Point", "coordinates": [-77.7404, 39.0561] }},
{"zip_code":"23974","country":"US","city":"Victoria","state":"Virginia","state_ab":"VA","county":"Lunenburg","geo_location":{ "type": "Point", "coordinates": [-78.2372, 36.9835] }},
{"zip_code":"22711","country":"US","city":"Banco","state":"Virginia","state_ab":"VA","county":"Madison","geo_location":{ "type": "Point", "coordinates": [-78.2678, 38.4285] }},
{"zip_code":"23031","country":"US","city":"Christchurch","state":"Virginia","state_ab":"VA","county":"Middlesex","geo_location":{ "type": "Point", "coordinates": [-76.4476, 37.5984] }},
{"zip_code":"23071","country":"US","city":"Hartfield","state":"Virginia","state_ab":"VA","county":"Middlesex","geo_location":{ "type": "Point", "coordinates": [-76.4769, 37.5594] }},
{"zip_code":"24061","country":"US","city":"Blacksburg","state":"Virginia","state_ab":"VA","county":"Montgomery","geo_location":{ "type": "Point", "coordinates": [-80.3515, 37.1791] }},
{"zip_code":"24111","country":"US","city":"Mc Coy","state":"Virginia","state_ab":"VA","county":"Montgomery","geo_location":{ "type": "Point", "coordinates": [-80.3957, 37.1742] }},
{"zip_code":"22971","country":"US","city":"Shipman","state":"Virginia","state_ab":"VA","county":"Nelson","geo_location":{ "type": "Point", "coordinates": [-78.8105, 37.76] }},
{"zip_code":"23354","country":"US","city":"Franktown","state":"Virginia","state_ab":"VA","county":"Northampton","geo_location":{ "type": "Point", "coordinates": [-75.9007, 37.4588] }},
{"zip_code":"23484","country":"US","city":"Weirwood","state":"Virginia","state_ab":"VA","county":"Northampton County","geo_location":{ "type": "Point", "coordinates": [-75.8885, 37.4629] }},
{"zip_code":"22957","country":"US","city":"Montpelier Station","state":"Virginia","state_ab":"VA","county":"Orange","geo_location":{ "type": "Point", "coordinates": [-78.1768, 38.227] }},
{"zip_code":"22171","country":"US","city":"The Plains","state":"Virginia","state_ab":"VA","county":"Patrick County","geo_location":{ "type": "Point", "coordinates": [-77.7671, 38.8769] }},
{"zip_code":"24177","country":"US","city":"Vesta","state":"Virginia","state_ab":"VA","county":"Patrick","geo_location":{ "type": "Point", "coordinates": [-80.3581, 36.7241] }},
{"zip_code":"24087","country":"US","city":"Elliston","state":"Virginia","state_ab":"VA","county":"Roanoke","geo_location":{ "type": "Point", "coordinates": [-80.1848, 37.2257] }},
{"zip_code":"22827","country":"US","city":"Elkton","state":"Virginia","state_ab":"VA","county":"Rockingham","geo_location":{ "type": "Point", "coordinates": [-78.6321, 38.4025] }},
{"zip_code":"22841","country":"US","city":"Mount Crawford","state":"Virginia","state_ab":"VA","county":"Rockingham","geo_location":{ "type": "Point", "coordinates": [-78.8957, 38.3457] }},
{"zip_code":"23844","country":"US","city":"Drewryville","state":"Virginia","state_ab":"VA","county":"Southampton","geo_location":{ "type": "Point", "coordinates": [-77.3591, 36.6854] }},
{"zip_code":"23884","country":"US","city":"Sussex","state":"Virginia","state_ab":"VA","county":"Sussex","geo_location":{ "type": "Point", "coordinates": [-77.2539, 36.9457] }},
{"zip_code":"23897","country":"US","city":"Yale","state":"Virginia","state_ab":"VA","county":"Sussex","geo_location":{ "type": "Point", "coordinates": [-77.287, 36.8373] }},
{"zip_code":"24601","country":"US","city":"Amonate","state":"Virginia","state_ab":"VA","county":"Tazewell","geo_location":{ "type": "Point", "coordinates": [-81.5634, 37.1355] }},
{"zip_code":"24641","country":"US","city":"Richlands","state":"Virginia","state_ab":"VA","county":"Tazewell","geo_location":{ "type": "Point", "coordinates": [-81.8123, 37.0941] }},
{"zip_code":"23691","country":"US","city":"Yorktown","state":"Virginia","state_ab":"VA","county":"York","geo_location":{ "type": "Point", "coordinates": [-76.552, 37.2517] }},
{"zip_code":"22311","country":"US","city":"Alexandria","state":"Virginia","state_ab":"VA","county":"Alexandria (city)","geo_location":{ "type": "Point", "coordinates": [-77.12, 38.832] }},
{"zip_code":"24201","country":"US","city":"Bristol","state":"Virginia","state_ab":"VA","county":"Bristol (city)","geo_location":{ "type": "Point", "coordinates": [-82.1823, 36.6181] }},
{"zip_code":"22904","country":"US","city":"Charlottesville","state":"Virginia","state_ab":"VA","county":"Charlottesville (city)","geo_location":{ "type": "Point", "coordinates": [-78.4851, 38.0401] }},
{"zip_code":"23327","country":"US","city":"Chesapeake","state":"Virginia","state_ab":"VA","county":"Chesapeake (city)","geo_location":{ "type": "Point", "coordinates": [-76.2785, 36.7085] }},
{"zip_code":"22401","country":"US","city":"Fredericksburg","state":"Virginia","state_ab":"VA","county":"Fredericksburg (city)","geo_location":{ "type": "Point", "coordinates": [-77.4772, 38.2995] }},
{"zip_code":"23651","country":"US","city":"Fort Monroe","state":"Virginia","state_ab":"VA","county":"Hampton (city)","geo_location":{ "type": "Point", "coordinates": [-76.3044, 37.018] }},
{"zip_code":"23664","country":"US","city":"Hampton","state":"Virginia","state_ab":"VA","county":"Hampton (city)","geo_location":{ "type": "Point", "coordinates": [-76.2966, 37.0566] }},
{"zip_code":"22801","country":"US","city":"Harrisonburg","state":"Virginia","state_ab":"VA","county":"Harrisonburg (city)","geo_location":{ "type": "Point", "coordinates": [-78.8714, 38.4489] }},
{"zip_code":"20111","country":"US","city":"Manassas","state":"Virginia","state_ab":"VA","county":"Manassas Park (city)","geo_location":{ "type": "Point", "coordinates": [-77.4494, 38.7707] }},
{"zip_code":"23507","country":"US","city":"Norfolk","state":"Virginia","state_ab":"VA","county":"Norfolk (city)","geo_location":{ "type": "Point", "coordinates": [-76.3004, 36.8645] }},
{"zip_code":"23804","country":"US","city":"Petersburg","state":"Virginia","state_ab":"VA","county":"Petersburg (city)","geo_location":{ "type": "Point", "coordinates": [-77.3928, 37.2048] }},
{"zip_code":"23701","country":"US","city":"Portsmouth","state":"Virginia","state_ab":"VA","county":"Portsmouth (city)","geo_location":{ "type": "Point", "coordinates": [-76.3671, 36.8089] }},
{"zip_code":"23211","country":"US","city":"Richmond","state":"Virginia","state_ab":"VA","county":"City of Richmond","geo_location":{ "type": "Point", "coordinates": [-77.4471, 37.5593] }},
{"zip_code":"23224","country":"US","city":"Richmond","state":"Virginia","state_ab":"VA","county":"Richmond (city)","geo_location":{ "type": "Point", "coordinates": [-77.471, 37.4955] }},
{"zip_code":"23277","country":"US","city":"Richmond","state":"Virginia","state_ab":"VA","county":"City of Richmond","geo_location":{ "type": "Point", "coordinates": [-77.4604, 37.5535] }},
{"zip_code":"23291","country":"US","city":"Richmond","state":"Virginia","state_ab":"VA","county":"Richmond (city)","geo_location":{ "type": "Point", "coordinates": [-77.4932, 37.5242] }},
{"zip_code":"24007","country":"US","city":"Roanoke","state":"Virginia","state_ab":"VA","county":"Roanoke (city)","geo_location":{ "type": "Point", "coordinates": [-79.9579, 37.2742] }},
{"zip_code":"24034","country":"US","city":"Roanoke","state":"Virginia","state_ab":"VA","county":"Roanoke (city)","geo_location":{ "type": "Point", "coordinates": [-79.9579, 37.2742] }},
{"zip_code":"23457","country":"US","city":"Virginia Beach","state":"Virginia","state_ab":"VA","county":"Virginia Beach (city)","geo_location":{ "type": "Point", "coordinates": [-76.0249, 36.6224] }},
{"zip_code":"23471","country":"US","city":"Virginia Beach","state":"Virginia","state_ab":"VA","county":"Virginia Beach (city)","geo_location":{ "type": "Point", "coordinates": [-76.0126, 36.7957] }},
{"zip_code":"23521","country":"US","city":"Norfolk","state":"Virginia","state_ab":"VA","county":"Virginia Beach (city)","geo_location":{ "type": "Point", "coordinates": [-76.1472, 36.9131] }},
{"zip_code":"23187","country":"US","city":"Williamsburg","state":"Virginia","state_ab":"VA","county":"Williamsburg (city)","geo_location":{ "type": "Point", "coordinates": [-76.7468, 37.3105] }},
{"zip_code":"5251","country":"US","city":"Dorset","state":"Vermont","state_ab":"VT","county":"Bennington","geo_location":{ "type": "Point", "coordinates": [-73.0766, 43.2636] }},
{"zip_code":"5871","country":"US","city":"West Burke","state":"Vermont","state_ab":"VT","county":"Caledonia","geo_location":{ "type": "Point", "coordinates": [-71.9572, 44.6636] }},
{"zip_code":"5404","country":"US","city":"Winooski","state":"Vermont","state_ab":"VT","county":"Chittenden","geo_location":{ "type": "Point", "coordinates": [-73.1874, 44.4949] }},
{"zip_code":"5907","country":"US","city":"Norton","state":"Vermont","state_ab":"VT","county":"Essex","geo_location":{ "type": "Point", "coordinates": [-71.7884, 44.9888] }},
{"zip_code":"5457","country":"US","city":"Franklin","state":"Vermont","state_ab":"VT","county":"Franklin","geo_location":{ "type": "Point", "coordinates": [-72.9037, 44.9614] }},
{"zip_code":"5471","country":"US","city":"Montgomery Center","state":"Vermont","state_ab":"VT","county":"Franklin","geo_location":{ "type": "Point", "coordinates": [-72.6198, 44.8482] }},
{"zip_code":"5444","country":"US","city":"Cambridge","state":"Vermont","state_ab":"VT","county":"Lamoille","geo_location":{ "type": "Point", "coordinates": [-72.8812, 44.6222] }},
{"zip_code":"5044","country":"US","city":"Ely","state":"Vermont","state_ab":"VT","county":"Orange County","geo_location":{ "type": "Point", "coordinates": [-72.1769, 43.8764] }},
{"zip_code":"5857","country":"US","city":"Newport Center","state":"Vermont","state_ab":"VT","county":"Orleans","geo_location":{ "type": "Point", "coordinates": [-72.2974, 44.9442] }},
{"zip_code":"5701","country":"US","city":"Rutland","state":"Vermont","state_ab":"VT","county":"Rutland","geo_location":{ "type": "Point", "coordinates": [-72.9708, 43.6141] }},
{"zip_code":"5741","country":"US","city":"East Poultney","state":"Vermont","state_ab":"VT","county":"Rutland","geo_location":{ "type": "Point", "coordinates": [-72.8181, 43.592] }},
{"zip_code":"5651","country":"US","city":"East Montpelier","state":"Vermont","state_ab":"VT","county":"Washington","geo_location":{ "type": "Point", "coordinates": [-72.4926, 44.2828] }},
{"zip_code":"5664","country":"US","city":"Northfield Falls","state":"Vermont","state_ab":"VT","county":"Washington","geo_location":{ "type": "Point", "coordinates": [-72.6466, 44.1835] }},
{"zip_code":"5677","country":"US","city":"Waterbury Center","state":"Vermont","state_ab":"VT","county":"Washington","geo_location":{ "type": "Point", "coordinates": [-72.708, 44.3828] }},
{"zip_code":"5301","country":"US","city":"Brattleboro","state":"Vermont","state_ab":"VT","county":"Windham","geo_location":{ "type": "Point", "coordinates": [-72.5933, 42.8574] }},
{"zip_code":"5341","country":"US","city":"East Dover","state":"Vermont","state_ab":"VT","county":"Windham","geo_location":{ "type": "Point", "coordinates": [-72.783, 42.9505] }},
{"zip_code":"5354","country":"US","city":"Vernon","state":"Vermont","state_ab":"VT","county":"Windham","geo_location":{ "type": "Point", "coordinates": [-72.5115, 42.7565] }},
{"zip_code":"5031","country":"US","city":"Barnard","state":"Vermont","state_ab":"VT","county":"Windsor","geo_location":{ "type": "Point", "coordinates": [-72.5459, 43.6576] }},
{"zip_code":"5071","country":"US","city":"South Woodstock","state":"Vermont","state_ab":"VT","county":"Windsor","geo_location":{ "type": "Point", "coordinates": [-72.5384, 43.5601] }},
{"zip_code":"5084","country":"US","city":"West Hartford","state":"Vermont","state_ab":"VT","county":"Windsor","geo_location":{ "type": "Point", "coordinates": [-72.4439, 43.7185] }},
{"zip_code":"5161","country":"US","city":"Weston","state":"Vermont","state_ab":"VT","county":"Windsor","geo_location":{ "type": "Point", "coordinates": [-72.7935, 43.2941] }},
{"zip_code":"5767","country":"US","city":"Rochester","state":"Vermont","state_ab":"VT","county":"Windsor","geo_location":{ "type": "Point", "coordinates": [-72.8159, 43.8804] }},
{"zip_code":"99344","country":"US","city":"Othello","state":"Washington","state_ab":"WA","county":"Adams","geo_location":{ "type": "Point", "coordinates": [-118.9932, 46.8527] }},
{"zip_code":"99371","country":"US","city":"Washtucna","state":"Washington","state_ab":"WA","county":"Adams","geo_location":{ "type": "Point", "coordinates": [-118.2862, 46.8209] }},
{"zip_code":"98817","country":"US","city":"Chelan Falls","state":"Washington","state_ab":"WA","county":"Chelan","geo_location":{ "type": "Point", "coordinates": [-119.9579, 47.8418] }},
{"zip_code":"98831","country":"US","city":"Manson","state":"Washington","state_ab":"WA","county":"Chelan","geo_location":{ "type": "Point", "coordinates": [-120.149, 47.8958] }},
{"zip_code":"98381","country":"US","city":"Sekiu","state":"Washington","state_ab":"WA","county":"Clallam","geo_location":{ "type": "Point", "coordinates": [-124.4685, 48.3032] }},
{"zip_code":"98664","country":"US","city":"Vancouver","state":"Washington","state_ab":"WA","county":"Clark","geo_location":{ "type": "Point", "coordinates": [-122.5767, 45.6231] }},
{"zip_code":"98611","country":"US","city":"Castle Rock","state":"Washington","state_ab":"WA","county":"Cowlitz","geo_location":{ "type": "Point", "coordinates": [-122.9139, 46.2783] }},
{"zip_code":"98857","country":"US","city":"Warden","state":"Washington","state_ab":"WA","county":"Grant","geo_location":{ "type": "Point", "coordinates": [-119.0539, 46.977] }},
{"zip_code":"99357","country":"US","city":"Royal City","state":"Washington","state_ab":"WA","county":"Grant","geo_location":{ "type": "Point", "coordinates": [-119.5815, 46.9156] }},
{"zip_code":"98547","country":"US","city":"Grayland","state":"Washington","state_ab":"WA","county":"Grays Harbor","geo_location":{ "type": "Point", "coordinates": [-124.094, 46.8264] }},
{"zip_code":"98587","country":"US","city":"Taholah","state":"Washington","state_ab":"WA","county":"Grays Harbor","geo_location":{ "type": "Point", "coordinates": [-124.2827, 47.3407] }},
{"zip_code":"98277","country":"US","city":"Oak Harbor","state":"Washington","state_ab":"WA","county":"Island","geo_location":{ "type": "Point", "coordinates": [-122.6374, 48.3151] }},
{"zip_code":"98004","country":"US","city":"Bellevue","state":"Washington","state_ab":"WA","county":"King","geo_location":{ "type": "Point", "coordinates": [-122.2072, 47.6155] }},
{"zip_code":"98031","country":"US","city":"Kent","state":"Washington","state_ab":"WA","county":"King","geo_location":{ "type": "Point", "coordinates": [-122.1932, 47.388] }},
{"zip_code":"98057","country":"US","city":"Renton","state":"Washington","state_ab":"WA","county":"King","geo_location":{ "type": "Point", "coordinates": [-122.2203, 47.4714] }},
{"zip_code":"98071","country":"US","city":"Auburn","state":"Washington","state_ab":"WA","county":"King","geo_location":{ "type": "Point", "coordinates": [-121.8034, 47.4323] }},
{"zip_code":"98107","country":"US","city":"Seattle","state":"Washington","state_ab":"WA","county":"King","geo_location":{ "type": "Point", "coordinates": [-122.3763, 47.6701] }},
{"zip_code":"98121","country":"US","city":"Seattle","state":"Washington","state_ab":"WA","county":"King","geo_location":{ "type": "Point", "coordinates": [-122.3447, 47.6151] }},
{"zip_code":"98134","country":"US","city":"Seattle","state":"Washington","state_ab":"WA","county":"King","geo_location":{ "type": "Point", "coordinates": [-122.3263, 47.5903] }},
{"zip_code":"98161","country":"US","city":"Seattle","state":"Washington","state_ab":"WA","county":"King","geo_location":{ "type": "Point", "coordinates": [-121.8034, 47.4323] }},
{"zip_code":"98174","country":"US","city":"Seattle","state":"Washington","state_ab":"WA","county":"King","geo_location":{ "type": "Point", "coordinates": [-121.8034, 47.4323] }},
{"zip_code":"98224","country":"US","city":"Baring","state":"Washington","state_ab":"WA","county":"King","geo_location":{ "type": "Point", "coordinates": [-121.4814, 47.7671] }},
{"zip_code":"98314","country":"US","city":"Bremerton","state":"Washington","state_ab":"WA","county":"Kitsap","geo_location":{ "type": "Point", "coordinates": [-122.6492, 47.5593] }},
{"zip_code":"98367","country":"US","city":"Port Orchard","state":"Washington","state_ab":"WA","county":"Kitsap","geo_location":{ "type": "Point", "coordinates": [-122.651, 47.4707] }},
{"zip_code":"98934","country":"US","city":"Kittitas","state":"Washington","state_ab":"WA","county":"Kittitas","geo_location":{ "type": "Point", "coordinates": [-120.4163, 46.9806] }},
{"zip_code":"98844","country":"US","city":"Oroville","state":"Washington","state_ab":"WA","county":"Okanogan","geo_location":{ "type": "Point", "coordinates": [-119.4032, 48.9397] }},
{"zip_code":"99124","country":"US","city":"Elmer City","state":"Washington","state_ab":"WA","county":"Okanogan","geo_location":{ "type": "Point", "coordinates": [-118.9549, 48.0154] }},
{"zip_code":"98561","country":"US","city":"Menlo","state":"Washington","state_ab":"WA","county":"Pacific","geo_location":{ "type": "Point", "coordinates": [-123.769, 46.5146] }},
{"zip_code":"98624","country":"US","city":"Ilwaco","state":"Washington","state_ab":"WA","county":"Pacific","geo_location":{ "type": "Point", "coordinates": [-124.0282, 46.3142] }},
{"zip_code":"98637","country":"US","city":"Nahcotta","state":"Washington","state_ab":"WA","county":"Pacific","geo_location":{ "type": "Point", "coordinates": [-123.769, 46.5146] }},
{"zip_code":"98327","country":"US","city":"Dupont","state":"Washington","state_ab":"WA","county":"Pierce","geo_location":{ "type": "Point", "coordinates": [-122.6567, 47.0909] }},
{"zip_code":"98354","country":"US","city":"Milton","state":"Washington","state_ab":"WA","county":"Pierce","geo_location":{ "type": "Point", "coordinates": [-122.3155, 47.2483] }},
{"zip_code":"98394","country":"US","city":"Vaughn","state":"Washington","state_ab":"WA","county":"Pierce","geo_location":{ "type": "Point", "coordinates": [-122.7736, 47.3309] }},
{"zip_code":"98404","country":"US","city":"Tacoma","state":"Washington","state_ab":"WA","county":"Pierce","geo_location":{ "type": "Point", "coordinates": [-122.4126, 47.2113] }},
{"zip_code":"98417","country":"US","city":"Tacoma","state":"Washington","state_ab":"WA","county":"Pierce County","geo_location":{ "type": "Point", "coordinates": [-122.4822, 47.2061] }},
{"zip_code":"98431","country":"US","city":"Tacoma","state":"Washington","state_ab":"WA","county":"Pierce","geo_location":{ "type": "Point", "coordinates": [-122.1132, 47.0662] }},
{"zip_code":"98444","country":"US","city":"Tacoma","state":"Washington","state_ab":"WA","county":"Pierce","geo_location":{ "type": "Point", "coordinates": [-122.4572, 47.1464] }},
{"zip_code":"98471","country":"US","city":"Tacoma","state":"Washington","state_ab":"WA","county":"Pierce","geo_location":{ "type": "Point", "coordinates": [-122.1132, 47.0662] }},
{"zip_code":"98497","country":"US","city":"Lakewood","state":"Washington","state_ab":"WA","county":"Pierce","geo_location":{ "type": "Point", "coordinates": [-122.1132, 47.0662] }},
{"zip_code":"98237","country":"US","city":"Concrete","state":"Washington","state_ab":"WA","county":"Skagit","geo_location":{ "type": "Point", "coordinates": [-121.6643, 48.531] }},
{"zip_code":"98651","country":"US","city":"Underwood","state":"Washington","state_ab":"WA","county":"Skamania","geo_location":{ "type": "Point", "coordinates": [-121.5974, 45.7409] }},
{"zip_code":"98251","country":"US","city":"Gold Bar","state":"Washington","state_ab":"WA","county":"Snohomish","geo_location":{ "type": "Point", "coordinates": [-121.6365, 47.8331] }},
{"zip_code":"98291","country":"US","city":"Snohomish","state":"Washington","state_ab":"WA","county":"Snohomish","geo_location":{ "type": "Point", "coordinates": [-122.0501, 47.9095] }},
{"zip_code":"99021","country":"US","city":"Mead","state":"Washington","state_ab":"WA","county":"Spokane","geo_location":{ "type": "Point", "coordinates": [-117.3117, 47.7933] }},
{"zip_code":"99201","country":"US","city":"Spokane","state":"Washington","state_ab":"WA","county":"Spokane","geo_location":{ "type": "Point", "coordinates": [-117.4365, 47.6665] }},
{"zip_code":"99214","country":"US","city":"Spokane","state":"Washington","state_ab":"WA","county":"Spokane","geo_location":{ "type": "Point", "coordinates": [-117.4317, 47.6536] }},
{"zip_code":"99254","country":"US","city":"Spokane","state":"Washington","state_ab":"WA","county":"Spokane County","geo_location":{ "type": "Point", "coordinates": [-117.424, 47.6581] }},
{"zip_code":"99034","country":"US","city":"Tumtum","state":"Washington","state_ab":"WA","county":"Stevens","geo_location":{ "type": "Point", "coordinates": [-117.7536, 47.8941] }},
{"zip_code":"99137","country":"US","city":"Hunters","state":"Washington","state_ab":"WA","county":"Stevens","geo_location":{ "type": "Point", "coordinates": [-118.1525, 48.1333] }},
{"zip_code":"99151","country":"US","city":"Marcus","state":"Washington","state_ab":"WA","county":"Stevens","geo_location":{ "type": "Point", "coordinates": [-117.924, 48.7868] }},
{"zip_code":"98507","country":"US","city":"Olympia","state":"Washington","state_ab":"WA","county":"Thurston","geo_location":{ "type": "Point", "coordinates": [-122.7024, 46.9781] }},
{"zip_code":"98264","country":"US","city":"Lynden","state":"Washington","state_ab":"WA","county":"Whatcom","geo_location":{ "type": "Point", "coordinates": [-122.4592, 48.9372] }},
{"zip_code":"99111","country":"US","city":"Colfax","state":"Washington","state_ab":"WA","county":"Whitman","geo_location":{ "type": "Point", "coordinates": [-117.367, 46.88] }},
{"zip_code":"99164","country":"US","city":"Pullman","state":"Washington","state_ab":"WA","county":"Whitman","geo_location":{ "type": "Point", "coordinates": [-117.6443, 46.8387] }},
{"zip_code":"98907","country":"US","city":"Yakima","state":"Washington","state_ab":"WA","county":"Yakima","geo_location":{ "type": "Point", "coordinates": [-120.574, 46.6288] }},
{"zip_code":"98921","country":"US","city":"Buena","state":"Washington","state_ab":"WA","county":"Yakima","geo_location":{ "type": "Point", "coordinates": [-120.3151, 46.4212] }},
{"zip_code":"98947","country":"US","city":"Tieton","state":"Washington","state_ab":"WA","county":"Yakima","geo_location":{ "type": "Point", "coordinates": [-120.7473, 46.7063] }},
{"zip_code":"54857","country":"US","city":"Mikana","state":"Wisconsin","state_ab":"WI","county":"Barron","geo_location":{ "type": "Point", "coordinates": [-91.6196, 45.6096] }},
{"zip_code":"54844","country":"US","city":"Herbster","state":"Wisconsin","state_ab":"WI","county":"Bayfield","geo_location":{ "type": "Point", "coordinates": [-91.2332, 46.8213] }},
{"zip_code":"54301","country":"US","city":"Green Bay","state":"Wisconsin","state_ab":"WI","county":"Brown","geo_location":{ "type": "Point", "coordinates": [-88.0205, 44.482] }},
{"zip_code":"53014","country":"US","city":"Chilton","state":"Wisconsin","state_ab":"WI","county":"Calumet","geo_location":{ "type": "Point", "coordinates": [-88.1827, 44.0242] }},
{"zip_code":"54727","country":"US","city":"Cadott","state":"Wisconsin","state_ab":"WI","county":"Chippewa","geo_location":{ "type": "Point", "coordinates": [-91.1699, 44.963] }},
{"zip_code":"53957","country":"US","city":"Randolph","state":"Wisconsin","state_ab":"WI","county":"Columbia","geo_location":{ "type": "Point", "coordinates": [-89.0068, 43.5352] }},
{"zip_code":"53517","country":"US","city":"Blue Mounds","state":"Wisconsin","state_ab":"WI","county":"Dane","geo_location":{ "type": "Point", "coordinates": [-89.8345, 43.005] }},
{"zip_code":"53531","country":"US","city":"Deerfield","state":"Wisconsin","state_ab":"WI","county":"Dane","geo_location":{ "type": "Point", "coordinates": [-89.0862, 43.0571] }},
{"zip_code":"53571","country":"US","city":"Morrisonville","state":"Wisconsin","state_ab":"WI","county":"Dane","geo_location":{ "type": "Point", "coordinates": [-89.3564, 43.2773] }},
{"zip_code":"53597","country":"US","city":"Waunakee","state":"Wisconsin","state_ab":"WI","county":"Dane","geo_location":{ "type": "Point", "coordinates": [-89.4532, 43.1818] }},
{"zip_code":"53711","country":"US","city":"Madison","state":"Wisconsin","state_ab":"WI","county":"Dane","geo_location":{ "type": "Point", "coordinates": [-89.4526, 43.0356] }},
{"zip_code":"53777","country":"US","city":"Madison","state":"Wisconsin","state_ab":"WI","county":"Dane","geo_location":{ "type": "Point", "coordinates": [-89.4239, 43.0696] }},
{"zip_code":"53791","country":"US","city":"Madison","state":"Wisconsin","state_ab":"WI","county":"Dane","geo_location":{ "type": "Point", "coordinates": [-89.4239, 43.0696] }},
{"zip_code":"53557","country":"US","city":"Lowell","state":"Wisconsin","state_ab":"WI","county":"Dodge","geo_location":{ "type": "Point", "coordinates": [-88.7873, 43.342] }},
{"zip_code":"53917","country":"US","city":"Beaver Dam","state":"Wisconsin","state_ab":"WI","county":"Dodge","geo_location":{ "type": "Point", "coordinates": [-88.7049, 43.4142] }},
{"zip_code":"54211","country":"US","city":"Ephraim","state":"Wisconsin","state_ab":"WI","county":"Door","geo_location":{ "type": "Point", "coordinates": [-87.171, 45.1592] }},
{"zip_code":"54701","country":"US","city":"Eau Claire","state":"Wisconsin","state_ab":"WI","county":"Eau Claire","geo_location":{ "type": "Point", "coordinates": [-91.4877, 44.784] }},
{"zip_code":"54741","country":"US","city":"Fairchild","state":"Wisconsin","state_ab":"WI","county":"Eau Claire","geo_location":{ "type": "Point", "coordinates": [-90.9906, 44.5963] }},
{"zip_code":"54121","country":"US","city":"Florence","state":"Wisconsin","state_ab":"WI","county":"Florence","geo_location":{ "type": "Point", "coordinates": [-88.2289, 45.9027] }},
{"zip_code":"53931","country":"US","city":"Fairwater","state":"Wisconsin","state_ab":"WI","county":"Fond du Lac","geo_location":{ "type": "Point", "coordinates": [-88.8665, 43.7475] }},
{"zip_code":"54974","country":"US","city":"Rosendale","state":"Wisconsin","state_ab":"WI","county":"Fond du Lac","geo_location":{ "type": "Point", "coordinates": [-88.6417, 43.7889] }},
{"zip_code":"53801","country":"US","city":"Bagley","state":"Wisconsin","state_ab":"WI","county":"Grant","geo_location":{ "type": "Point", "coordinates": [-91.0685, 42.9207] }},
{"zip_code":"53827","country":"US","city":"Woodman","state":"Wisconsin","state_ab":"WI","county":"Grant","geo_location":{ "type": "Point", "coordinates": [-90.8245, 43.0577] }},
{"zip_code":"53544","country":"US","city":"Hollandale","state":"Wisconsin","state_ab":"WI","county":"Iowa","geo_location":{ "type": "Point", "coordinates": [-89.913, 42.8773] }},
{"zip_code":"54534","country":"US","city":"Hurley","state":"Wisconsin","state_ab":"WI","county":"Iron","geo_location":{ "type": "Point", "coordinates": [-90.1975, 46.4448] }},
{"zip_code":"54547","country":"US","city":"Mercer","state":"Wisconsin","state_ab":"WI","county":"Iron","geo_location":{ "type": "Point", "coordinates": [-90.0679, 46.1696] }},
{"zip_code":"54611","country":"US","city":"Alma Center","state":"Wisconsin","state_ab":"WI","county":"Jackson","geo_location":{ "type": "Point", "coordinates": [-90.9356, 44.4452] }},
{"zip_code":"54754","country":"US","city":"Merrillan","state":"Wisconsin","state_ab":"WI","county":"Jackson","geo_location":{ "type": "Point", "coordinates": [-90.8105, 44.4369] }},
{"zip_code":"53094","country":"US","city":"Watertown","state":"Wisconsin","state_ab":"WI","county":"Jefferson","geo_location":{ "type": "Point", "coordinates": [-88.7185, 43.193] }},
{"zip_code":"53944","country":"US","city":"Lyndon Station","state":"Wisconsin","state_ab":"WI","county":"Juneau","geo_location":{ "type": "Point", "coordinates": [-89.8915, 43.6899] }},
{"zip_code":"54637","country":"US","city":"Hustler","state":"Wisconsin","state_ab":"WI","county":"Juneau","geo_location":{ "type": "Point", "coordinates": [-90.2729, 43.8801] }}]}