{"value": [{"zip_code":"97839","country":"US","city":"Lexington","state":"Oregon","state_ab":"OR","county":"Morrow","geo_location":{ "type": "Point", "coordinates": [-119.7464, 45.4264] }},
{"zip_code":"97080","country":"US","city":"Gresham","state":"Oregon","state_ab":"OR","county":"Multnomah","geo_location":{ "type": "Point", "coordinates": [-122.4156, 45.4817] }},
{"zip_code":"97206","country":"US","city":"Portland","state":"Oregon","state_ab":"OR","county":"Multnomah","geo_location":{ "type": "Point", "coordinates": [-122.5973, 45.484] }},
{"zip_code":"97219","country":"US","city":"Portland","state":"Oregon","state_ab":"OR","county":"Multnomah","geo_location":{ "type": "Point", "coordinates": [-122.7074, 45.458] }},
{"zip_code":"97220","country":"US","city":"Portland","state":"Oregon","state_ab":"OR","county":"Multnomah","geo_location":{ "type": "Point", "coordinates": [-122.5566, 45.5411] }},
{"zip_code":"97233","country":"US","city":"Portland","state":"Oregon","state_ab":"OR","county":"Multnomah","geo_location":{ "type": "Point", "coordinates": [-122.4985, 45.5142] }},
{"zip_code":"97259","country":"US","city":"Portland","state":"Oregon","state_ab":"OR","county":"Multnomah","geo_location":{ "type": "Point", "coordinates": [-122.3748, 45.5806] }},
{"zip_code":"97286","country":"US","city":"Portland","state":"Oregon","state_ab":"OR","county":"Multnomah","geo_location":{ "type": "Point", "coordinates": [-122.3748, 45.5806] }},
{"zip_code":"97299","country":"US","city":"Portland","state":"Oregon","state_ab":"OR","county":"Multnomah","geo_location":{ "type": "Point", "coordinates": [-122.3748, 45.5806] }},
{"zip_code":"97039","country":"US","city":"Moro","state":"Oregon","state_ab":"OR","county":"Sherman","geo_location":{ "type": "Point", "coordinates": [-120.6957, 45.4853] }},
{"zip_code":"97130","country":"US","city":"Manzanita","state":"Oregon","state_ab":"OR","county":"Tillamook","geo_location":{ "type": "Point", "coordinates": [-123.9231, 45.7366] }},
{"zip_code":"97143","country":"US","city":"Netarts","state":"Oregon","state_ab":"OR","county":"Tillamook","geo_location":{ "type": "Point", "coordinates": [-123.9458, 45.434] }},
{"zip_code":"97813","country":"US","city":"Athena","state":"Oregon","state_ab":"OR","county":"Umatilla","geo_location":{ "type": "Point", "coordinates": [-118.4971, 45.8289] }},
{"zip_code":"97826","country":"US","city":"Echo","state":"Oregon","state_ab":"OR","county":"Umatilla","geo_location":{ "type": "Point", "coordinates": [-119.1949, 45.7411] }},
{"zip_code":"97880","country":"US","city":"Ukiah","state":"Oregon","state_ab":"OR","county":"Umatilla","geo_location":{ "type": "Point", "coordinates": [-118.894, 45.0836] }},
{"zip_code":"97040","country":"US","city":"Mosier","state":"Oregon","state_ab":"OR","county":"Wasco","geo_location":{ "type": "Point", "coordinates": [-121.379, 45.6508] }},
{"zip_code":"97116","country":"US","city":"Forest Grove","state":"Oregon","state_ab":"OR","county":"Washington","geo_location":{ "type": "Point", "coordinates": [-123.1818, 45.5981] }},
{"zip_code":"97750","country":"US","city":"Mitchell","state":"Oregon","state_ab":"OR","county":"Wheeler","geo_location":{ "type": "Point", "coordinates": [-120.1456, 44.5657] }},
{"zip_code":"17310","country":"US","city":"Cashtown","state":"Pennsylvania","state_ab":"PA","county":"Adams","geo_location":{ "type": "Point", "coordinates": [-77.3566, 39.8906] }},
{"zip_code":"17350","country":"US","city":"New Oxford","state":"Pennsylvania","state_ab":"PA","county":"Adams","geo_location":{ "type": "Point", "coordinates": [-77.0643, 39.8775] }},
{"zip_code":"15006","country":"US","city":"Bairdford","state":"Pennsylvania","state_ab":"PA","county":"Allegheny","geo_location":{ "type": "Point", "coordinates": [-79.9031, 40.4931] }},
{"zip_code":"15020","country":"US","city":"Bunola","state":"Pennsylvania","state_ab":"PA","county":"Allegheny","geo_location":{ "type": "Point", "coordinates": [-80.0248, 40.4344] }},
{"zip_code":"15046","country":"US","city":"Crescent","state":"Pennsylvania","state_ab":"PA","county":"Allegheny","geo_location":{ "type": "Point", "coordinates": [-80.2286, 40.5563] }},
{"zip_code":"15086","country":"US","city":"Warrendale","state":"Pennsylvania","state_ab":"PA","county":"Allegheny","geo_location":{ "type": "Point", "coordinates": [-80.0248, 40.4344] }},
{"zip_code":"15110","country":"US","city":"Duquesne","state":"Pennsylvania","state_ab":"PA","county":"Allegheny","geo_location":{ "type": "Point", "coordinates": [-79.8522, 40.3704] }},
{"zip_code":"15123","country":"US","city":"West Mifflin","state":"Pennsylvania","state_ab":"PA","county":"Allegheny","geo_location":{ "type": "Point", "coordinates": [-80.0248, 40.4344] }},
{"zip_code":"15136","country":"US","city":"Mc Kees Rocks","state":"Pennsylvania","state_ab":"PA","county":"Allegheny","geo_location":{ "type": "Point", "coordinates": [-80.0876, 40.4717] }},
{"zip_code":"15189","country":"US","city":"Sewickley","state":"Pennsylvania","state_ab":"PA","county":"Allegheny","geo_location":{ "type": "Point", "coordinates": [-80.0248, 40.4344] }},
{"zip_code":"15213","country":"US","city":"Pittsburgh","state":"Pennsylvania","state_ab":"PA","county":"Allegheny","geo_location":{ "type": "Point", "coordinates": [-79.9552, 40.444] }},
{"zip_code":"15226","country":"US","city":"Pittsburgh","state":"Pennsylvania","state_ab":"PA","county":"Allegheny","geo_location":{ "type": "Point", "coordinates": [-80.0161, 40.4001] }},
{"zip_code":"15239","country":"US","city":"Pittsburgh","state":"Pennsylvania","state_ab":"PA","county":"Allegheny","geo_location":{ "type": "Point", "coordinates": [-79.7381, 40.4837] }},
{"zip_code":"15240","country":"US","city":"Pittsburgh","state":"Pennsylvania","state_ab":"PA","county":"Allegheny","geo_location":{ "type": "Point", "coordinates": [-80.0248, 40.4344] }},
{"zip_code":"15253","country":"US","city":"Pittsburgh","state":"Pennsylvania","state_ab":"PA","county":"Allegheny","geo_location":{ "type": "Point", "coordinates": [-80.0248, 40.4344] }},
{"zip_code":"15266","country":"US","city":"Pittsburgh","state":"Pennsylvania","state_ab":"PA","county":"Allegheny","geo_location":{ "type": "Point", "coordinates": [-80.0248, 40.4344] }},
{"zip_code":"15279","country":"US","city":"Pittsburgh","state":"Pennsylvania","state_ab":"PA","county":"Allegheny","geo_location":{ "type": "Point", "coordinates": [-80.0248, 40.4344] }},
{"zip_code":"16049","country":"US","city":"Parker","state":"Pennsylvania","state_ab":"PA","county":"Armstrong","geo_location":{ "type": "Point", "coordinates": [-79.6889, 41.1009] }},
{"zip_code":"16216","country":"US","city":"Climax","state":"Pennsylvania","state_ab":"PA","county":"Armstrong","geo_location":{ "type": "Point", "coordinates": [-79.4516, 40.8478] }},
{"zip_code":"16229","country":"US","city":"Freeport","state":"Pennsylvania","state_ab":"PA","county":"Armstrong","geo_location":{ "type": "Point", "coordinates": [-79.663, 40.7033] }},
{"zip_code":"15059","country":"US","city":"Midland","state":"Pennsylvania","state_ab":"PA","county":"Beaver","geo_location":{ "type": "Point", "coordinates": [-80.4908, 40.6793] }},
{"zip_code":"15550","country":"US","city":"Manns Choice","state":"Pennsylvania","state_ab":"PA","county":"Bedford","geo_location":{ "type": "Point", "coordinates": [-78.6423, 39.9808] }},
{"zip_code":"16670","country":"US","city":"Queen","state":"Pennsylvania","state_ab":"PA","county":"Bedford","geo_location":{ "type": "Point", "coordinates": [-78.5125, 40.2549] }},
{"zip_code":"18056","country":"US","city":"Hereford","state":"Pennsylvania","state_ab":"PA","county":"Berks","geo_location":{ "type": "Point", "coordinates": [-75.5491, 40.4491] }},
{"zip_code":"19510","country":"US","city":"Blandon","state":"Pennsylvania","state_ab":"PA","county":"Berks","geo_location":{ "type": "Point", "coordinates": [-75.8837, 40.4435] }},
{"zip_code":"19523","country":"US","city":"Geigertown","state":"Pennsylvania","state_ab":"PA","county":"Berks","geo_location":{ "type": "Point", "coordinates": [-75.8881, 40.1897] }},
{"zip_code":"19536","country":"US","city":"Lyon Station","state":"Pennsylvania","state_ab":"PA","county":"Berks","geo_location":{ "type": "Point", "coordinates": [-75.7419, 40.5218] }},
{"zip_code":"19550","country":"US","city":"Rehrersburg","state":"Pennsylvania","state_ab":"PA","county":"Berks","geo_location":{ "type": "Point", "coordinates": [-76.2453, 40.4553] }},
{"zip_code":"19640","country":"US","city":"Reading","state":"Pennsylvania","state_ab":"PA","county":"Berks","geo_location":{ "type": "Point", "coordinates": [-75.9849, 40.4072] }},
{"zip_code":"16603","country":"US","city":"Altoona","state":"Pennsylvania","state_ab":"PA","county":"Blair","geo_location":{ "type": "Point", "coordinates": [-78.41, 40.5018] }},
{"zip_code":"16926","country":"US","city":"Granville Summit","state":"Pennsylvania","state_ab":"PA","county":"Bradford","geo_location":{ "type": "Point", "coordinates": [-76.7218, 41.6973] }},
{"zip_code":"18829","country":"US","city":"Le Raysville","state":"Pennsylvania","state_ab":"PA","county":"Bradford","geo_location":{ "type": "Point", "coordinates": [-76.1796, 41.8434] }},
{"zip_code":"18920","country":"US","city":"Erwinna","state":"Pennsylvania","state_ab":"PA","county":"Bucks","geo_location":{ "type": "Point", "coordinates": [-75.0804, 40.5087] }},
{"zip_code":"18933","country":"US","city":"Lumberville","state":"Pennsylvania","state_ab":"PA","county":"Bucks","geo_location":{ "type": "Point", "coordinates": [-75.1028, 40.3286] }},
{"zip_code":"18946","country":"US","city":"Pineville","state":"Pennsylvania","state_ab":"PA","county":"Bucks","geo_location":{ "type": "Point", "coordinates": [-75.0622, 40.2711] }},
{"zip_code":"18960","country":"US","city":"Sellersville","state":"Pennsylvania","state_ab":"PA","county":"Bucks","geo_location":{ "type": "Point", "coordinates": [-75.319, 40.362] }},
{"zip_code":"19020","country":"US","city":"Bensalem","state":"Pennsylvania","state_ab":"PA","county":"Bucks","geo_location":{ "type": "Point", "coordinates": [-74.9378, 40.1109] }},
{"zip_code":"19059","country":"US","city":"Levittown","state":"Pennsylvania","state_ab":"PA","county":"Bucks","geo_location":{ "type": "Point", "coordinates": [-75.1028, 40.3286] }},
{"zip_code":"16023","country":"US","city":"Cabot","state":"Pennsylvania","state_ab":"PA","county":"Butler","geo_location":{ "type": "Point", "coordinates": [-79.76, 40.7924] }},
{"zip_code":"16050","country":"US","city":"Petrolia","state":"Pennsylvania","state_ab":"PA","county":"Butler","geo_location":{ "type": "Point", "coordinates": [-79.7711, 41.0442] }},
{"zip_code":"16063","country":"US","city":"Zelienople","state":"Pennsylvania","state_ab":"PA","county":"Butler","geo_location":{ "type": "Point", "coordinates": [-80.1094, 40.7609] }},
{"zip_code":"15909","country":"US","city":"Johnstown","state":"Pennsylvania","state_ab":"PA","county":"Cambria","geo_location":{ "type": "Point", "coordinates": [-78.8712, 40.4096] }},
{"zip_code":"16629","country":"US","city":"Coupon","state":"Pennsylvania","state_ab":"PA","county":"Cambria","geo_location":{ "type": "Point", "coordinates": [-78.5263, 40.5218] }},
{"zip_code":"16630","country":"US","city":"Cresson","state":"Pennsylvania","state_ab":"PA","county":"Cambria","geo_location":{ "type": "Point", "coordinates": [-78.5861, 40.4608] }},
{"zip_code":"18030","country":"US","city":"Bowmanstown","state":"Pennsylvania","state_ab":"PA","county":"Carbon","geo_location":{ "type": "Point", "coordinates": [-75.6614, 40.8011] }},
{"zip_code":"18210","country":"US","city":"Albrightsville","state":"Pennsylvania","state_ab":"PA","county":"Carbon","geo_location":{ "type": "Point", "coordinates": [-75.5842, 40.9748] }},
{"zip_code":"18250","country":"US","city":"Summit Hill","state":"Pennsylvania","state_ab":"PA","county":"Carbon","geo_location":{ "type": "Point", "coordinates": [-75.8693, 40.8255] }},
{"zip_code":"16823","country":"US","city":"Bellefonte","state":"Pennsylvania","state_ab":"PA","county":"Centre","geo_location":{ "type": "Point", "coordinates": [-77.7732, 40.8978] }},
{"zip_code":"19316","country":"US","city":"Brandamore","state":"Pennsylvania","state_ab":"PA","county":"Chester","geo_location":{ "type": "Point", "coordinates": [-75.8378, 40.055] }},
{"zip_code":"19330","country":"US","city":"Cochranville","state":"Pennsylvania","state_ab":"PA","county":"Chester","geo_location":{ "type": "Point", "coordinates": [-75.9214, 39.8757] }},
{"zip_code":"19343","country":"US","city":"Glenmoore","state":"Pennsylvania","state_ab":"PA","county":"Chester","geo_location":{ "type": "Point", "coordinates": [-75.7711, 40.0846] }},
{"zip_code":"19369","country":"US","city":"Sadsburyville","state":"Pennsylvania","state_ab":"PA","county":"Chester","geo_location":{ "type": "Point", "coordinates": [-75.8936, 39.9903] }},
{"zip_code":"19370","country":"US","city":"Steelville","state":"Pennsylvania","state_ab":"PA","county":"Chester","geo_location":{ "type": "Point", "coordinates": [-75.7481, 39.9832] }},
{"zip_code":"19383","country":"US","city":"West Chester","state":"Pennsylvania","state_ab":"PA","county":"Chester","geo_location":{ "type": "Point", "coordinates": [-75.6024, 39.9455] }},
{"zip_code":"19460","country":"US","city":"Phoenixville","state":"Pennsylvania","state_ab":"PA","county":"Chester","geo_location":{ "type": "Point", "coordinates": [-75.5272, 40.1267] }},
{"zip_code":"16036","country":"US","city":"Foxburg","state":"Pennsylvania","state_ab":"PA","county":"Clarion","geo_location":{ "type": "Point", "coordinates": [-79.4538, 41.2023] }},
{"zip_code":"16230","country":"US","city":"Hawthorn","state":"Pennsylvania","state_ab":"PA","county":"Clarion","geo_location":{ "type": "Point", "coordinates": [-79.2799, 41.0178] }},
{"zip_code":"16616","country":"US","city":"Beccaria","state":"Pennsylvania","state_ab":"PA","county":"Clearfield","geo_location":{ "type": "Point", "coordinates": [-78.4455, 40.7683] }},
{"zip_code":"16656","country":"US","city":"Irvona","state":"Pennsylvania","state_ab":"PA","county":"Clearfield","geo_location":{ "type": "Point", "coordinates": [-78.5602, 40.8017] }},
{"zip_code":"16836","country":"US","city":"Frenchville","state":"Pennsylvania","state_ab":"PA","county":"Clearfield","geo_location":{ "type": "Point", "coordinates": [-78.2345, 41.1038] }},
{"zip_code":"16849","country":"US","city":"Lanse","state":"Pennsylvania","state_ab":"PA","county":"Clearfield","geo_location":{ "type": "Point", "coordinates": [-78.1144, 40.9605] }},
{"zip_code":"16850","country":"US","city":"Lecontes Mills","state":"Pennsylvania","state_ab":"PA","county":"Clearfield","geo_location":{ "type": "Point", "coordinates": [-78.4224, 40.9891] }},
{"zip_code":"16863","country":"US","city":"Olanta","state":"Pennsylvania","state_ab":"PA","county":"Clearfield","geo_location":{ "type": "Point", "coordinates": [-78.5001, 40.9056] }},
{"zip_code":"16876","country":"US","city":"Wallaceton","state":"Pennsylvania","state_ab":"PA","county":"Clearfield","geo_location":{ "type": "Point", "coordinates": [-78.2926, 40.9616] }},
{"zip_code":"17750","country":"US","city":"Mackeyville","state":"Pennsylvania","state_ab":"PA","county":"Clinton","geo_location":{ "type": "Point", "coordinates": [-77.4951, 41.0325] }},
{"zip_code":"17839","country":"US","city":"Light Street","state":"Pennsylvania","state_ab":"PA","county":"Columbia","geo_location":{ "type": "Point", "coordinates": [-76.4384, 41.0201] }},
{"zip_code":"16360","country":"US","city":"Townville","state":"Pennsylvania","state_ab":"PA","county":"Crawford","geo_location":{ "type": "Point", "coordinates": [-79.8767, 41.6856] }},
{"zip_code":"17013","country":"US","city":"Carlisle","state":"Pennsylvania","state_ab":"PA","county":"Cumberland","geo_location":{ "type": "Point", "coordinates": [-77.1983, 40.2417] }},
{"zip_code":"17093","country":"US","city":"Summerdale","state":"Pennsylvania","state_ab":"PA","county":"Cumberland","geo_location":{ "type": "Point", "coordinates": [-76.9312, 40.3078] }},
{"zip_code":"17080","country":"US","city":"Pillow","state":"Pennsylvania","state_ab":"PA","county":"Dauphin","geo_location":{ "type": "Point", "coordinates": [-76.8029, 40.6392] }},
{"zip_code":"17103","country":"US","city":"Harrisburg","state":"Pennsylvania","state_ab":"PA","county":"Dauphin","geo_location":{ "type": "Point", "coordinates": [-76.861, 40.2724] }},
{"zip_code":"17129","country":"US","city":"Harrisburg","state":"Pennsylvania","state_ab":"PA","county":"Dauphin","geo_location":{ "type": "Point", "coordinates": [-76.8809, 40.2615] }},
{"zip_code":"17130","country":"US","city":"Harrisburg","state":"Pennsylvania","state_ab":"PA","county":"Dauphin","geo_location":{ "type": "Point", "coordinates": [-76.8829, 40.2702] }},
{"zip_code":"19033","country":"US","city":"Folsom","state":"Pennsylvania","state_ab":"PA","county":"Delaware","geo_location":{ "type": "Point", "coordinates": [-75.3296, 39.8901] }},
{"zip_code":"19060","country":"US","city":"Garnet Valley","state":"Pennsylvania","state_ab":"PA","county":"Delaware","geo_location":{ "type": "Point", "coordinates": [-75.5007, 39.852] }},
{"zip_code":"19073","country":"US","city":"Newtown Square","state":"Pennsylvania","state_ab":"PA","county":"Delaware","geo_location":{ "type": "Point", "coordinates": [-75.407, 39.9863] }},
{"zip_code":"19086","country":"US","city":"Wallingford","state":"Pennsylvania","state_ab":"PA","county":"Delaware","geo_location":{ "type": "Point", "coordinates": [-75.3721, 39.8871] }},
{"zip_code":"15846","country":"US","city":"Kersey","state":"Pennsylvania","state_ab":"PA","county":"Elk","geo_location":{ "type": "Point", "coordinates": [-78.6015, 41.3563] }},
{"zip_code":"16410","country":"US","city":"Cranesville","state":"Pennsylvania","state_ab":"PA","county":"Erie","geo_location":{ "type": "Point", "coordinates": [-80.3085, 41.9162] }},
{"zip_code":"16423","country":"US","city":"Lake City","state":"Pennsylvania","state_ab":"PA","county":"Erie","geo_location":{ "type": "Point", "coordinates": [-80.3388, 42.0204] }},
{"zip_code":"16553","country":"US","city":"Erie","state":"Pennsylvania","state_ab":"PA","county":"Erie","geo_location":{ "type": "Point", "coordinates": [-80.0649, 42.1827] }},
{"zip_code":"15420","country":"US","city":"Cardale","state":"Pennsylvania","state_ab":"PA","county":"Fayette","geo_location":{ "type": "Point", "coordinates": [-79.6522, 39.9321] }},
{"zip_code":"15433","country":"US","city":"East Millsboro","state":"Pennsylvania","state_ab":"PA","county":"Fayette","geo_location":{ "type": "Point", "coordinates": [-79.9664, 39.9822] }},
{"zip_code":"15446","country":"US","city":"Indian Head","state":"Pennsylvania","state_ab":"PA","county":"Fayette","geo_location":{ "type": "Point", "coordinates": [-79.3992, 40.0335] }},
{"zip_code":"15459","country":"US","city":"Markleysburg","state":"Pennsylvania","state_ab":"PA","county":"Fayette","geo_location":{ "type": "Point", "coordinates": [-79.46, 39.7597] }},
{"zip_code":"15460","country":"US","city":"Martin","state":"Pennsylvania","state_ab":"PA","county":"Fayette","geo_location":{ "type": "Point", "coordinates": [-79.6522, 39.9321] }},
{"zip_code":"15473","country":"US","city":"Perryopolis","state":"Pennsylvania","state_ab":"PA","county":"Fayette","geo_location":{ "type": "Point", "coordinates": [-79.7756, 40.0646] }},
{"zip_code":"15486","country":"US","city":"Vanderbilt","state":"Pennsylvania","state_ab":"PA","county":"Fayette","geo_location":{ "type": "Point", "coordinates": [-79.6955, 40.0246] }},
{"zip_code":"17219","country":"US","city":"Doylesburg","state":"Pennsylvania","state_ab":"PA","county":"Franklin","geo_location":{ "type": "Point", "coordinates": [-77.6797, 40.2184] }},
{"zip_code":"17220","country":"US","city":"Dry Run","state":"Pennsylvania","state_ab":"PA","county":"Franklin","geo_location":{ "type": "Point", "coordinates": [-77.7353, 40.1781] }},
{"zip_code":"17246","country":"US","city":"Pleasant Hall","state":"Pennsylvania","state_ab":"PA","county":"Franklin","geo_location":{ "type": "Point", "coordinates": [-77.6718, 40.0491] }},
{"zip_code":"15536","country":"US","city":"Crystal Spring","state":"Pennsylvania","state_ab":"PA","county":"Fulton","geo_location":{ "type": "Point", "coordinates": [-78.2258, 39.92] }},
{"zip_code":"17233","country":"US","city":"Mc Connellsburg","state":"Pennsylvania","state_ab":"PA","county":"Fulton","geo_location":{ "type": "Point", "coordinates": [-77.9901, 39.9443] }},
{"zip_code":"15316","country":"US","city":"Brave","state":"Pennsylvania","state_ab":"PA","county":"Greene","geo_location":{ "type": "Point", "coordinates": [-80.2537, 39.7245] }},
{"zip_code":"15370","country":"US","city":"Waynesburg","state":"Pennsylvania","state_ab":"PA","county":"Greene","geo_location":{ "type": "Point", "coordinates": [-80.1795, 39.8917] }},
{"zip_code":"16669","country":"US","city":"Petersburg","state":"Pennsylvania","state_ab":"PA","county":"Huntingdon","geo_location":{ "type": "Point", "coordinates": [-77.9984, 40.603] }},
{"zip_code":"16683","country":"US","city":"Spruce Creek","state":"Pennsylvania","state_ab":"PA","county":"Huntingdon","geo_location":{ "type": "Point", "coordinates": [-78.1361, 40.6218] }},
{"zip_code":"17066","country":"US","city":"Mount Union","state":"Pennsylvania","state_ab":"PA","county":"Huntingdon","geo_location":{ "type": "Point", "coordinates": [-77.8637, 40.3901] }},
{"zip_code":"17260","country":"US","city":"Shirleysburg","state":"Pennsylvania","state_ab":"PA","county":"Huntingdon","geo_location":{ "type": "Point", "coordinates": [-77.8701, 40.3168] }},
{"zip_code":"15716","country":"US","city":"Black Lick","state":"Pennsylvania","state_ab":"PA","county":"Indiana","geo_location":{ "type": "Point", "coordinates": [-79.2063, 40.4836] }},
{"zip_code":"15729","country":"US","city":"Commodore","state":"Pennsylvania","state_ab":"PA","county":"Indiana","geo_location":{ "type": "Point", "coordinates": [-78.9134, 40.7016] }},
{"zip_code":"15756","country":"US","city":"Mc Intyre","state":"Pennsylvania","state_ab":"PA","county":"Indiana","geo_location":{ "type": "Point", "coordinates": [-79.2999, 40.5684] }},
{"zip_code":"15783","country":"US","city":"West Lebanon","state":"Pennsylvania","state_ab":"PA","county":"Indiana","geo_location":{ "type": "Point", "coordinates": [-79.3423, 40.5838] }},
{"zip_code":"15949","country":"US","city":"Robinson","state":"Pennsylvania","state_ab":"PA","county":"Indiana","geo_location":{ "type": "Point", "coordinates": [-79.122, 40.4037] }},
{"zip_code":"16256","country":"US","city":"Smicksburg","state":"Pennsylvania","state_ab":"PA","county":"Indiana","geo_location":{ "type": "Point", "coordinates": [-79.1614, 40.8372] }},
{"zip_code":"15730","country":"US","city":"Coolspring","state":"Pennsylvania","state_ab":"PA","county":"Jefferson","geo_location":{ "type": "Point", "coordinates": [-78.9256, 40.9671] }},
{"zip_code":"15770","country":"US","city":"Ringgold","state":"Pennsylvania","state_ab":"PA","county":"Jefferson","geo_location":{ "type": "Point", "coordinates": [-79.1766, 40.9997] }},
{"zip_code":"15860","country":"US","city":"Sigel","state":"Pennsylvania","state_ab":"PA","county":"Jefferson","geo_location":{ "type": "Point", "coordinates": [-79.054, 41.3099] }},
{"zip_code":"18403","country":"US","city":"Archbald","state":"Pennsylvania","state_ab":"PA","county":"Lackawanna","geo_location":{ "type": "Point", "coordinates": [-75.5334, 41.4876] }},
{"zip_code":"56720","country":"US","city":"Donaldson","state":"Minnesota","state_ab":"MN","county":"Kittson","geo_location":{ "type": "Point", "coordinates": [-96.8579, 48.5798] }},
{"zip_code":"56733","country":"US","city":"Kennedy","state":"Minnesota","state_ab":"MN","county":"Kittson","geo_location":{ "type": "Point", "coordinates": [-96.9614, 48.6337] }},
{"zip_code":"56629","country":"US","city":"Birchdale","state":"Minnesota","state_ab":"MN","county":"Koochiching","geo_location":{ "type": "Point", "coordinates": [-94.1677, 48.6247] }},
{"zip_code":"56669","country":"US","city":"Ray","state":"Minnesota","state_ab":"MN","county":"Koochiching","geo_location":{ "type": "Point", "coordinates": [-93.0895, 48.4218] }},
{"zip_code":"56256","country":"US","city":"Madison","state":"Minnesota","state_ab":"MN","county":"Lac qui Parle","geo_location":{ "type": "Point", "coordinates": [-96.1645, 44.9946] }},
{"zip_code":"56050","country":"US","city":"Kasota","state":"Minnesota","state_ab":"MN","county":"Le Sueur","geo_location":{ "type": "Point", "coordinates": [-93.9453, 44.2842] }},
{"zip_code":"56113","country":"US","city":"Arco","state":"Minnesota","state_ab":"MN","county":"Lincoln","geo_location":{ "type": "Point", "coordinates": [-96.1999, 44.4091] }},
{"zip_code":"56179","country":"US","city":"Verdi","state":"Minnesota","state_ab":"MN","county":"Lincoln County","geo_location":{ "type": "Point", "coordinates": [-96.3829, 44.2405] }},
{"zip_code":"56229","country":"US","city":"Cottonwood","state":"Minnesota","state_ab":"MN","county":"Lyon","geo_location":{ "type": "Point", "coordinates": [-95.6925, 44.6003] }},
{"zip_code":"55370","country":"US","city":"Plato","state":"Minnesota","state_ab":"MN","county":"McLeod","geo_location":{ "type": "Point", "coordinates": [-94.0506, 44.7657] }},
{"zip_code":"56566","country":"US","city":"Naytahwaush","state":"Minnesota","state_ab":"MN","county":"Mahnomen","geo_location":{ "type": "Point", "coordinates": [-95.6283, 47.2601] }},
{"zip_code":"56760","country":"US","city":"Viking","state":"Minnesota","state_ab":"MN","county":"Marshall","geo_location":{ "type": "Point", "coordinates": [-96.4749, 48.2349] }},
{"zip_code":"55329","country":"US","city":"Eden Valley","state":"Minnesota","state_ab":"MN","county":"Meeker","geo_location":{ "type": "Point", "coordinates": [-94.6039, 45.302] }},
{"zip_code":"56243","country":"US","city":"Grove City","state":"Minnesota","state_ab":"MN","county":"Meeker","geo_location":{ "type": "Point", "coordinates": [-94.6878, 45.1532] }},
{"zip_code":"56359","country":"US","city":"Onamia","state":"Minnesota","state_ab":"MN","county":"Mille Lacs","geo_location":{ "type": "Point", "coordinates": [-93.6867, 46.0902] }},
{"zip_code":"56386","country":"US","city":"Wahkon","state":"Minnesota","state_ab":"MN","county":"Mille Lacs","geo_location":{ "type": "Point", "coordinates": [-93.4972, 46.1121] }},
{"zip_code":"56373","country":"US","city":"Royalton","state":"Minnesota","state_ab":"MN","county":"Morrison","geo_location":{ "type": "Point", "coordinates": [-94.2211, 45.8589] }},
{"zip_code":"55909","country":"US","city":"Adams","state":"Minnesota","state_ab":"MN","county":"Mower","geo_location":{ "type": "Point", "coordinates": [-92.7305, 43.5591] }},
{"zip_code":"55936","country":"US","city":"Grand Meadow","state":"Minnesota","state_ab":"MN","county":"Mower","geo_location":{ "type": "Point", "coordinates": [-92.5692, 43.7101] }},
{"zip_code":"55950","country":"US","city":"Lansing","state":"Minnesota","state_ab":"MN","county":"Mower","geo_location":{ "type": "Point", "coordinates": [-92.9653, 43.7629] }},
{"zip_code":"56126","country":"US","city":"Dundee","state":"Minnesota","state_ab":"MN","county":"Nobles County","geo_location":{ "type": "Point", "coordinates": [-95.4953, 43.8182] }},
{"zip_code":"56153","country":"US","city":"Leota","state":"Minnesota","state_ab":"MN","county":"Nobles","geo_location":{ "type": "Point", "coordinates": [-96.0128, 43.8404] }},
{"zip_code":"55976","country":"US","city":"Stewartville","state":"Minnesota","state_ab":"MN","county":"Olmsted","geo_location":{ "type": "Point", "coordinates": [-92.4547, 43.8673] }},
{"zip_code":"55729","country":"US","city":"Duquette","state":"Minnesota","state_ab":"MN","county":"Pine County","geo_location":{ "type": "Point", "coordinates": [-92.5529, 46.3697] }},
{"zip_code":"55756","country":"US","city":"Kerrick","state":"Minnesota","state_ab":"MN","county":"Pine","geo_location":{ "type": "Point", "coordinates": [-92.578, 46.3792] }},
{"zip_code":"55783","country":"US","city":"Sturgeon Lake","state":"Minnesota","state_ab":"MN","county":"Pine","geo_location":{ "type": "Point", "coordinates": [-92.8182, 46.3837] }},
{"zip_code":"56139","country":"US","city":"Holland","state":"Minnesota","state_ab":"MN","county":"Pipestone","geo_location":{ "type": "Point", "coordinates": [-96.1903, 44.0759] }},
{"zip_code":"56140","country":"US","city":"Ihlen","state":"Minnesota","state_ab":"MN","county":"Pipestone","geo_location":{ "type": "Point", "coordinates": [-96.364, 43.8955] }},
{"zip_code":"56540","country":"US","city":"Fertile","state":"Minnesota","state_ab":"MN","county":"Polk","geo_location":{ "type": "Point", "coordinates": [-96.2371, 47.5214] }},
{"zip_code":"55109","country":"US","city":"Saint Paul","state":"Minnesota","state_ab":"MN","county":"Ramsey","geo_location":{ "type": "Point", "coordinates": [-93.0297, 45.0132] }},
{"zip_code":"55110","country":"US","city":"Saint Paul","state":"Minnesota","state_ab":"MN","county":"Ramsey","geo_location":{ "type": "Point", "coordinates": [-93.0223, 45.08] }},
{"zip_code":"55189","country":"US","city":"Saint Paul","state":"Minnesota","state_ab":"MN","county":"Ramsey","geo_location":{ "type": "Point", "coordinates": [-93.1059, 45.0059] }},
{"zip_code":"55190","country":"US","city":"Saint Paul","state":"Minnesota","state_ab":"MN","county":"Ramsey","geo_location":{ "type": "Point", "coordinates": [-93.1059, 45.0059] }},
{"zip_code":"56166","country":"US","city":"Revere","state":"Minnesota","state_ab":"MN","county":"Redwood","geo_location":{ "type": "Point", "coordinates": [-95.3557, 44.2391] }},
{"zip_code":"56180","country":"US","city":"Walnut Grove","state":"Minnesota","state_ab":"MN","county":"Redwood","geo_location":{ "type": "Point", "coordinates": [-95.4965, 44.2294] }},
{"zip_code":"56283","country":"US","city":"Redwood Falls","state":"Minnesota","state_ab":"MN","county":"Redwood","geo_location":{ "type": "Point", "coordinates": [-95.2003, 44.5218] }},
{"zip_code":"56230","country":"US","city":"Danube","state":"Minnesota","state_ab":"MN","county":"Renville","geo_location":{ "type": "Point", "coordinates": [-95.0784, 44.7956] }},
{"zip_code":"56270","country":"US","city":"Morton","state":"Minnesota","state_ab":"MN","county":"Renville","geo_location":{ "type": "Point", "coordinates": [-95.0268, 44.5662] }},
{"zip_code":"55019","country":"US","city":"Dundas","state":"Minnesota","state_ab":"MN","county":"Rice","geo_location":{ "type": "Point", "coordinates": [-93.2037, 44.3955] }},
{"zip_code":"55046","country":"US","city":"Lonsdale","state":"Minnesota","state_ab":"MN","county":"Rice","geo_location":{ "type": "Point", "coordinates": [-93.4252, 44.4477] }},
{"zip_code":"56759","country":"US","city":"Strathcona","state":"Minnesota","state_ab":"MN","county":"Roseau","geo_location":{ "type": "Point", "coordinates": [-96.0879, 48.5459] }},
{"zip_code":"55703","country":"US","city":"Angora","state":"Minnesota","state_ab":"MN","county":"St. Louis","geo_location":{ "type": "Point", "coordinates": [-92.6413, 47.7577] }},
{"zip_code":"55796","country":"US","city":"Winton","state":"Minnesota","state_ab":"MN","county":"St. Louis","geo_location":{ "type": "Point", "coordinates": [-92.2665, 47.7206] }},
{"zip_code":"55806","country":"US","city":"Duluth","state":"Minnesota","state_ab":"MN","county":"St. Louis","geo_location":{ "type": "Point", "coordinates": [-92.1279, 46.7715] }},
{"zip_code":"55020","country":"US","city":"Elko","state":"Minnesota","state_ab":"MN","county":"Scott","geo_location":{ "type": "Point", "coordinates": [-93.3836, 44.5894] }},
{"zip_code":"55330","country":"US","city":"Elk River","state":"Minnesota","state_ab":"MN","county":"Sherburne","geo_location":{ "type": "Point", "coordinates": [-93.5814, 45.3136] }},
{"zip_code":"55396","country":"US","city":"Winthrop","state":"Minnesota","state_ab":"MN","county":"Sibley","geo_location":{ "type": "Point", "coordinates": [-94.3698, 44.5436] }},
{"zip_code":"56320","country":"US","city":"Cold Spring","state":"Minnesota","state_ab":"MN","county":"Stearns","geo_location":{ "type": "Point", "coordinates": [-94.4378, 45.45] }},
{"zip_code":"56346","country":"US","city":"Long Prairie","state":"Minnesota","state_ab":"MN","county":"Stearns County","geo_location":{ "type": "Point", "coordinates": [-94.863, 45.9796] }},
{"zip_code":"56399","country":"US","city":"Saint Cloud","state":"Minnesota","state_ab":"MN","county":"Stearns","geo_location":{ "type": "Point", "coordinates": [-94.5933, 45.5289] }},
{"zip_code":"55060","country":"US","city":"Owatonna","state":"Minnesota","state_ab":"MN","county":"Steele","geo_location":{ "type": "Point", "coordinates": [-93.2191, 44.0805] }},
{"zip_code":"56296","country":"US","city":"Wheaton","state":"Minnesota","state_ab":"MN","county":"Traverse","geo_location":{ "type": "Point", "coordinates": [-96.4866, 45.8111] }},
{"zip_code":"55073","country":"US","city":"Scandia","state":"Minnesota","state_ab":"MN","county":"Washington","geo_location":{ "type": "Point", "coordinates": [-92.8292, 45.2697] }},
{"zip_code":"56553","country":"US","city":"Kent","state":"Minnesota","state_ab":"MN","county":"Wilkin","geo_location":{ "type": "Point", "coordinates": [-96.6852, 46.4378] }},
{"zip_code":"56579","country":"US","city":"Rothsay","state":"Minnesota","state_ab":"MN","county":"Wilkin","geo_location":{ "type": "Point", "coordinates": [-96.2887, 46.5094] }},
{"zip_code":"55910","country":"US","city":"Altura","state":"Minnesota","state_ab":"MN","county":"Winona","geo_location":{ "type": "Point", "coordinates": [-91.9745, 44.1361] }},
{"zip_code":"55589","country":"US","city":"Monticello","state":"Minnesota","state_ab":"MN","county":"Wright","geo_location":{ "type": "Point", "coordinates": [-93.8881, 45.2009] }},
{"zip_code":"55590","country":"US","city":"Monticello","state":"Minnesota","state_ab":"MN","county":"Wright","geo_location":{ "type": "Point", "coordinates": [-93.8881, 45.2009] }},
{"zip_code":"63533","country":"US","city":"Brashear","state":"Missouri","state_ab":"MO","county":"Adair","geo_location":{ "type": "Point", "coordinates": [-92.4333, 40.1959] }},
{"zip_code":"63546","country":"US","city":"Greentop","state":"Missouri","state_ab":"MO","county":"Adair","geo_location":{ "type": "Point", "coordinates": [-92.5567, 40.3446] }},
{"zip_code":"63559","country":"US","city":"Novinger","state":"Missouri","state_ab":"MO","county":"Adair","geo_location":{ "type": "Point", "coordinates": [-92.7172, 40.2685] }},
{"zip_code":"64459","country":"US","city":"Helena","state":"Missouri","state_ab":"MO","county":"Andrew","geo_location":{ "type": "Point", "coordinates": [-94.6465, 39.9295] }},
{"zip_code":"64446","country":"US","city":"Fairfax","state":"Missouri","state_ab":"MO","county":"Atchison","geo_location":{ "type": "Point", "coordinates": [-95.3751, 40.3302] }},
{"zip_code":"64769","country":"US","city":"Mindenmines","state":"Missouri","state_ab":"MO","county":"Barton","geo_location":{ "type": "Point", "coordinates": [-94.5756, 37.452] }},
{"zip_code":"64730","country":"US","city":"Butler","state":"Missouri","state_ab":"MO","county":"Bates","geo_location":{ "type": "Point", "coordinates": [-94.3137, 38.2712] }},
{"zip_code":"63753","country":"US","city":"Grassy","state":"Missouri","state_ab":"MO","county":"Bollinger","geo_location":{ "type": "Point", "coordinates": [-90.0422, 37.3197] }},
{"zip_code":"65010","country":"US","city":"Ashland","state":"Missouri","state_ab":"MO","county":"Boone","geo_location":{ "type": "Point", "coordinates": [-92.2537, 38.7878] }},
{"zip_code":"65203","country":"US","city":"Columbia","state":"Missouri","state_ab":"MO","county":"Boone","geo_location":{ "type": "Point", "coordinates": [-92.3639, 38.9348] }},
{"zip_code":"65216","country":"US","city":"Columbia","state":"Missouri","state_ab":"MO","county":"Boone","geo_location":{ "type": "Point", "coordinates": [-92.1022, 38.9033] }},
{"zip_code":"65256","country":"US","city":"Harrisburg","state":"Missouri","state_ab":"MO","county":"Boone","geo_location":{ "type": "Point", "coordinates": [-92.441, 39.1203] }},
{"zip_code":"65063","country":"US","city":"New Bloomfield","state":"Missouri","state_ab":"MO","county":"Callaway","geo_location":{ "type": "Point", "coordinates": [-92.083, 38.71] }},
{"zip_code":"65049","country":"US","city":"Lake Ozark","state":"Missouri","state_ab":"MO","county":"Camden","geo_location":{ "type": "Point", "coordinates": [-92.6684, 38.2003] }},
{"zip_code":"65786","country":"US","city":"Macks Creek","state":"Missouri","state_ab":"MO","county":"Camden","geo_location":{ "type": "Point", "coordinates": [-92.9603, 37.9616] }},
{"zip_code":"63739","country":"US","city":"Burfordville","state":"Missouri","state_ab":"MO","county":"Cape Girardeau","geo_location":{ "type": "Point", "coordinates": [-89.8206, 37.3632] }},
{"zip_code":"63766","country":"US","city":"Millersville","state":"Missouri","state_ab":"MO","county":"Cape Girardeau","geo_location":{ "type": "Point", "coordinates": [-89.795, 37.4401] }},
{"zip_code":"63779","country":"US","city":"Pocahontas","state":"Missouri","state_ab":"MO","county":"Cape Girardeau","geo_location":{ "type": "Point", "coordinates": [-89.6396, 37.5007] }},
{"zip_code":"64639","country":"US","city":"De Witt","state":"Missouri","state_ab":"MO","county":"Carroll","geo_location":{ "type": "Point", "coordinates": [-93.2238, 39.384] }},
{"zip_code":"64680","country":"US","city":"Stet","state":"Missouri","state_ab":"MO","county":"Carroll","geo_location":{ "type": "Point", "coordinates": [-93.4319, 39.411] }},
{"zip_code":"64743","country":"US","city":"East Lynne","state":"Missouri","state_ab":"MO","county":"Cass","geo_location":{ "type": "Point", "coordinates": [-94.2333, 38.6682] }},
{"zip_code":"64756","country":"US","city":"Jerico Springs","state":"Missouri","state_ab":"MO","county":"Cedar","geo_location":{ "type": "Point", "coordinates": [-94.0129, 37.6613] }},
{"zip_code":"65629","country":"US","city":"Chadwick","state":"Missouri","state_ab":"MO","county":"Christian","geo_location":{ "type": "Point", "coordinates": [-93.0451, 36.922] }},
{"zip_code":"65630","country":"US","city":"Chestnutridge","state":"Missouri","state_ab":"MO","county":"Christian","geo_location":{ "type": "Point", "coordinates": [-93.2291, 36.8359] }},
{"zip_code":"65669","country":"US","city":"Highlandville","state":"Missouri","state_ab":"MO","county":"Christian","geo_location":{ "type": "Point", "coordinates": [-93.268, 36.9408] }},
{"zip_code":"65720","country":"US","city":"Oldfield","state":"Missouri","state_ab":"MO","county":"Christian","geo_location":{ "type": "Point", "coordinates": [-92.9528, 36.9404] }},
{"zip_code":"63430","country":"US","city":"Alexandria","state":"Missouri","state_ab":"MO","county":"Clark","geo_location":{ "type": "Point", "coordinates": [-91.5154, 40.3445] }},
{"zip_code":"64060","country":"US","city":"Kearney","state":"Missouri","state_ab":"MO","county":"Clay","geo_location":{ "type": "Point", "coordinates": [-94.3621, 39.3652] }},
{"zip_code":"64073","country":"US","city":"Mosby","state":"Missouri","state_ab":"MO","county":"Clay","geo_location":{ "type": "Point", "coordinates": [-94.2939, 39.3149] }},
{"zip_code":"65023","country":"US","city":"Centertown","state":"Missouri","state_ab":"MO","county":"Cole","geo_location":{ "type": "Point", "coordinates": [-92.3995, 38.6297] }},
{"zip_code":"65076","country":"US","city":"Saint Thomas","state":"Missouri","state_ab":"MO","county":"Cole","geo_location":{ "type": "Point", "coordinates": [-92.1894, 38.3912] }},
{"zip_code":"65449","country":"US","city":"Cook Station","state":"Missouri","state_ab":"MO","county":"Crawford","geo_location":{ "type": "Point", "coordinates": [-91.4616, 37.8552] }},
{"zip_code":"65603","country":"US","city":"Arcola","state":"Missouri","state_ab":"MO","county":"Dade","geo_location":{ "type": "Point", "coordinates": [-93.8619, 37.5512] }},
{"zip_code":"64640","country":"US","city":"Gallatin","state":"Missouri","state_ab":"MO","county":"Daviess","geo_location":{ "type": "Point", "coordinates": [-93.9787, 39.9025] }},
{"zip_code":"65540","country":"US","city":"Lecoma","state":"Missouri","state_ab":"MO","county":"Dent","geo_location":{ "type": "Point", "coordinates": [-91.4812, 37.6033] }},
{"zip_code":"63829","country":"US","city":"Cardwell","state":"Missouri","state_ab":"MO","county":"Dunklin","geo_location":{ "type": "Point", "coordinates": [-90.2907, 36.0434] }},
{"zip_code":"63933","country":"US","city":"Campbell","state":"Missouri","state_ab":"MO","county":"Dunklin","geo_location":{ "type": "Point", "coordinates": [-90.0829, 36.5197] }},
{"zip_code":"63056","country":"US","city":"Leslie","state":"Missouri","state_ab":"MO","county":"Franklin","geo_location":{ "type": "Point", "coordinates": [-91.2328, 38.4555] }},
{"zip_code":"63069","country":"US","city":"Pacific","state":"Missouri","state_ab":"MO","county":"Franklin","geo_location":{ "type": "Point", "coordinates": [-90.748, 38.4922] }},
{"zip_code":"65036","country":"US","city":"Gasconade","state":"Missouri","state_ab":"MO","county":"Gasconade","geo_location":{ "type": "Point", "coordinates": [-91.5592, 38.6703] }},
{"zip_code":"65809","country":"US","city":"Springfield","state":"Missouri","state_ab":"MO","county":"Greene","geo_location":{ "type": "Point", "coordinates": [-93.2057, 37.1852] }},
{"zip_code":"65810","country":"US","city":"Springfield","state":"Missouri","state_ab":"MO","county":"Greene","geo_location":{ "type": "Point", "coordinates": [-93.2896, 37.1136] }},
{"zip_code":"65890","country":"US","city":"Springfield","state":"Missouri","state_ab":"MO","county":"Greene","geo_location":{ "type": "Point", "coordinates": [-93.3437, 37.2581] }},
{"zip_code":"64679","country":"US","city":"Spickard","state":"Missouri","state_ab":"MO","county":"Grundy","geo_location":{ "type": "Point", "coordinates": [-93.5503, 40.24] }},
{"zip_code":"18416","country":"US","city":"Elmhurst","state":"Pennsylvania","state_ab":"PA","county":"Lackawanna","geo_location":{ "type": "Point", "coordinates": [-75.548, 41.3756] }},
{"zip_code":"18519","country":"US","city":"Dickson City","state":"Pennsylvania","state_ab":"PA","county":"Lackawanna","geo_location":{ "type": "Point", "coordinates": [-75.6243, 41.4623] }},
{"zip_code":"17503","country":"US","city":"Bart","state":"Pennsylvania","state_ab":"PA","county":"Lancaster","geo_location":{ "type": "Point", "coordinates": [-76.2976, 40.0185] }},
{"zip_code":"17516","country":"US","city":"Conestoga","state":"Pennsylvania","state_ab":"PA","county":"Lancaster","geo_location":{ "type": "Point", "coordinates": [-76.3575, 39.9403] }},
{"zip_code":"17529","country":"US","city":"Gordonville","state":"Pennsylvania","state_ab":"PA","county":"Lancaster","geo_location":{ "type": "Point", "coordinates": [-76.1106, 40.0353] }},
{"zip_code":"17543","country":"US","city":"Lititz","state":"Pennsylvania","state_ab":"PA","county":"Lancaster","geo_location":{ "type": "Point", "coordinates": [-76.3015, 40.1846] }},
{"zip_code":"17569","country":"US","city":"Reinholds","state":"Pennsylvania","state_ab":"PA","county":"Lancaster","geo_location":{ "type": "Point", "coordinates": [-76.1013, 40.2688] }},
{"zip_code":"17570","country":"US","city":"Rheems","state":"Pennsylvania","state_ab":"PA","county":"Lancaster","geo_location":{ "type": "Point", "coordinates": [-76.5717, 40.1296] }},
{"zip_code":"17583","country":"US","city":"West Willow","state":"Pennsylvania","state_ab":"PA","county":"Lancaster","geo_location":{ "type": "Point", "coordinates": [-76.2873, 39.9723] }},
{"zip_code":"17606","country":"US","city":"Lancaster","state":"Pennsylvania","state_ab":"PA","county":"Lancaster","geo_location":{ "type": "Point", "coordinates": [-76.3054, 40.1102] }},
{"zip_code":"17699","country":"US","city":"Lancaster","state":"Pennsylvania","state_ab":"PA","county":"Lancaster","geo_location":{ "type": "Point", "coordinates": [-76.2976, 40.0185] }},
{"zip_code":"16140","country":"US","city":"New Bedford","state":"Pennsylvania","state_ab":"PA","county":"Lawrence","geo_location":{ "type": "Point", "coordinates": [-80.3084, 40.9897] }},
{"zip_code":"17026","country":"US","city":"Fredericksburg","state":"Pennsylvania","state_ab":"PA","county":"Lebanon","geo_location":{ "type": "Point", "coordinates": [-76.4267, 40.4524] }},
{"zip_code":"17039","country":"US","city":"Kleinfeltersville","state":"Pennsylvania","state_ab":"PA","county":"Lebanon","geo_location":{ "type": "Point", "coordinates": [-76.2584, 40.3005] }},
{"zip_code":"18069","country":"US","city":"Orefield","state":"Pennsylvania","state_ab":"PA","county":"Lehigh","geo_location":{ "type": "Point", "coordinates": [-75.5974, 40.6248] }},
{"zip_code":"18106","country":"US","city":"Allentown","state":"Pennsylvania","state_ab":"PA","county":"Lehigh","geo_location":{ "type": "Point", "coordinates": [-75.5911, 40.5824] }},
{"zip_code":"18223","country":"US","city":"Ebervale","state":"Pennsylvania","state_ab":"PA","county":"Luzerne","geo_location":{ "type": "Point", "coordinates": [-75.8801, 41.2722] }},
{"zip_code":"18249","country":"US","city":"Sugarloaf","state":"Pennsylvania","state_ab":"PA","county":"Luzerne","geo_location":{ "type": "Point", "coordinates": [-76.0717, 40.9971] }},
{"zip_code":"18690","country":"US","city":"Dallas","state":"Pennsylvania","state_ab":"PA","county":"Luzerne","geo_location":{ "type": "Point", "coordinates": [-75.8801, 41.2722] }},
{"zip_code":"18766","country":"US","city":"Wilkes Barre","state":"Pennsylvania","state_ab":"PA","county":"Luzerne","geo_location":{ "type": "Point", "coordinates": [-75.8896, 41.2448] }},
{"zip_code":"17723","country":"US","city":"Jersey Shore","state":"Pennsylvania","state_ab":"PA","county":"Lycoming","geo_location":{ "type": "Point", "coordinates": [-77.4562, 41.432] }},
{"zip_code":"17763","country":"US","city":"Ralston","state":"Pennsylvania","state_ab":"PA","county":"Lycoming","geo_location":{ "type": "Point", "coordinates": [-76.9583, 41.5038] }},
{"zip_code":"17776","country":"US","city":"Waterville","state":"Pennsylvania","state_ab":"PA","county":"Lycoming","geo_location":{ "type": "Point", "coordinates": [-77.3604, 41.3114] }},
{"zip_code":"16333","country":"US","city":"Ludlow","state":"Pennsylvania","state_ab":"PA","county":"McKean","geo_location":{ "type": "Point", "coordinates": [-78.7873, 41.7428] }},
{"zip_code":"16733","country":"US","city":"Hazel Hurst","state":"Pennsylvania","state_ab":"PA","county":"McKean","geo_location":{ "type": "Point", "coordinates": [-78.5797, 41.8011] }},
{"zip_code":"16113","country":"US","city":"Clark","state":"Pennsylvania","state_ab":"PA","county":"Mercer","geo_location":{ "type": "Point", "coordinates": [-80.4237, 41.2866] }},
{"zip_code":"16153","country":"US","city":"Stoneboro","state":"Pennsylvania","state_ab":"PA","county":"Mercer","geo_location":{ "type": "Point", "coordinates": [-80.0976, 41.3439] }},
{"zip_code":"18326","country":"US","city":"Cresco","state":"Pennsylvania","state_ab":"PA","county":"Monroe","geo_location":{ "type": "Point", "coordinates": [-75.2682, 41.1606] }},
{"zip_code":"18353","country":"US","city":"Saylorsburg","state":"Pennsylvania","state_ab":"PA","county":"Monroe","geo_location":{ "type": "Point", "coordinates": [-75.367, 40.8965] }},
{"zip_code":"18610","country":"US","city":"Blakeslee","state":"Pennsylvania","state_ab":"PA","county":"Monroe","geo_location":{ "type": "Point", "coordinates": [-75.5343, 41.0485] }},
{"zip_code":"18070","country":"US","city":"Palm","state":"Pennsylvania","state_ab":"PA","county":"Montgomery","geo_location":{ "type": "Point", "coordinates": [-75.5331, 40.4317] }},
{"zip_code":"19006","country":"US","city":"Huntingdon Valley","state":"Pennsylvania","state_ab":"PA","county":"Montgomery","geo_location":{ "type": "Point", "coordinates": [-75.0607, 40.1284] }},
{"zip_code":"19046","country":"US","city":"Jenkintown","state":"Pennsylvania","state_ab":"PA","county":"Montgomery","geo_location":{ "type": "Point", "coordinates": [-75.1078, 40.098] }},
{"zip_code":"19406","country":"US","city":"King Of Prussia","state":"Pennsylvania","state_ab":"PA","county":"Montgomery","geo_location":{ "type": "Point", "coordinates": [-75.3737, 40.0956] }},
{"zip_code":"19420","country":"US","city":"Arcola","state":"Pennsylvania","state_ab":"PA","county":"Montgomery","geo_location":{ "type": "Point", "coordinates": [-75.4567, 40.1529] }},
{"zip_code":"19446","country":"US","city":"Lansdale","state":"Pennsylvania","state_ab":"PA","county":"Montgomery","geo_location":{ "type": "Point", "coordinates": [-75.2955, 40.2378] }},
{"zip_code":"19473","country":"US","city":"Schwenksville","state":"Pennsylvania","state_ab":"PA","county":"Montgomery","geo_location":{ "type": "Point", "coordinates": [-75.4602, 40.2471] }},
{"zip_code":"19486","country":"US","city":"West Point","state":"Pennsylvania","state_ab":"PA","county":"Montgomery","geo_location":{ "type": "Point", "coordinates": [-75.3019, 40.2033] }},
{"zip_code":"18003","country":"US","city":"Lehigh Valley","state":"Pennsylvania","state_ab":"PA","county":"Northampton","geo_location":{ "type": "Point", "coordinates": [-75.4712, 40.6934] }},
{"zip_code":"18016","country":"US","city":"Bethlehem","state":"Pennsylvania","state_ab":"PA","county":"Northampton","geo_location":{ "type": "Point", "coordinates": [-75.4712, 40.6934] }},
{"zip_code":"18043","country":"US","city":"Easton","state":"Pennsylvania","state_ab":"PA","county":"Northampton","geo_location":{ "type": "Point", "coordinates": [-75.1372, 40.7928] }},
{"zip_code":"18083","country":"US","city":"Stockertown","state":"Pennsylvania","state_ab":"PA","county":"Northampton","geo_location":{ "type": "Point", "coordinates": [-75.3635, 40.7729] }},
{"zip_code":"17749","country":"US","city":"Mc Ewensville","state":"Pennsylvania","state_ab":"PA","county":"Northumberland","geo_location":{ "type": "Point", "coordinates": [-76.8184, 41.072] }},
{"zip_code":"17840","country":"US","city":"Locust Gap","state":"Pennsylvania","state_ab":"PA","county":"Northumberland","geo_location":{ "type": "Point", "coordinates": [-76.4383, 40.7727] }},
{"zip_code":"17866","country":"US","city":"Coal Township","state":"Pennsylvania","state_ab":"PA","county":"Northumberland","geo_location":{ "type": "Point", "coordinates": [-76.5519, 40.7917] }},
{"zip_code":"17040","country":"US","city":"Landisburg","state":"Pennsylvania","state_ab":"PA","county":"Perry","geo_location":{ "type": "Point", "coordinates": [-77.3191, 40.3326] }},
{"zip_code":"17053","country":"US","city":"Marysville","state":"Pennsylvania","state_ab":"PA","county":"Perry","geo_location":{ "type": "Point", "coordinates": [-76.9722, 40.3351] }},
{"zip_code":"19019","country":"US","city":"Philadelphia","state":"Pennsylvania","state_ab":"PA","county":"Philadelphia","geo_location":{ "type": "Point", "coordinates": [-75.1179, 40.0018] }},
{"zip_code":"19099","country":"US","city":"Philadelphia","state":"Pennsylvania","state_ab":"PA","county":"Philadelphia","geo_location":{ "type": "Point", "coordinates": [-75.1179, 40.0018] }},
{"zip_code":"19109","country":"US","city":"Philadelphia","state":"Pennsylvania","state_ab":"PA","county":"Philadelphia","geo_location":{ "type": "Point", "coordinates": [-75.1637, 39.9496] }},
{"zip_code":"19110","country":"US","city":"Philadelphia","state":"Pennsylvania","state_ab":"PA","county":"Philadelphia","geo_location":{ "type": "Point", "coordinates": [-75.1636, 39.9502] }},
{"zip_code":"19123","country":"US","city":"Philadelphia","state":"Pennsylvania","state_ab":"PA","county":"Philadelphia","geo_location":{ "type": "Point", "coordinates": [-75.151, 39.966] }},
{"zip_code":"19136","country":"US","city":"Philadelphia","state":"Pennsylvania","state_ab":"PA","county":"Philadelphia","geo_location":{ "type": "Point", "coordinates": [-75.0244, 40.0422] }},
{"zip_code":"19149","country":"US","city":"Philadelphia","state":"Pennsylvania","state_ab":"PA","county":"Philadelphia","geo_location":{ "type": "Point", "coordinates": [-75.0664, 40.0369] }},
{"zip_code":"19150","country":"US","city":"Philadelphia","state":"Pennsylvania","state_ab":"PA","county":"Philadelphia","geo_location":{ "type": "Point", "coordinates": [-75.1706, 40.0726] }},
{"zip_code":"19176","country":"US","city":"Philadelphia","state":"Pennsylvania","state_ab":"PA","county":"Philadelphia County","geo_location":{ "type": "Point", "coordinates": [-75.1642, 39.9522] }},
{"zip_code":"19190","country":"US","city":"Philadelphia","state":"Pennsylvania","state_ab":"PA","county":"Philadelphia County","geo_location":{ "type": "Point", "coordinates": [-75.1442, 39.9484] }},
{"zip_code":"18340","country":"US","city":"Millrift","state":"Pennsylvania","state_ab":"PA","county":"Pike","geo_location":{ "type": "Point", "coordinates": [-74.7511, 41.4137] }},
{"zip_code":"16720","country":"US","city":"Austin","state":"Pennsylvania","state_ab":"PA","county":"Potter","geo_location":{ "type": "Point", "coordinates": [-78.0908, 41.6296] }},
{"zip_code":"16746","country":"US","city":"Roulette","state":"Pennsylvania","state_ab":"PA","county":"Potter","geo_location":{ "type": "Point", "coordinates": [-78.1538, 41.7738] }},
{"zip_code":"17929","country":"US","city":"Cressona","state":"Pennsylvania","state_ab":"PA","county":"Schuylkill","geo_location":{ "type": "Point", "coordinates": [-76.195, 40.6284] }},
{"zip_code":"17930","country":"US","city":"Cumbola","state":"Pennsylvania","state_ab":"PA","county":"Schuylkill","geo_location":{ "type": "Point", "coordinates": [-76.1392, 40.7114] }},
{"zip_code":"17943","country":"US","city":"Lavelle","state":"Pennsylvania","state_ab":"PA","county":"Schuylkill","geo_location":{ "type": "Point", "coordinates": [-76.3872, 40.7614] }},
{"zip_code":"17970","country":"US","city":"Saint Clair","state":"Pennsylvania","state_ab":"PA","county":"Schuylkill","geo_location":{ "type": "Point", "coordinates": [-76.1924, 40.7193] }},
{"zip_code":"17983","country":"US","city":"Valley View","state":"Pennsylvania","state_ab":"PA","county":"Schuylkill","geo_location":{ "type": "Point", "coordinates": [-76.5448, 40.6445] }},
{"zip_code":"19549","country":"US","city":"Port Clinton","state":"Pennsylvania","state_ab":"PA","county":"Schuylkill","geo_location":{ "type": "Point", "coordinates": [-76.0267, 40.5818] }},
{"zip_code":"17813","country":"US","city":"Beavertown","state":"Pennsylvania","state_ab":"PA","county":"Snyder","geo_location":{ "type": "Point", "coordinates": [-77.1691, 40.7774] }},
{"zip_code":"17853","country":"US","city":"Mount Pleasant Mills","state":"Pennsylvania","state_ab":"PA","county":"Snyder","geo_location":{ "type": "Point", "coordinates": [-77.0135, 40.7237] }},
{"zip_code":"15510","country":"US","city":"Somerset","state":"Pennsylvania","state_ab":"PA","county":"Somerset","geo_location":{ "type": "Point", "coordinates": [-79.0409, 39.9633] }},
{"zip_code":"15549","country":"US","city":"Listie","state":"Pennsylvania","state_ab":"PA","county":"Somerset","geo_location":{ "type": "Point", "coordinates": [-79.0123, 40.0208] }},
{"zip_code":"15563","country":"US","city":"Stoystown","state":"Pennsylvania","state_ab":"PA","county":"Somerset","geo_location":{ "type": "Point", "coordinates": [-78.9658, 40.0948] }},
{"zip_code":"15936","country":"US","city":"Hooversville","state":"Pennsylvania","state_ab":"PA","county":"Somerset","geo_location":{ "type": "Point", "coordinates": [-78.9141, 40.1488] }},
{"zip_code":"15963","country":"US","city":"Windber","state":"Pennsylvania","state_ab":"PA","county":"Somerset","geo_location":{ "type": "Point", "coordinates": [-78.8303, 40.2287] }},
{"zip_code":"18430","country":"US","city":"Herrick Center","state":"Pennsylvania","state_ab":"PA","county":"Susquehanna","geo_location":{ "type": "Point", "coordinates": [-75.5044, 41.7643] }},
{"zip_code":"18470","country":"US","city":"Union Dale","state":"Pennsylvania","state_ab":"PA","county":"Susquehanna","geo_location":{ "type": "Point", "coordinates": [-75.5465, 41.7079] }},
{"zip_code":"18816","country":"US","city":"Dimock","state":"Pennsylvania","state_ab":"PA","county":"Susquehanna","geo_location":{ "type": "Point", "coordinates": [-75.8046, 41.8203] }},
{"zip_code":"18830","country":"US","city":"Little Meadows","state":"Pennsylvania","state_ab":"PA","county":"Susquehanna","geo_location":{ "type": "Point", "coordinates": [-76.1185, 41.9766] }},
{"zip_code":"18843","country":"US","city":"South Montrose","state":"Pennsylvania","state_ab":"PA","county":"Susquehanna","geo_location":{ "type": "Point", "coordinates": [-75.8831, 41.8237] }},
{"zip_code":"16939","country":"US","city":"Morris Run","state":"Pennsylvania","state_ab":"PA","county":"Tioga","geo_location":{ "type": "Point", "coordinates": [-77.0152, 41.6775] }},
{"zip_code":"16940","country":"US","city":"Nelson","state":"Pennsylvania","state_ab":"PA","county":"Tioga","geo_location":{ "type": "Point", "coordinates": [-77.2419, 41.9787] }},
{"zip_code":"17880","country":"US","city":"Swengel","state":"Pennsylvania","state_ab":"PA","county":"Union","geo_location":{ "type": "Point", "coordinates": [-77.0818, 40.9781] }},
{"zip_code":"16319","country":"US","city":"Cranberry","state":"Pennsylvania","state_ab":"PA","county":"Venango","geo_location":{ "type": "Point", "coordinates": [-79.6317, 41.3197] }},
{"zip_code":"16346","country":"US","city":"Seneca","state":"Pennsylvania","state_ab":"PA","county":"Venango","geo_location":{ "type": "Point", "coordinates": [-79.6759, 41.3744] }},
{"zip_code":"16373","country":"US","city":"Emlenton","state":"Pennsylvania","state_ab":"PA","county":"Venango","geo_location":{ "type": "Point", "coordinates": [-79.747, 41.2028] }},
{"zip_code":"16436","country":"US","city":"Spring Creek","state":"Pennsylvania","state_ab":"PA","county":"Warren","geo_location":{ "type": "Point", "coordinates": [-79.4482, 41.92] }},
{"zip_code":"15019","country":"US","city":"Bulger","state":"Pennsylvania","state_ab":"PA","county":"Washington","geo_location":{ "type": "Point", "coordinates": [-80.3622, 40.4051] }},
{"zip_code":"15033","country":"US","city":"Donora","state":"Pennsylvania","state_ab":"PA","county":"Washington","geo_location":{ "type": "Point", "coordinates": [-79.8619, 40.1768] }},
{"zip_code":"15060","country":"US","city":"Midway","state":"Pennsylvania","state_ab":"PA","county":"Washington","geo_location":{ "type": "Point", "coordinates": [-80.2921, 40.368] }},
{"zip_code":"15329","country":"US","city":"Prosperity","state":"Pennsylvania","state_ab":"PA","county":"Washington","geo_location":{ "type": "Point", "coordinates": [-80.2613, 40.0224] }},
{"zip_code":"15330","country":"US","city":"Eighty Four","state":"Pennsylvania","state_ab":"PA","county":"Washington","geo_location":{ "type": "Point", "coordinates": [-80.0627, 40.1868] }},
{"zip_code":"15356","country":"US","city":"West Middletown","state":"Pennsylvania","state_ab":"PA","county":"Washington County","geo_location":{ "type": "Point", "coordinates": [-80.3974, 40.2772] }},
{"zip_code":"15419","country":"US","city":"California","state":"Pennsylvania","state_ab":"PA","county":"Washington","geo_location":{ "type": "Point", "coordinates": [-79.8953, 40.0625] }},
{"zip_code":"18443","country":"US","city":"Milanville","state":"Pennsylvania","state_ab":"PA","county":"Wayne","geo_location":{ "type": "Point", "coordinates": [-75.1185, 41.667] }},
{"zip_code":"18456","country":"US","city":"Prompton","state":"Pennsylvania","state_ab":"PA","county":"Wayne","geo_location":{ "type": "Point", "coordinates": [-75.3207, 41.582] }},
{"zip_code":"18469","country":"US","city":"Tyler Hill","state":"Pennsylvania","state_ab":"PA","county":"Wayne","geo_location":{ "type": "Point", "coordinates": [-75.1422, 41.7011] }},
{"zip_code":"15613","country":"US","city":"Apollo","state":"Pennsylvania","state_ab":"PA","county":"Westmoreland","geo_location":{ "type": "Point", "coordinates": [-79.5772, 40.5565] }},
{"zip_code":"15626","country":"US","city":"Delmont","state":"Pennsylvania","state_ab":"PA","county":"Westmoreland","geo_location":{ "type": "Point", "coordinates": [-79.5764, 40.4139] }},
{"zip_code":"15639","country":"US","city":"Hunker","state":"Pennsylvania","state_ab":"PA","county":"Westmoreland","geo_location":{ "type": "Point", "coordinates": [-79.5824, 40.2149] }},
{"zip_code":"15640","country":"US","city":"Hutchinson","state":"Pennsylvania","state_ab":"PA","county":"Westmoreland","geo_location":{ "type": "Point", "coordinates": [-79.7328, 40.2251] }},
{"zip_code":"15666","country":"US","city":"Mount Pleasant","state":"Pennsylvania","state_ab":"PA","county":"Westmoreland","geo_location":{ "type": "Point", "coordinates": [-79.5134, 40.1742] }},
{"zip_code":"15679","country":"US","city":"Ruffs Dale","state":"Pennsylvania","state_ab":"PA","county":"Westmoreland","geo_location":{ "type": "Point", "coordinates": [-79.6277, 40.1585] }},
{"zip_code":"15680","country":"US","city":"Salina","state":"Pennsylvania","state_ab":"PA","county":"Westmoreland","geo_location":{ "type": "Point", "coordinates": [-79.4959, 40.5189] }},
{"zip_code":"15693","country":"US","city":"Whitney","state":"Pennsylvania","state_ab":"PA","county":"Westmoreland","geo_location":{ "type": "Point", "coordinates": [-79.4086, 40.2483] }},
{"zip_code":"15923","country":"US","city":"Bolivar","state":"Pennsylvania","state_ab":"PA","county":"Westmoreland","geo_location":{ "type": "Point", "coordinates": [-79.1605, 40.3673] }},
{"zip_code":"18623","country":"US","city":"Laceyville","state":"Pennsylvania","state_ab":"PA","county":"Wyoming","geo_location":{ "type": "Point", "coordinates": [-76.1426, 41.6662] }},
{"zip_code":"18636","country":"US","city":"Noxen","state":"Pennsylvania","state_ab":"PA","county":"Wyoming","geo_location":{ "type": "Point", "coordinates": [-76.046, 41.4181] }},
{"zip_code":"17309","country":"US","city":"Brogue","state":"Pennsylvania","state_ab":"PA","county":"York","geo_location":{ "type": "Point", "coordinates": [-76.4673, 39.8608] }},
{"zip_code":"17323","country":"US","city":"Franklintown","state":"Pennsylvania","state_ab":"PA","county":"York","geo_location":{ "type": "Point", "coordinates": [-77.0279, 40.075] }},
{"zip_code":"17349","country":"US","city":"New Freedom","state":"Pennsylvania","state_ab":"PA","county":"York","geo_location":{ "type": "Point", "coordinates": [-76.6841, 39.7423] }},
{"zip_code":"17363","country":"US","city":"Stewartstown","state":"Pennsylvania","state_ab":"PA","county":"York","geo_location":{ "type": "Point", "coordinates": [-76.597, 39.772] }},
{"zip_code":"96940","country":"US","city":"Palau","state":"","state_ab":"PW","county":"","geo_location":{ "type": "Point", "coordinates": [134.3622, 7.2257] }},
{"zip_code":"2806","country":"US","city":"Barrington","state":"Rhode Island","state_ab":"RI","county":"Bristol","geo_location":{ "type": "Point", "coordinates": [-71.3175, 41.7443] }},
{"zip_code":"2886","country":"US","city":"Warwick","state":"Rhode Island","state_ab":"RI","county":"Kent","geo_location":{ "type": "Point", "coordinates": [-71.4476, 41.7026] }},
{"zip_code":"2859","country":"US","city":"Pascoag","state":"Rhode Island","state_ab":"RI","county":"Providence","geo_location":{ "type": "Point", "coordinates": [-71.7099, 41.9627] }},
{"zip_code":"2860","country":"US","city":"Pawtucket","state":"Rhode Island","state_ab":"RI","county":"Providence","geo_location":{ "type": "Point", "coordinates": [-71.3907, 41.8729] }},
{"zip_code":"2909","country":"US","city":"Providence","state":"Rhode Island","state_ab":"RI","county":"Providence","geo_location":{ "type": "Point", "coordinates": [-71.4443, 41.8206] }},
{"zip_code":"2910","country":"US","city":"Cranston","state":"Rhode Island","state_ab":"RI","county":"Providence","geo_location":{ "type": "Point", "coordinates": [-71.4383, 41.7766] }},
{"zip_code":"2833","country":"US","city":"Hopkinton","state":"Rhode Island","state_ab":"RI","county":"Washington","geo_location":{ "type": "Point", "coordinates": [-71.7726, 41.4751] }},
{"zip_code":"2873","country":"US","city":"Rockville","state":"Rhode Island","state_ab":"RI","county":"Washington","geo_location":{ "type": "Point", "coordinates": [-71.774, 41.5199] }},
{"zip_code":"29809","country":"US","city":"New Ellenton","state":"South Carolina","state_ab":"SC","county":"Aiken","geo_location":{ "type": "Point", "coordinates": [-81.69, 33.413] }},
{"zip_code":"29850","country":"US","city":"Vaucluse","state":"South Carolina","state_ab":"SC","county":"Aiken","geo_location":{ "type": "Point", "coordinates": [-81.6862, 33.5458] }},
{"zip_code":"29810","country":"US","city":"Allendale","state":"South Carolina","state_ab":"SC","county":"Allendale","geo_location":{ "type": "Point", "coordinates": [-81.3203, 33.0077] }},
{"zip_code":"29836","country":"US","city":"Martin","state":"South Carolina","state_ab":"SC","county":"Allendale","geo_location":{ "type": "Point", "coordinates": [-81.5003, 33.1093] }},
{"zip_code":"29849","country":"US","city":"Ulmer","state":"South Carolina","state_ab":"SC","county":"Allendale","geo_location":{ "type": "Point", "coordinates": [-81.2068, 33.0988] }},
{"zip_code":"29656","country":"US","city":"La France","state":"South Carolina","state_ab":"SC","county":"Anderson","geo_location":{ "type": "Point", "coordinates": [-82.7654, 34.6252] }},
{"zip_code":"29669","country":"US","city":"Pelzer","state":"South Carolina","state_ab":"SC","county":"Anderson","geo_location":{ "type": "Point", "coordinates": [-82.4673, 34.6461] }},
{"zip_code":"29670","country":"US","city":"Pendleton","state":"South Carolina","state_ab":"SC","county":"Anderson","geo_location":{ "type": "Point", "coordinates": [-82.7406, 34.6369] }},
{"zip_code":"29926","country":"US","city":"Hilton Head Island","state":"South Carolina","state_ab":"SC","county":"Beaufort","geo_location":{ "type": "Point", "coordinates": [-80.7476, 32.2077] }},
{"zip_code":"29940","country":"US","city":"Seabrook","state":"South Carolina","state_ab":"SC","county":"Beaufort","geo_location":{ "type": "Point", "coordinates": [-80.7192, 32.5693] }},
{"zip_code":"29410","country":"US","city":"Charleston","state":"South Carolina","state_ab":"SC","county":"Berkeley","geo_location":{ "type": "Point", "coordinates": [-80.0027, 32.9302] }},
{"zip_code":"29436","country":"US","city":"Cross","state":"South Carolina","state_ab":"SC","county":"Berkeley","geo_location":{ "type": "Point", "coordinates": [-80.1859, 33.3364] }},
{"zip_code":"29450","country":"US","city":"Huger","state":"South Carolina","state_ab":"SC","county":"Berkeley","geo_location":{ "type": "Point", "coordinates": [-79.7841, 33.0439] }},
{"zip_code":"29476","country":"US","city":"Russellville","state":"South Carolina","state_ab":"SC","county":"Berkeley","geo_location":{ "type": "Point", "coordinates": [-79.9042, 33.1642] }},
{"zip_code":"29409","country":"US","city":"Charleston","state":"South Carolina","state_ab":"SC","county":"Charleston","geo_location":{ "type": "Point", "coordinates": [-79.9605, 32.7961] }},
{"zip_code":"29423","country":"US","city":"Charleston","state":"South Carolina","state_ab":"SC","county":"Charleston","geo_location":{ "type": "Point", "coordinates": [-79.8577, 32.8488] }},
{"zip_code":"29449","country":"US","city":"Hollywood","state":"South Carolina","state_ab":"SC","county":"Charleston","geo_location":{ "type": "Point", "coordinates": [-80.2744, 32.7105] }},
{"zip_code":"29719","country":"US","city":"Kings Creek","state":"South Carolina","state_ab":"SC","county":"Cherokee County","geo_location":{ "type": "Point", "coordinates": [-81.4368, 35.0737] }},
{"zip_code":"29706","country":"US","city":"Chester","state":"South Carolina","state_ab":"SC","county":"Chester","geo_location":{ "type": "Point", "coordinates": [-81.2186, 34.7149] }},
{"zip_code":"29540","country":"US","city":"Darlington","state":"South Carolina","state_ab":"SC","county":"Darlington","geo_location":{ "type": "Point", "coordinates": [-79.8422, 34.3843] }},
{"zip_code":"29593","country":"US","city":"Society Hill","state":"South Carolina","state_ab":"SC","county":"Darlington","geo_location":{ "type": "Point", "coordinates": [-79.8865, 34.4512] }},
{"zip_code":"29180","country":"US","city":"Winnsboro","state":"South Carolina","state_ab":"SC","county":"Fairfield","geo_location":{ "type": "Point", "coordinates": [-81.109, 34.381] }},
{"zip_code":"29603","country":"US","city":"Greenville","state":"South Carolina","state_ab":"SC","county":"Greenville","geo_location":{ "type": "Point", "coordinates": [-82.3715, 34.8377] }},
{"zip_code":"29616","country":"US","city":"Greenville","state":"South Carolina","state_ab":"SC","county":"Greenville","geo_location":{ "type": "Point", "coordinates": [-82.4538, 34.8497] }},
{"zip_code":"29683","country":"US","city":"Slater","state":"South Carolina","state_ab":"SC","county":"Greenville","geo_location":{ "type": "Point", "coordinates": [-82.4941, 35.0289] }},
{"zip_code":"29913","country":"US","city":"Crocketville","state":"South Carolina","state_ab":"SC","county":"Hampton","geo_location":{ "type": "Point", "coordinates": [-81.1846, 32.9299] }},
{"zip_code":"29939","country":"US","city":"Scotia","state":"South Carolina","state_ab":"SC","county":"Hampton","geo_location":{ "type": "Point", "coordinates": [-81.2455, 32.6786] }},
{"zip_code":"29526","country":"US","city":"Conway","state":"South Carolina","state_ab":"SC","county":"Horry","geo_location":{ "type": "Point", "coordinates": [-79.0557, 33.8731] }},
{"zip_code":"29566","country":"US","city":"Little River","state":"South Carolina","state_ab":"SC","county":"Horry","geo_location":{ "type": "Point", "coordinates": [-78.6508, 33.8768] }},
{"zip_code":"29579","country":"US","city":"Myrtle Beach","state":"South Carolina","state_ab":"SC","county":"Horry","geo_location":{ "type": "Point", "coordinates": [-78.9787, 33.7377] }},
{"zip_code":"29009","country":"US","city":"Bethune","state":"South Carolina","state_ab":"SC","county":"Kershaw","geo_location":{ "type": "Point", "coordinates": [-80.3662, 34.4201] }},
{"zip_code":"29720","country":"US","city":"Lancaster","state":"South Carolina","state_ab":"SC","county":"Lancaster","geo_location":{ "type": "Point", "coordinates": [-80.7616, 34.749] }},
{"zip_code":"29360","country":"US","city":"Laurens","state":"South Carolina","state_ab":"SC","county":"Laurens","geo_location":{ "type": "Point", "coordinates": [-82.0551, 34.5289] }},
{"zip_code":"29010","country":"US","city":"Bishopville","state":"South Carolina","state_ab":"SC","county":"Lee","geo_location":{ "type": "Point", "coordinates": [-80.275, 34.2241] }},
{"zip_code":"29036","country":"US","city":"Chapin","state":"South Carolina","state_ab":"SC","county":"Lexington","geo_location":{ "type": "Point", "coordinates": [-81.3318, 34.1312] }},
{"zip_code":"29126","country":"US","city":"Pomaria","state":"South Carolina","state_ab":"SC","county":"Newberry","geo_location":{ "type": "Point", "coordinates": [-81.45, 34.3063] }},
{"zip_code":"29643","country":"US","city":"Fair Play","state":"South Carolina","state_ab":"SC","county":"Oconee","geo_location":{ "type": "Point", "coordinates": [-83.0297, 34.5427] }},
{"zip_code":"29696","country":"US","city":"West Union","state":"South Carolina","state_ab":"SC","county":"Oconee","geo_location":{ "type": "Point", "coordinates": [-83.0399, 34.7516] }},
{"zip_code":"29076","country":"US","city":"Livingston","state":"South Carolina","state_ab":"SC","county":"Orangeburg County","geo_location":{ "type": "Point", "coordinates": [-81.1187, 33.5532] }},
{"zip_code":"29113","country":"US","city":"Norway","state":"South Carolina","state_ab":"SC","county":"Orangeburg","geo_location":{ "type": "Point", "coordinates": [-81.1097, 33.4534] }},
{"zip_code":"29630","country":"US","city":"Central","state":"South Carolina","state_ab":"SC","county":"Pickens","geo_location":{ "type": "Point", "coordinates": [-82.7947, 34.7401] }},
{"zip_code":"29063","country":"US","city":"Irmo","state":"South Carolina","state_ab":"SC","county":"Richland","geo_location":{ "type": "Point", "coordinates": [-81.1966, 34.1103] }},
{"zip_code":"29203","country":"US","city":"Columbia","state":"South Carolina","state_ab":"SC","county":"Richland","geo_location":{ "type": "Point", "coordinates": [-81.0265, 34.0635] }},
{"zip_code":"29216","country":"US","city":"Columbia","state":"South Carolina","state_ab":"SC","county":"Richland","geo_location":{ "type": "Point", "coordinates": [-80.9708, 34.006] }},
{"zip_code":"29229","country":"US","city":"Columbia","state":"South Carolina","state_ab":"SC","county":"Richland","geo_location":{ "type": "Point", "coordinates": [-80.8892, 34.1388] }},
{"zip_code":"29230","country":"US","city":"Columbia","state":"South Carolina","state_ab":"SC","county":"Richland","geo_location":{ "type": "Point", "coordinates": [-81.0626, 34.1075] }},
{"zip_code":"29166","country":"US","city":"Ward","state":"South Carolina","state_ab":"SC","county":"Saluda","geo_location":{ "type": "Point", "coordinates": [-81.7283, 33.8849] }},
{"zip_code":"29306","country":"US","city":"Spartanburg","state":"South Carolina","state_ab":"SC","county":"Spartanburg","geo_location":{ "type": "Point", "coordinates": [-81.9228, 34.8937] }},
{"zip_code":"29319","country":"US","city":"Spartanburg","state":"South Carolina","state_ab":"SC","county":"Spartanburg","geo_location":{ "type": "Point", "coordinates": [-81.969, 34.8882] }},
{"zip_code":"29320","country":"US","city":"Arcadia","state":"South Carolina","state_ab":"SC","county":"Spartanburg","geo_location":{ "type": "Point", "coordinates": [-81.9916, 34.9572] }},
{"zip_code":"29333","country":"US","city":"Drayton","state":"South Carolina","state_ab":"SC","county":"Spartanburg","geo_location":{ "type": "Point", "coordinates": [-81.9064, 34.9685] }},
{"zip_code":"29346","country":"US","city":"Glendale","state":"South Carolina","state_ab":"SC","county":"Spartanburg","geo_location":{ "type": "Point", "coordinates": [-81.9773, 35.0447] }},
{"zip_code":"29373","country":"US","city":"Pacolet Mills","state":"South Carolina","state_ab":"SC","county":"Spartanburg","geo_location":{ "type": "Point", "coordinates": [-81.7487, 34.9124] }},
{"zip_code":"29386","country":"US","city":"White Stone","state":"South Carolina","state_ab":"SC","county":"Spartanburg","geo_location":{ "type": "Point", "coordinates": [-81.969, 34.8882] }},
{"zip_code":"29153","country":"US","city":"Sumter","state":"South Carolina","state_ab":"SC","county":"Sumter","geo_location":{ "type": "Point", "coordinates": [-80.3206, 33.9446] }},
{"zip_code":"29580","country":"US","city":"Nesmith","state":"South Carolina","state_ab":"SC","county":"Williamsburg","geo_location":{ "type": "Point", "coordinates": [-79.5589, 33.6625] }},
{"zip_code":"29733","country":"US","city":"Rock Hill","state":"South Carolina","state_ab":"SC","county":"York","geo_location":{ "type": "Point", "coordinates": [-81.1787, 34.9926] }},
{"zip_code":"57350","country":"US","city":"Huron","state":"South Dakota","state_ab":"SD","county":"Beadle","geo_location":{ "type": "Point", "coordinates": [-98.2163, 44.359] }},
{"zip_code":"57066","country":"US","city":"Tyndall","state":"South Dakota","state_ab":"SD","county":"Bon Homme","geo_location":{ "type": "Point", "coordinates": [-97.8633, 42.99] }},
{"zip_code":"57026","country":"US","city":"Elkton","state":"South Dakota","state_ab":"SD","county":"Brookings","geo_location":{ "type": "Point", "coordinates": [-96.5011, 44.235] }},
{"zip_code":"57220","country":"US","city":"Bruce","state":"South Dakota","state_ab":"SD","county":"Brookings","geo_location":{ "type": "Point", "coordinates": [-96.911, 44.4675] }},
{"zip_code":"57426","country":"US","city":"Barnard","state":"South Dakota","state_ab":"SD","county":"Brown","geo_location":{ "type": "Point", "coordinates": [-98.5534, 45.7205] }},
{"zip_code":"57439","country":"US","city":"Ferney","state":"South Dakota","state_ab":"SD","county":"Brown","geo_location":{ "type": "Point", "coordinates": [-98.0837, 45.329] }},
{"zip_code":"57479","country":"US","city":"Warner","state":"South Dakota","state_ab":"SD","county":"Brown","geo_location":{ "type": "Point", "coordinates": [-98.4757, 45.3486] }},
{"zip_code":"57646","country":"US","city":"Mound City","state":"South Dakota","state_ab":"SD","county":"Campbell","geo_location":{ "type": "Point", "coordinates": [-100.0479, 45.6786] }},
{"zip_code":"57659","country":"US","city":"Walker","state":"South Dakota","state_ab":"SD","county":"Corson","geo_location":{ "type": "Point", "coordinates": [-101.1546, 45.7084] }},
{"zip_code":"57660","country":"US","city":"Watauga","state":"South Dakota","state_ab":"SD","county":"Corson","geo_location":{ "type": "Point", "coordinates": [-101.5129, 45.9276] }},
{"zip_code":"57363","country":"US","city":"Mount Vernon","state":"South Dakota","state_ab":"SD","county":"Davison","geo_location":{ "type": "Point", "coordinates": [-98.2633, 43.7204] }},
{"zip_code":"57219","country":"US","city":"Bristol","state":"South Dakota","state_ab":"SD","county":"Day","geo_location":{ "type": "Point", "coordinates": [-97.8086, 45.288] }},
{"zip_code":"57273","country":"US","city":"Waubay","state":"South Dakota","state_ab":"SD","county":"Day","geo_location":{ "type": "Point", "coordinates": [-97.295, 45.3784] }},
{"zip_code":"57633","country":"US","city":"Isabel","state":"South Dakota","state_ab":"SD","county":"Dewey","geo_location":{ "type": "Point", "coordinates": [-101.4385, 45.3962] }},
{"zip_code":"57763","country":"US","city":"Oelrichs","state":"South Dakota","state_ab":"SD","county":"Fall River","geo_location":{ "type": "Point", "coordinates": [-103.2162, 43.1551] }},
{"zip_code":"57466","country":"US","city":"Onaka","state":"South Dakota","state_ab":"SD","county":"Faulk","geo_location":{ "type": "Point", "coordinates": [-99.4551, 45.1965] }},
{"zip_code":"57246","country":"US","city":"Labolt","state":"South Dakota","state_ab":"SD","county":"Grant","geo_location":{ "type": "Point", "coordinates": [-96.6892, 45.0415] }},
{"zip_code":"57259","country":"US","city":"Revillo","state":"South Dakota","state_ab":"SD","county":"Grant","geo_location":{ "type": "Point", "coordinates": [-96.5557, 45.0805] }},
{"zip_code":"57529","country":"US","city":"Dallas","state":"South Dakota","state_ab":"SD","county":"Gregory","geo_location":{ "type": "Point", "coordinates": [-99.514, 43.2351] }},
{"zip_code":"57776","country":"US","city":"Redig","state":"South Dakota","state_ab":"SD","county":"Harding","geo_location":{ "type": "Point", "coordinates": [-103.4937, 45.5789] }},
{"zip_code":"57376","country":"US","city":"Tripp","state":"South Dakota","state_ab":"SD","county":"Hutchinson","geo_location":{ "type": "Point", "coordinates": [-97.9713, 43.2404] }},
{"zip_code":"57543","country":"US","city":"Kadoka","state":"South Dakota","state_ab":"SD","county":"Jackson","geo_location":{ "type": "Point", "coordinates": [-101.5523, 43.8446] }},
{"zip_code":"57750","country":"US","city":"Interior","state":"South Dakota","state_ab":"SD","county":"Jackson","geo_location":{ "type": "Point", "coordinates": [-101.9642, 43.7319] }},
{"zip_code":"57233","country":"US","city":"Erwin","state":"South Dakota","state_ab":"SD","county":"Kingsbury","geo_location":{ "type": "Point", "coordinates": [-97.4103, 44.4915] }},
{"zip_code":"57013","country":"US","city":"Canton","state":"South Dakota","state_ab":"SD","county":"Lincoln","geo_location":{ "type": "Point", "coordinates": [-96.5938, 43.3038] }},
{"zip_code":"57039","country":"US","city":"Lennox","state":"South Dakota","state_ab":"SD","county":"Lincoln","geo_location":{ "type": "Point", "coordinates": [-96.8821, 43.3451] }},
{"zip_code":"57569","country":"US","city":"Reliance","state":"South Dakota","state_ab":"SD","county":"Lyman","geo_location":{ "type": "Point", "coordinates": [-99.4857, 43.8302] }},
{"zip_code":"57736","country":"US","city":"Elm Springs","state":"South Dakota","state_ab":"SD","county":"Meade","geo_location":{ "type": "Point", "coordinates": [-102.5239, 44.3488] }},
{"zip_code":"57323","country":"US","city":"Carthage","state":"South Dakota","state_ab":"SD","county":"Miner","geo_location":{ "type": "Point", "coordinates": [-97.7116, 44.1496] }},
{"zip_code":"57349","country":"US","city":"Howard","state":"South Dakota","state_ab":"SD","county":"Miner","geo_location":{ "type": "Point", "coordinates": [-97.5603, 44.0371] }},
{"zip_code":"57103","country":"US","city":"Sioux Falls","state":"South Dakota","state_ab":"SD","county":"Minnehaha","geo_location":{ "type": "Point", "coordinates": [-96.6864, 43.5374] }},
{"zip_code":"57116","country":"US","city":"Sioux Falls","state":"South Dakota","state_ab":"SD","county":"Minnehaha County","geo_location":{ "type": "Point", "coordinates": [-96.7686, 43.5123] }},
{"zip_code":"57196","country":"US","city":"Sioux Falls","state":"South Dakota","state_ab":"SD","county":"Minnehaha","geo_location":{ "type": "Point", "coordinates": [-96.7913, 43.6746] }},
{"zip_code":"57709","country":"US","city":"Rapid City","state":"South Dakota","state_ab":"SD","county":"Pennington","geo_location":{ "type": "Point", "coordinates": [-103.3171, 44.0761] }},
{"zip_code":"57790","country":"US","city":"Wall","state":"South Dakota","state_ab":"SD","county":"Pennington","geo_location":{ "type": "Point", "coordinates": [-102.2245, 43.9812] }},
{"zip_code":"57620","country":"US","city":"Bison","state":"South Dakota","state_ab":"SD","county":"Perkins","geo_location":{ "type": "Point", "coordinates": [-102.4827, 45.5161] }},
{"zip_code":"57260","country":"US","city":"Rosholt","state":"South Dakota","state_ab":"SD","county":"Roberts","geo_location":{ "type": "Point", "coordinates": [-96.7174, 45.8753] }},
{"zip_code":"57440","country":"US","city":"Frankfort","state":"South Dakota","state_ab":"SD","county":"Spink","geo_location":{ "type": "Point", "coordinates": [-98.2935, 44.8084] }},
{"zip_code":"57570","country":"US","city":"Rosebud","state":"South Dakota","state_ab":"SD","county":"Todd","geo_location":{ "type": "Point", "coordinates": [-100.6269, 43.3024] }},
{"zip_code":"57053","country":"US","city":"Parker","state":"South Dakota","state_ab":"SD","county":"Turner","geo_location":{ "type": "Point", "coordinates": [-97.1333, 43.402] }},
{"zip_code":"57040","country":"US","city":"Lesterville","state":"South Dakota","state_ab":"SD","county":"Yankton","geo_location":{ "type": "Point", "coordinates": [-97.5483, 43.055] }},
{"zip_code":"57079","country":"US","city":"Yankton","state":"South Dakota","state_ab":"SD","county":"Yankton","geo_location":{ "type": "Point", "coordinates": [-97.3903, 42.8676] }},
{"zip_code":"37716","country":"US","city":"Clinton","state":"Tennessee","state_ab":"TN","county":"Anderson","geo_location":{ "type": "Point", "coordinates": [-84.1897, 36.0869] }},
{"zip_code":"37769","country":"US","city":"Lake City","state":"Tennessee","state_ab":"TN","county":"Anderson","geo_location":{ "type": "Point", "coordinates": [-84.1386, 36.2032] }},
{"zip_code":"37020","country":"US","city":"Bell Buckle","state":"Tennessee","state_ab":"TN","county":"Bedford","geo_location":{ "type": "Point", "coordinates": [-86.3949, 35.6381] }},
{"zip_code":"38320","country":"US","city":"Camden","state":"Tennessee","state_ab":"TN","county":"Benton","geo_location":{ "type": "Point", "coordinates": [-88.1119, 36.0556] }},
{"zip_code":"38333","country":"US","city":"Eva","state":"Tennessee","state_ab":"TN","county":"Benton","geo_location":{ "type": "Point", "coordinates": [-87.982, 36.1142] }},
{"zip_code":"37886","country":"US","city":"Walland","state":"Tennessee","state_ab":"TN","county":"Blount","geo_location":{ "type": "Point", "coordinates": [-83.8243, 35.7533] }},
{"zip_code":"37729","country":"US","city":"Duff","state":"Tennessee","state_ab":"TN","county":"Campbell","geo_location":{ "type": "Point", "coordinates": [-84.0454, 36.5086] }},
{"zip_code":"37819","country":"US","city":"Newcomb","state":"Tennessee","state_ab":"TN","county":"Campbell","geo_location":{ "type": "Point", "coordinates": [-84.1798, 36.5428] }},
{"zip_code":"37149","country":"US","city":"Readyville","state":"Tennessee","state_ab":"TN","county":"Cannon","geo_location":{ "type": "Point", "coordinates": [-86.2415, 35.7989] }},
{"zip_code":"37190","country":"US","city":"Woodbury","state":"Tennessee","state_ab":"TN","county":"Cannon","geo_location":{ "type": "Point", "coordinates": [-86.05, 35.8143] }},
{"zip_code":"37730","country":"US","city":"Eagan","state":"Tennessee","state_ab":"TN","county":"Claiborne","geo_location":{ "type": "Point", "coordinates": [-83.9646, 36.5505] }},
{"zip_code":"38050","country":"US","city":"Maury City","state":"Tennessee","state_ab":"TN","county":"Crockett","geo_location":{ "type": "Point", "coordinates": [-89.2273, 35.8379] }},
{"zip_code":"37189","country":"US","city":"Whites Creek","state":"Tennessee","state_ab":"TN","county":"Davidson","geo_location":{ "type": "Point", "coordinates": [-86.8292, 36.2744] }},
{"zip_code":"37213","country":"US","city":"Nashville","state":"Tennessee","state_ab":"TN","county":"Davidson","geo_location":{ "type": "Point", "coordinates": [-86.7669, 36.1663] }},
{"zip_code":"37239","country":"US","city":"Nashville","state":"Tennessee","state_ab":"TN","county":"Davidson","geo_location":{ "type": "Point", "coordinates": [-86.7852, 36.1866] }},
{"zip_code":"37240","country":"US","city":"Nashville","state":"Tennessee","state_ab":"TN","county":"Davidson","geo_location":{ "type": "Point", "coordinates": [-86.7852, 36.1866] }},
{"zip_code":"37059","country":"US","city":"Dowelltown","state":"Tennessee","state_ab":"TN","county":"DeKalb","geo_location":{ "type": "Point", "coordinates": [-85.9055, 35.9725] }},
{"zip_code":"38010","country":"US","city":"Braden","state":"Tennessee","state_ab":"TN","county":"Fayette","geo_location":{ "type": "Point", "coordinates": [-89.488, 35.2886] }},
{"zip_code":"38036","country":"US","city":"Gallaway","state":"Tennessee","state_ab":"TN","county":"Fayette","geo_location":{ "type": "Point", "coordinates": [-89.6198, 35.3274] }},
{"zip_code":"38076","country":"US","city":"Williston","state":"Tennessee","state_ab":"TN","county":"Fayette","geo_location":{ "type": "Point", "coordinates": [-89.4225, 35.1416] }},
{"zip_code":"38553","country":"US","city":"Clarkrange","state":"Tennessee","state_ab":"TN","county":"Fentress","geo_location":{ "type": "Point", "coordinates": [-84.9777, 36.2112] }},
{"zip_code":"37330","country":"US","city":"Estill Springs","state":"Tennessee","state_ab":"TN","county":"Franklin","geo_location":{ "type": "Point", "coordinates": [-86.1396, 35.2705] }},
{"zip_code":"37383","country":"US","city":"Sewanee","state":"Tennessee","state_ab":"TN","county":"Franklin","geo_location":{ "type": "Point", "coordinates": [-85.9035, 35.1805] }},
{"zip_code":"38346","country":"US","city":"Idlewild","state":"Tennessee","state_ab":"TN","county":"Gibson","geo_location":{ "type": "Point", "coordinates": [-88.8056, 36.0306] }},
{"zip_code":"38449","country":"US","city":"Ardmore","state":"Tennessee","state_ab":"TN","county":"Giles","geo_location":{ "type": "Point", "coordinates": [-86.8796, 35.0574] }},
{"zip_code":"37743","country":"US","city":"Greeneville","state":"Tennessee","state_ab":"TN","county":"Greene","geo_location":{ "type": "Point", "coordinates": [-82.8692, 36.1316] }},
{"zip_code":"37356","country":"US","city":"Monteagle","state":"Tennessee","state_ab":"TN","county":"Grundy","geo_location":{ "type": "Point", "coordinates": [-85.8228, 35.2402] }},
{"zip_code":"37860","country":"US","city":"Russellville","state":"Tennessee","state_ab":"TN","county":"Hamblen","geo_location":{ "type": "Point", "coordinates": [-83.1914, 36.2567] }},
{"zip_code":"37343","country":"US","city":"Hixson","state":"Tennessee","state_ab":"TN","county":"Hamilton","geo_location":{ "type": "Point", "coordinates": [-85.2182, 35.1591] }},
{"zip_code":"37406","country":"US","city":"Chattanooga","state":"Tennessee","state_ab":"TN","county":"Hamilton","geo_location":{ "type": "Point", "coordinates": [-85.2478, 35.0614] }},
{"zip_code":"37419","country":"US","city":"Chattanooga","state":"Tennessee","state_ab":"TN","county":"Hamilton","geo_location":{ "type": "Point", "coordinates": [-85.3687, 35.0331] }},
{"zip_code":"37499","country":"US","city":"Chattanooga","state":"Tennessee","state_ab":"TN","county":"Hamilton","geo_location":{ "type": "Point", "coordinates": [-85.2091, 35.2211] }},
{"zip_code":"37873","country":"US","city":"Surgoinsville","state":"Tennessee","state_ab":"TN","county":"Hawkins","geo_location":{ "type": "Point", "coordinates": [-82.8306, 36.4741] }},
{"zip_code":"38256","country":"US","city":"Springville","state":"Tennessee","state_ab":"TN","county":"Henry","geo_location":{ "type": "Point", "coordinates": [-88.1459, 36.265] }},
{"zip_code":"37033","country":"US","city":"Centerville","state":"Tennessee","state_ab":"TN","county":"Hickman","geo_location":{ "type": "Point", "coordinates": [-87.4775, 35.7797] }},
{"zip_code":"38476","country":"US","city":"Primm Springs","state":"Tennessee","state_ab":"TN","county":"Hickman","geo_location":{ "type": "Point", "coordinates": [-87.253, 35.8104] }},
{"zip_code":"37820","country":"US","city":"New Market","state":"Tennessee","state_ab":"TN","county":"Jefferson","geo_location":{ "type": "Point", "coordinates": [-83.5673, 36.081] }},
{"zip_code":"37640","country":"US","city":"Butler","state":"Tennessee","state_ab":"TN","county":"Johnson","geo_location":{ "type": "Point", "coordinates": [-81.9856, 36.3282] }},
{"zip_code":"37680","country":"US","city":"Laurel Bloomery","state":"Tennessee","state_ab":"TN","county":"Johnson","geo_location":{ "type": "Point", "coordinates": [-81.7254, 36.5793] }},
{"zip_code":"37806","country":"US","city":"Mascot","state":"Tennessee","state_ab":"TN","county":"Knox","geo_location":{ "type": "Point", "coordinates": [-83.7411, 36.0844] }},
{"zip_code":"37909","country":"US","city":"Knoxville","state":"Tennessee","state_ab":"TN","county":"Knox","geo_location":{ "type": "Point", "coordinates": [-84.0235, 35.946] }},
{"zip_code":"37923","country":"US","city":"Knoxville","state":"Tennessee","state_ab":"TN","county":"Knox","geo_location":{ "type": "Point", "coordinates": [-84.0761, 35.9331] }},
{"zip_code":"37950","country":"US","city":"Knoxville","state":"Tennessee","state_ab":"TN","county":"Knox","geo_location":{ "type": "Point", "coordinates": [-83.9622, 35.9901] }},
{"zip_code":"37990","country":"US","city":"Knoxville","state":"Tennessee","state_ab":"TN","county":"Knox","geo_location":{ "type": "Point", "coordinates": [-83.9622, 35.9901] }},
{"zip_code":"38063","country":"US","city":"Ripley","state":"Tennessee","state_ab":"TN","county":"Lauderdale","geo_location":{ "type": "Point", "coordinates": [-89.535, 35.7527] }},
{"zip_code":"38463","country":"US","city":"Iron City","state":"Tennessee","state_ab":"TN","county":"Lawrence","geo_location":{ "type": "Point", "coordinates": [-87.6473, 35.0563] }},
{"zip_code":"37846","country":"US","city":"Philadelphia","state":"Tennessee","state_ab":"TN","county":"Loudon","geo_location":{ "type": "Point", "coordinates": [-84.4312, 35.6781] }},
{"zip_code":"37303","country":"US","city":"Athens","state":"Tennessee","state_ab":"TN","county":"McMinn","geo_location":{ "type": "Point", "coordinates": [-84.6043, 35.4574] }},
{"zip_code":"37329","country":"US","city":"Englewood","state":"Tennessee","state_ab":"TN","county":"McMinn","geo_location":{ "type": "Point", "coordinates": [-84.4833, 35.4272] }},
{"zip_code":"37370","country":"US","city":"Riceville","state":"Tennessee","state_ab":"TN","county":"McMinn","geo_location":{ "type": "Point", "coordinates": [-84.6951, 35.3731] }},
{"zip_code":"38359","country":"US","city":"Milledgeville","state":"Tennessee","state_ab":"TN","county":"McNairy","geo_location":{ "type": "Point", "coordinates": [-88.3881, 35.3672] }},
{"zip_code":"37150","country":"US","city":"Red Boiling Springs","state":"Tennessee","state_ab":"TN","county":"Macon","geo_location":{ "type": "Point", "coordinates": [-85.8662, 36.5177] }},
{"zip_code":"37396","country":"US","city":"Whiteside","state":"Tennessee","state_ab":"TN","county":"Marion","geo_location":{ "type": "Point", "coordinates": [-85.529, 35.0206] }}]}