{"value": [{"zip_code":"56142","country":"US","city":"Ivanhoe","state":"Minnesota","state_ab":"MN","county":"Lincoln","geo_location":{ "type": "Point", "coordinates": [-96.2261, 44.5071] }},
{"zip_code":"56115","country":"US","city":"Balaton","state":"Minnesota","state_ab":"MN","county":"Lyon","geo_location":{ "type": "Point", "coordinates": [-95.8838, 44.2253] }},
{"zip_code":"56258","country":"US","city":"Marshall","state":"Minnesota","state_ab":"MN","county":"Lyon","geo_location":{ "type": "Point", "coordinates": [-95.7795, 44.4481] }},
{"zip_code":"55385","country":"US","city":"Stewart","state":"Minnesota","state_ab":"MN","county":"McLeod","geo_location":{ "type": "Point", "coordinates": [-94.4516, 44.7259] }},
{"zip_code":"56762","country":"US","city":"Warren","state":"Minnesota","state_ab":"MN","county":"Marshall","geo_location":{ "type": "Point", "coordinates": [-96.7726, 48.2614] }},
{"zip_code":"56388","country":"US","city":"Waite Park","state":"Minnesota","state_ab":"MN","county":"Morrison","geo_location":{ "type": "Point", "coordinates": [-93.8485, 45.9465] }},
{"zip_code":"55912","country":"US","city":"Austin","state":"Minnesota","state_ab":"MN","county":"Mower","geo_location":{ "type": "Point", "coordinates": [-92.9784, 43.6695] }},
{"zip_code":"56155","country":"US","city":"Lismore","state":"Minnesota","state_ab":"MN","county":"Nobles","geo_location":{ "type": "Point", "coordinates": [-95.9682, 43.7339] }},
{"zip_code":"56168","country":"US","city":"Rushmore","state":"Minnesota","state_ab":"MN","county":"Nobles","geo_location":{ "type": "Point", "coordinates": [-95.7767, 43.624] }},
{"zip_code":"56515","country":"US","city":"Battle Lake","state":"Minnesota","state_ab":"MN","county":"Otter Tail","geo_location":{ "type": "Point", "coordinates": [-95.7144, 46.3142] }},
{"zip_code":"56528","country":"US","city":"Dent","state":"Minnesota","state_ab":"MN","county":"Otter Tail","geo_location":{ "type": "Point", "coordinates": [-95.7644, 46.5554] }},
{"zip_code":"56128","country":"US","city":"Edgerton","state":"Minnesota","state_ab":"MN","county":"Pipestone","geo_location":{ "type": "Point", "coordinates": [-96.1463, 43.8824] }},
{"zip_code":"56542","country":"US","city":"Fosston","state":"Minnesota","state_ab":"MN","county":"Polk","geo_location":{ "type": "Point", "coordinates": [-95.7431, 47.5816] }},
{"zip_code":"56568","country":"US","city":"Nielsville","state":"Minnesota","state_ab":"MN","county":"Polk","geo_location":{ "type": "Point", "coordinates": [-96.7574, 47.5373] }},
{"zip_code":"56722","country":"US","city":"Euclid","state":"Minnesota","state_ab":"MN","county":"Polk","geo_location":{ "type": "Point", "coordinates": [-96.6428, 47.9845] }},
{"zip_code":"55112","country":"US","city":"Saint Paul","state":"Minnesota","state_ab":"MN","county":"Ramsey","geo_location":{ "type": "Point", "coordinates": [-93.1872, 45.0788] }},
{"zip_code":"55165","country":"US","city":"Saint Paul","state":"Minnesota","state_ab":"MN","county":"Ramsey","geo_location":{ "type": "Point", "coordinates": [-93.1059, 45.0059] }},
{"zip_code":"56748","country":"US","city":"Plummer","state":"Minnesota","state_ab":"MN","county":"Red Lake","geo_location":{ "type": "Point", "coordinates": [-95.9646, 47.9113] }},
{"zip_code":"55332","country":"US","city":"Fairfax","state":"Minnesota","state_ab":"MN","county":"Renville","geo_location":{ "type": "Point", "coordinates": [-94.7256, 44.5329] }},
{"zip_code":"56285","country":"US","city":"Sacred Heart","state":"Minnesota","state_ab":"MN","county":"Renville","geo_location":{ "type": "Point", "coordinates": [-95.3538, 44.7975] }},
{"zip_code":"55088","country":"US","city":"Webster","state":"Minnesota","state_ab":"MN","county":"Rice","geo_location":{ "type": "Point", "coordinates": [-93.3826, 44.5003] }},
{"zip_code":"55602","country":"US","city":"Brimson","state":"Minnesota","state_ab":"MN","county":"St. Louis","geo_location":{ "type": "Point", "coordinates": [-91.8625, 47.3142] }},
{"zip_code":"55705","country":"US","city":"Aurora","state":"Minnesota","state_ab":"MN","county":"St. Louis","geo_location":{ "type": "Point", "coordinates": [-92.2415, 47.4951] }},
{"zip_code":"55732","country":"US","city":"Embarrass","state":"Minnesota","state_ab":"MN","county":"St. Louis","geo_location":{ "type": "Point", "coordinates": [-92.2101, 47.6658] }},
{"zip_code":"55758","country":"US","city":"Kinney","state":"Minnesota","state_ab":"MN","county":"St. Louis","geo_location":{ "type": "Point", "coordinates": [-92.7402, 47.5121] }},
{"zip_code":"55772","country":"US","city":"Nett Lake","state":"Minnesota","state_ab":"MN","county":"St. Louis","geo_location":{ "type": "Point", "coordinates": [-93.0834, 48.0817] }},
{"zip_code":"55808","country":"US","city":"Duluth","state":"Minnesota","state_ab":"MN","county":"St. Louis","geo_location":{ "type": "Point", "coordinates": [-92.2226, 46.681] }},
{"zip_code":"55372","country":"US","city":"Prior Lake","state":"Minnesota","state_ab":"MN","county":"Scott","geo_location":{ "type": "Point", "coordinates": [-93.4101, 44.7107] }},
{"zip_code":"55398","country":"US","city":"Zimmerman","state":"Minnesota","state_ab":"MN","county":"Sherburne","geo_location":{ "type": "Point", "coordinates": [-93.5879, 45.4553] }},
{"zip_code":"56335","country":"US","city":"Greenwald","state":"Minnesota","state_ab":"MN","county":"Stearns","geo_location":{ "type": "Point", "coordinates": [-94.8515, 45.5971] }},
{"zip_code":"56362","country":"US","city":"Paynesville","state":"Minnesota","state_ab":"MN","county":"Stearns","geo_location":{ "type": "Point", "coordinates": [-94.7157, 45.3988] }},
{"zip_code":"56375","country":"US","city":"Saint Stephen","state":"Minnesota","state_ab":"MN","county":"Stearns","geo_location":{ "type": "Point", "coordinates": [-94.2817, 45.7118] }},
{"zip_code":"56438","country":"US","city":"Browerville","state":"Minnesota","state_ab":"MN","county":"Todd","geo_location":{ "type": "Point", "coordinates": [-94.8346, 46.0905] }},
{"zip_code":"55938","country":"US","city":"Zumbro Falls","state":"Minnesota","state_ab":"MN","county":"Wabasha County","geo_location":{ "type": "Point", "coordinates": [-92.3964, 44.2592] }},
{"zip_code":"55978","country":"US","city":"Theilman","state":"Minnesota","state_ab":"MN","county":"Wabasha County","geo_location":{ "type": "Point", "coordinates": [-92.2005, 44.2998] }},
{"zip_code":"56478","country":"US","city":"Nimrod","state":"Minnesota","state_ab":"MN","county":"Wadena","geo_location":{ "type": "Point", "coordinates": [-94.9007, 46.6053] }},
{"zip_code":"55125","country":"US","city":"Saint Paul","state":"Minnesota","state_ab":"MN","county":"Washington","geo_location":{ "type": "Point", "coordinates": [-92.9439, 44.9197] }},
{"zip_code":"55925","country":"US","city":"Dakota","state":"Minnesota","state_ab":"MN","county":"Winona","geo_location":{ "type": "Point", "coordinates": [-91.394, 43.9148] }},
{"zip_code":"55952","country":"US","city":"Lewiston","state":"Minnesota","state_ab":"MN","county":"Winona","geo_location":{ "type": "Point", "coordinates": [-91.8662, 43.9702] }},
{"zip_code":"55358","country":"US","city":"Maple Lake","state":"Minnesota","state_ab":"MN","county":"Wright","geo_location":{ "type": "Point", "coordinates": [-93.9638, 45.2202] }},
{"zip_code":"55565","country":"US","city":"Monticello","state":"Minnesota","state_ab":"MN","county":"Wright","geo_location":{ "type": "Point", "coordinates": [-93.8881, 45.2009] }},
{"zip_code":"55592","country":"US","city":"Maple Plain","state":"Minnesota","state_ab":"MN","county":"Wright","geo_location":{ "type": "Point", "coordinates": [-93.8881, 45.2009] }},
{"zip_code":"56245","country":"US","city":"Hanley Falls","state":"Minnesota","state_ab":"MN","county":"Yellow Medicine","geo_location":{ "type": "Point", "coordinates": [-95.6825, 44.6789] }},
{"zip_code":"63382","country":"US","city":"Vandalia","state":"Missouri","state_ab":"MO","county":"Audrain","geo_location":{ "type": "Point", "coordinates": [-91.4883, 39.2949] }},
{"zip_code":"65232","country":"US","city":"Benton City","state":"Missouri","state_ab":"MO","county":"Audrain","geo_location":{ "type": "Point", "coordinates": [-91.7661, 39.1209] }},
{"zip_code":"65285","country":"US","city":"Thompson","state":"Missouri","state_ab":"MO","county":"Audrain","geo_location":{ "type": "Point", "coordinates": [-92.0046, 39.2128] }},
{"zip_code":"65658","country":"US","city":"Golden","state":"Missouri","state_ab":"MO","county":"Barry","geo_location":{ "type": "Point", "coordinates": [-93.623, 36.5625] }},
{"zip_code":"65708","country":"US","city":"Monett","state":"Missouri","state_ab":"MO","county":"Barry","geo_location":{ "type": "Point", "coordinates": [-93.9258, 36.9212] }},
{"zip_code":"64745","country":"US","city":"Foster","state":"Missouri","state_ab":"MO","county":"Bates","geo_location":{ "type": "Point", "coordinates": [-94.332, 38.2519] }},
{"zip_code":"65335","country":"US","city":"Ionia","state":"Missouri","state_ab":"MO","county":"Benton","geo_location":{ "type": "Point", "coordinates": [-93.3224, 38.5019] }},
{"zip_code":"63782","country":"US","city":"Sturdivant","state":"Missouri","state_ab":"MO","county":"Bollinger","geo_location":{ "type": "Point", "coordinates": [-90.0092, 37.071] }},
{"zip_code":"65205","country":"US","city":"Columbia","state":"Missouri","state_ab":"MO","county":"Boone","geo_location":{ "type": "Point", "coordinates": [-92.3496, 39.0447] }},
{"zip_code":"65218","country":"US","city":"Columbia","state":"Missouri","state_ab":"MO","county":"Boone","geo_location":{ "type": "Point", "coordinates": [-92.1022, 38.9033] }},
{"zip_code":"64448","country":"US","city":"Faucett","state":"Missouri","state_ab":"MO","county":"Buchanan","geo_location":{ "type": "Point", "coordinates": [-94.7913, 39.5891] }},
{"zip_code":"63962","country":"US","city":"Rombauer","state":"Missouri","state_ab":"MO","county":"Butler","geo_location":{ "type": "Point", "coordinates": [-90.407, 36.7125] }},
{"zip_code":"65052","country":"US","city":"Linn Creek","state":"Missouri","state_ab":"MO","county":"Camden","geo_location":{ "type": "Point", "coordinates": [-92.6831, 38.0605] }},
{"zip_code":"65065","country":"US","city":"Osage Beach","state":"Missouri","state_ab":"MO","county":"Camden","geo_location":{ "type": "Point", "coordinates": [-92.6664, 38.138] }},
{"zip_code":"63702","country":"US","city":"Cape Girardeau","state":"Missouri","state_ab":"MO","county":"Cape Girardeau","geo_location":{ "type": "Point", "coordinates": [-89.5094, 37.3506] }},
{"zip_code":"63755","country":"US","city":"Jackson","state":"Missouri","state_ab":"MO","county":"Cape Girardeau","geo_location":{ "type": "Point", "coordinates": [-89.6519, 37.3879] }},
{"zip_code":"64668","country":"US","city":"Norborne","state":"Missouri","state_ab":"MO","county":"Carroll","geo_location":{ "type": "Point", "coordinates": [-93.6761, 39.3299] }},
{"zip_code":"64682","country":"US","city":"Tina","state":"Missouri","state_ab":"MO","county":"Carroll","geo_location":{ "type": "Point", "coordinates": [-93.4647, 39.5518] }},
{"zip_code":"63445","country":"US","city":"Kahoka","state":"Missouri","state_ab":"MO","county":"Clark","geo_location":{ "type": "Point", "coordinates": [-91.725, 40.4266] }},
{"zip_code":"63472","country":"US","city":"Wayland","state":"Missouri","state_ab":"MO","county":"Clark","geo_location":{ "type": "Point", "coordinates": [-91.5842, 40.4001] }},
{"zip_code":"64048","country":"US","city":"Holt","state":"Missouri","state_ab":"MO","county":"Clay","geo_location":{ "type": "Point", "coordinates": [-94.3689, 39.4289] }},
{"zip_code":"64165","country":"US","city":"Kansas City","state":"Missouri","state_ab":"MO","county":"Clay","geo_location":{ "type": "Point", "coordinates": [-94.5431, 39.3113] }},
{"zip_code":"65102","country":"US","city":"Jefferson City","state":"Missouri","state_ab":"MO","county":"Cole","geo_location":{ "type": "Point", "coordinates": [-92.2493, 38.5309] }},
{"zip_code":"65322","country":"US","city":"Blackwater","state":"Missouri","state_ab":"MO","county":"Cooper","geo_location":{ "type": "Point", "coordinates": [-92.9683, 38.9727] }},
{"zip_code":"65348","country":"US","city":"Otterville","state":"Missouri","state_ab":"MO","county":"Cooper","geo_location":{ "type": "Point", "coordinates": [-93.0108, 38.7161] }},
{"zip_code":"65685","country":"US","city":"Louisburg","state":"Missouri","state_ab":"MO","county":"Dallas","geo_location":{ "type": "Point", "coordinates": [-93.1566, 37.7542] }},
{"zip_code":"64642","country":"US","city":"Gilman City","state":"Missouri","state_ab":"MO","county":"Daviess","geo_location":{ "type": "Point", "coordinates": [-93.832, 40.145] }},
{"zip_code":"64422","country":"US","city":"Amity","state":"Missouri","state_ab":"MO","county":"DeKalb","geo_location":{ "type": "Point", "coordinates": [-94.5136, 39.8837] }},
{"zip_code":"63072","country":"US","city":"Robertsville","state":"Missouri","state_ab":"MO","county":"Franklin","geo_location":{ "type": "Point", "coordinates": [-90.8016, 38.3816] }},
{"zip_code":"18508","country":"US","city":"Scranton","state":"Pennsylvania","state_ab":"PA","county":"Lackawanna","geo_location":{ "type": "Point", "coordinates": [-75.6625, 41.4389] }},
{"zip_code":"18522","country":"US","city":"Scranton","state":"Pennsylvania","state_ab":"PA","county":"Lackawanna","geo_location":{ "type": "Point", "coordinates": [-75.6376, 41.4019] }},
{"zip_code":"17505","country":"US","city":"Bird In Hand","state":"Pennsylvania","state_ab":"PA","county":"Lancaster","geo_location":{ "type": "Point", "coordinates": [-76.183, 40.0561] }},
{"zip_code":"17518","country":"US","city":"Drumore","state":"Pennsylvania","state_ab":"PA","county":"Lancaster","geo_location":{ "type": "Point", "coordinates": [-76.2499, 39.8183] }},
{"zip_code":"17532","country":"US","city":"Holtwood","state":"Pennsylvania","state_ab":"PA","county":"Lancaster","geo_location":{ "type": "Point", "coordinates": [-76.3008, 39.8631] }},
{"zip_code":"17545","country":"US","city":"Manheim","state":"Pennsylvania","state_ab":"PA","county":"Lancaster","geo_location":{ "type": "Point", "coordinates": [-76.4168, 40.1702] }},
{"zip_code":"17572","country":"US","city":"Ronks","state":"Pennsylvania","state_ab":"PA","county":"Lancaster","geo_location":{ "type": "Point", "coordinates": [-76.1661, 40.0208] }},
{"zip_code":"17585","country":"US","city":"Witmer","state":"Pennsylvania","state_ab":"PA","county":"Lancaster","geo_location":{ "type": "Point", "coordinates": [-76.2114, 40.0484] }},
{"zip_code":"17608","country":"US","city":"Lancaster","state":"Pennsylvania","state_ab":"PA","county":"Lancaster","geo_location":{ "type": "Point", "coordinates": [-76.2976, 40.0185] }},
{"zip_code":"17622","country":"US","city":"Lancaster","state":"Pennsylvania","state_ab":"PA","county":"Lancaster County","geo_location":{ "type": "Point", "coordinates": [-76.3012, 40.0418] }},
{"zip_code":"16102","country":"US","city":"New Castle","state":"Pennsylvania","state_ab":"PA","county":"Lawrence","geo_location":{ "type": "Point", "coordinates": [-80.3907, 40.9677] }},
{"zip_code":"16142","country":"US","city":"New Wilmington","state":"Pennsylvania","state_ab":"PA","county":"Lawrence","geo_location":{ "type": "Point", "coordinates": [-80.3245, 41.1382] }},
{"zip_code":"16155","country":"US","city":"Villa Maria","state":"Pennsylvania","state_ab":"PA","county":"Lawrence","geo_location":{ "type": "Point", "coordinates": [-80.3084, 40.9897] }},
{"zip_code":"17042","country":"US","city":"Lebanon","state":"Pennsylvania","state_ab":"PA","county":"Lebanon","geo_location":{ "type": "Point", "coordinates": [-76.3976, 40.3316] }},
{"zip_code":"18032","country":"US","city":"Catasauqua","state":"Pennsylvania","state_ab":"PA","county":"Lehigh","geo_location":{ "type": "Point", "coordinates": [-75.4693, 40.6557] }},
{"zip_code":"18098","country":"US","city":"Emmaus","state":"Pennsylvania","state_ab":"PA","county":"Lehigh","geo_location":{ "type": "Point", "coordinates": [-75.4712, 40.6934] }},
{"zip_code":"18175","country":"US","city":"Allentown","state":"Pennsylvania","state_ab":"PA","county":"Lehigh","geo_location":{ "type": "Point", "coordinates": [-75.6211, 40.5856] }},
{"zip_code":"18225","country":"US","city":"Harleigh","state":"Pennsylvania","state_ab":"PA","county":"Luzerne","geo_location":{ "type": "Point", "coordinates": [-75.9617, 40.9888] }},
{"zip_code":"18612","country":"US","city":"Dallas","state":"Pennsylvania","state_ab":"PA","county":"Luzerne","geo_location":{ "type": "Point", "coordinates": [-75.9834, 41.3494] }},
{"zip_code":"18702","country":"US","city":"Wilkes Barre","state":"Pennsylvania","state_ab":"PA","county":"Luzerne","geo_location":{ "type": "Point", "coordinates": [-75.7736, 41.2208] }},
{"zip_code":"18768","country":"US","city":"Wilkes Barre","state":"Pennsylvania","state_ab":"PA","county":"Luzerne","geo_location":{ "type": "Point", "coordinates": [-75.8801, 41.2722] }},
{"zip_code":"17752","country":"US","city":"Montgomery","state":"Pennsylvania","state_ab":"PA","county":"Lycoming","geo_location":{ "type": "Point", "coordinates": [-76.8839, 41.1788] }},
{"zip_code":"16735","country":"US","city":"Kane","state":"Pennsylvania","state_ab":"PA","county":"McKean","geo_location":{ "type": "Point", "coordinates": [-78.7978, 41.6619] }},
{"zip_code":"17002","country":"US","city":"Allensville","state":"Pennsylvania","state_ab":"PA","county":"Mifflin","geo_location":{ "type": "Point", "coordinates": [-77.8392, 40.5075] }},
{"zip_code":"18058","country":"US","city":"Kunkletown","state":"Pennsylvania","state_ab":"PA","county":"Monroe","geo_location":{ "type": "Point", "coordinates": [-75.476, 40.8999] }},
{"zip_code":"18342","country":"US","city":"Mountainhome","state":"Pennsylvania","state_ab":"PA","county":"Monroe","geo_location":{ "type": "Point", "coordinates": [-75.2941, 41.1458] }},
{"zip_code":"18355","country":"US","city":"Scotrun","state":"Pennsylvania","state_ab":"PA","county":"Monroe","geo_location":{ "type": "Point", "coordinates": [-75.3265, 41.0751] }},
{"zip_code":"19035","country":"US","city":"Gladwyne","state":"Pennsylvania","state_ab":"PA","county":"Montgomery","geo_location":{ "type": "Point", "coordinates": [-75.2821, 40.0451] }},
{"zip_code":"19075","country":"US","city":"Oreland","state":"Pennsylvania","state_ab":"PA","county":"Montgomery","geo_location":{ "type": "Point", "coordinates": [-75.1869, 40.1132] }},
{"zip_code":"19408","country":"US","city":"Eagleville","state":"Pennsylvania","state_ab":"PA","county":"Montgomery","geo_location":{ "type": "Point", "coordinates": [-75.4131, 40.1566] }},
{"zip_code":"19422","country":"US","city":"Blue Bell","state":"Pennsylvania","state_ab":"PA","county":"Montgomery","geo_location":{ "type": "Point", "coordinates": [-75.2799, 40.1576] }},
{"zip_code":"19435","country":"US","city":"Frederick","state":"Pennsylvania","state_ab":"PA","county":"Montgomery","geo_location":{ "type": "Point", "coordinates": [-75.5692, 40.3275] }},
{"zip_code":"19462","country":"US","city":"Plymouth Meeting","state":"Pennsylvania","state_ab":"PA","county":"Montgomery","geo_location":{ "type": "Point", "coordinates": [-75.2796, 40.1077] }},
{"zip_code":"19525","country":"US","city":"Gilbertsville","state":"Pennsylvania","state_ab":"PA","county":"Montgomery","geo_location":{ "type": "Point", "coordinates": [-75.5953, 40.3059] }},
{"zip_code":"18018","country":"US","city":"Bethlehem","state":"Pennsylvania","state_ab":"PA","county":"Northampton","geo_location":{ "type": "Point", "coordinates": [-75.3928, 40.6278] }},
{"zip_code":"18045","country":"US","city":"Easton","state":"Pennsylvania","state_ab":"PA","county":"Northampton","geo_location":{ "type": "Point", "coordinates": [-75.2865, 40.6957] }},
{"zip_code":"18072","country":"US","city":"Pen Argyl","state":"Pennsylvania","state_ab":"PA","county":"Northampton","geo_location":{ "type": "Point", "coordinates": [-75.2701, 40.8518] }},
{"zip_code":"18085","country":"US","city":"Tatamy","state":"Pennsylvania","state_ab":"PA","county":"Northampton","geo_location":{ "type": "Point", "coordinates": [-75.2549, 40.7406] }},
{"zip_code":"17828","country":"US","city":"Gowen City","state":"Pennsylvania","state_ab":"PA","county":"Northumberland","geo_location":{ "type": "Point", "coordinates": [-76.6646, 40.8896] }},
{"zip_code":"17868","country":"US","city":"Riverside","state":"Pennsylvania","state_ab":"PA","county":"Northumberland","geo_location":{ "type": "Point", "coordinates": [-76.6311, 40.9529] }},
{"zip_code":"17015","country":"US","city":"Carlisle","state":"Pennsylvania","state_ab":"PA","county":"Perry County","geo_location":{ "type": "Point", "coordinates": [-77.2312, 40.1772] }},
{"zip_code":"17068","country":"US","city":"New Bloomfield","state":"Pennsylvania","state_ab":"PA","county":"Perry","geo_location":{ "type": "Point", "coordinates": [-77.1938, 40.4193] }},
{"zip_code":"19112","country":"US","city":"Philadelphia","state":"Pennsylvania","state_ab":"PA","county":"Philadelphia","geo_location":{ "type": "Point", "coordinates": [-75.1782, 39.8893] }},
{"zip_code":"19125","country":"US","city":"Philadelphia","state":"Pennsylvania","state_ab":"PA","county":"Philadelphia","geo_location":{ "type": "Point", "coordinates": [-75.1262, 39.9788] }},
{"zip_code":"19138","country":"US","city":"Philadelphia","state":"Pennsylvania","state_ab":"PA","county":"Philadelphia","geo_location":{ "type": "Point", "coordinates": [-75.1569, 40.0568] }},
{"zip_code":"19152","country":"US","city":"Philadelphia","state":"Pennsylvania","state_ab":"PA","county":"Philadelphia","geo_location":{ "type": "Point", "coordinates": [-75.0471, 40.0606] }},
{"zip_code":"19178","country":"US","city":"Philadelphia","state":"Pennsylvania","state_ab":"PA","county":"Philadelphia","geo_location":{ "type": "Point", "coordinates": [-75.1179, 40.0018] }},
{"zip_code":"19192","country":"US","city":"Philadelphia","state":"Pennsylvania","state_ab":"PA","county":"Philadelphia","geo_location":{ "type": "Point", "coordinates": [-75.1676, 39.9511] }},
{"zip_code":"19255","country":"US","city":"Philadelphia","state":"Pennsylvania","state_ab":"PA","county":"Philadelphia","geo_location":{ "type": "Point", "coordinates": [-75.1179, 40.0018] }},
{"zip_code":"18302","country":"US","city":"East Stroudsburg","state":"Pennsylvania","state_ab":"PA","county":"Pike County","geo_location":{ "type": "Point", "coordinates": [-75.1187, 41.0936] }},
{"zip_code":"18328","country":"US","city":"Dingmans Ferry","state":"Pennsylvania","state_ab":"PA","county":"Pike","geo_location":{ "type": "Point", "coordinates": [-74.938, 41.24] }},
{"zip_code":"18458","country":"US","city":"Shohola","state":"Pennsylvania","state_ab":"PA","county":"Pike","geo_location":{ "type": "Point", "coordinates": [-74.918, 41.4182] }},
{"zip_code":"16748","country":"US","city":"Shinglehouse","state":"Pennsylvania","state_ab":"PA","county":"Potter","geo_location":{ "type": "Point", "coordinates": [-78.1906, 41.9572] }},
{"zip_code":"16915","country":"US","city":"Coudersport","state":"Pennsylvania","state_ab":"PA","county":"Potter","geo_location":{ "type": "Point", "coordinates": [-77.9567, 41.7762] }},
{"zip_code":"17932","country":"US","city":"Frackville","state":"Pennsylvania","state_ab":"PA","county":"Schuylkill","geo_location":{ "type": "Point", "coordinates": [-76.5033, 40.6491] }},
{"zip_code":"17945","country":"US","city":"Locustdale","state":"Pennsylvania","state_ab":"PA","county":"Schuylkill","geo_location":{ "type": "Point", "coordinates": [-76.3704, 40.7745] }},
{"zip_code":"17972","country":"US","city":"Schuylkill Haven","state":"Pennsylvania","state_ab":"PA","county":"Schuylkill","geo_location":{ "type": "Point", "coordinates": [-76.17, 40.6306] }},
{"zip_code":"17985","country":"US","city":"Zion Grove","state":"Pennsylvania","state_ab":"PA","county":"Schuylkill","geo_location":{ "type": "Point", "coordinates": [-76.1931, 40.9141] }},
{"zip_code":"18252","country":"US","city":"Tamaqua","state":"Pennsylvania","state_ab":"PA","county":"Schuylkill","geo_location":{ "type": "Point", "coordinates": [-75.9735, 40.7983] }},
{"zip_code":"17842","country":"US","city":"Middleburg","state":"Pennsylvania","state_ab":"PA","county":"Snyder","geo_location":{ "type": "Point", "coordinates": [-77.0468, 40.7977] }},
{"zip_code":"17882","country":"US","city":"Troxelville","state":"Pennsylvania","state_ab":"PA","county":"Snyder","geo_location":{ "type": "Point", "coordinates": [-77.0775, 40.7627] }},
{"zip_code":"15538","country":"US","city":"Fairhope","state":"Pennsylvania","state_ab":"PA","county":"Somerset","geo_location":{ "type": "Point", "coordinates": [-78.8362, 39.868] }},
{"zip_code":"15552","country":"US","city":"Meyersdale","state":"Pennsylvania","state_ab":"PA","county":"Somerset","geo_location":{ "type": "Point", "coordinates": [-79.0261, 39.7905] }},
{"zip_code":"15565","country":"US","city":"West Salisbury","state":"Pennsylvania","state_ab":"PA","county":"Somerset","geo_location":{ "type": "Point", "coordinates": [-79.038, 40.0035] }},
{"zip_code":"18818","country":"US","city":"Friendsville","state":"Pennsylvania","state_ab":"PA","county":"Susquehanna","geo_location":{ "type": "Point", "coordinates": [-76.0257, 41.9164] }},
{"zip_code":"16928","country":"US","city":"Knoxville","state":"Pennsylvania","state_ab":"PA","county":"Tioga","geo_location":{ "type": "Point", "coordinates": [-77.4357, 41.9596] }},
{"zip_code":"16942","country":"US","city":"Osceola","state":"Pennsylvania","state_ab":"PA","county":"Tioga","geo_location":{ "type": "Point", "coordinates": [-77.354, 41.9848] }},
{"zip_code":"17765","country":"US","city":"Roaring Branch","state":"Pennsylvania","state_ab":"PA","county":"Tioga","geo_location":{ "type": "Point", "coordinates": [-76.9421, 41.5692] }},
{"zip_code":"17855","country":"US","city":"New Berlin","state":"Pennsylvania","state_ab":"PA","county":"Union","geo_location":{ "type": "Point", "coordinates": [-76.9861, 40.8802] }},
{"zip_code":"16362","country":"US","city":"Utica","state":"Pennsylvania","state_ab":"PA","county":"Venango","geo_location":{ "type": "Point", "coordinates": [-79.9403, 41.4798] }},
{"zip_code":"15022","country":"US","city":"Charleroi","state":"Pennsylvania","state_ab":"PA","county":"Washington","geo_location":{ "type": "Point", "coordinates": [-79.92, 40.1404] }},
{"zip_code":"15332","country":"US","city":"Finleyville","state":"Pennsylvania","state_ab":"PA","county":"Washington","geo_location":{ "type": "Point", "coordinates": [-79.9753, 40.2593] }},
{"zip_code":"15345","country":"US","city":"Marianna","state":"Pennsylvania","state_ab":"PA","county":"Washington","geo_location":{ "type": "Point", "coordinates": [-80.1145, 40.0331] }},
{"zip_code":"15358","country":"US","city":"Richeyville","state":"Pennsylvania","state_ab":"PA","county":"Washington","geo_location":{ "type": "Point", "coordinates": [-79.9926, 40.0563] }},
{"zip_code":"18405","country":"US","city":"Beach Lake","state":"Pennsylvania","state_ab":"PA","county":"Wayne","geo_location":{ "type": "Point", "coordinates": [-75.1165, 41.6034] }},
{"zip_code":"18445","country":"US","city":"Newfoundland","state":"Pennsylvania","state_ab":"PA","county":"Wayne","geo_location":{ "type": "Point", "coordinates": [-75.3384, 41.3041] }},
{"zip_code":"18472","country":"US","city":"Waymart","state":"Pennsylvania","state_ab":"PA","county":"Wayne","geo_location":{ "type": "Point", "coordinates": [-75.4065, 41.5703] }},
{"zip_code":"15062","country":"US","city":"Monessen","state":"Pennsylvania","state_ab":"PA","county":"Westmoreland","geo_location":{ "type": "Point", "coordinates": [-79.8835, 40.1524] }},
{"zip_code":"15448","country":"US","city":"Jacobs Creek","state":"Pennsylvania","state_ab":"PA","county":"Westmoreland","geo_location":{ "type": "Point", "coordinates": [-79.4398, 40.3602] }},
{"zip_code":"15615","country":"US","city":"Ardara","state":"Pennsylvania","state_ab":"PA","county":"Westmoreland","geo_location":{ "type": "Point", "coordinates": [-79.7433, 40.3606] }},
{"zip_code":"15628","country":"US","city":"Donegal","state":"Pennsylvania","state_ab":"PA","county":"Westmoreland","geo_location":{ "type": "Point", "coordinates": [-79.381, 40.0996] }},
{"zip_code":"15642","country":"US","city":"Irwin","state":"Pennsylvania","state_ab":"PA","county":"Westmoreland","geo_location":{ "type": "Point", "coordinates": [-79.7205, 40.3191] }},
{"zip_code":"15655","country":"US","city":"Laughlintown","state":"Pennsylvania","state_ab":"PA","county":"Westmoreland","geo_location":{ "type": "Point", "coordinates": [-79.1806, 40.208] }},
{"zip_code":"15668","country":"US","city":"Murrysville","state":"Pennsylvania","state_ab":"PA","county":"Westmoreland","geo_location":{ "type": "Point", "coordinates": [-79.6842, 40.4467] }},
{"zip_code":"15695","country":"US","city":"Wyano","state":"Pennsylvania","state_ab":"PA","county":"Westmoreland","geo_location":{ "type": "Point", "coordinates": [-79.6942, 40.1962] }},
{"zip_code":"18625","country":"US","city":"Lake Winola","state":"Pennsylvania","state_ab":"PA","county":"Wyoming","geo_location":{ "type": "Point", "coordinates": [-75.8508, 41.5096] }},
{"zip_code":"17312","country":"US","city":"Craley","state":"Pennsylvania","state_ab":"PA","county":"York","geo_location":{ "type": "Point", "coordinates": [-76.5066, 39.9467] }},
{"zip_code":"17352","country":"US","city":"New Park","state":"Pennsylvania","state_ab":"PA","county":"York","geo_location":{ "type": "Point", "coordinates": [-76.5042, 39.76] }},
{"zip_code":"17365","country":"US","city":"Wellsville","state":"Pennsylvania","state_ab":"PA","county":"York","geo_location":{ "type": "Point", "coordinates": [-76.9443, 40.0557] }},
{"zip_code":"17402","country":"US","city":"York","state":"Pennsylvania","state_ab":"PA","county":"York","geo_location":{ "type": "Point", "coordinates": [-76.6592, 39.959] }},
{"zip_code":"17415","country":"US","city":"York","state":"Pennsylvania","state_ab":"PA","county":"York","geo_location":{ "type": "Point", "coordinates": [-76.6878, 39.973] }},
{"zip_code":"2888","country":"US","city":"Warwick","state":"Rhode Island","state_ab":"RI","county":"Kent","geo_location":{ "type": "Point", "coordinates": [-71.4084, 41.7494] }},
{"zip_code":"2835","country":"US","city":"Jamestown","state":"Rhode Island","state_ab":"RI","county":"Newport","geo_location":{ "type": "Point", "coordinates": [-71.3761, 41.5164] }},
{"zip_code":"2862","country":"US","city":"Pawtucket","state":"Rhode Island","state_ab":"RI","county":"Providence","geo_location":{ "type": "Point", "coordinates": [-71.3691, 41.8612] }},
{"zip_code":"2912","country":"US","city":"Providence","state":"Rhode Island","state_ab":"RI","county":"Providence","geo_location":{ "type": "Point", "coordinates": [-71.3977, 41.8267] }},
{"zip_code":"2808","country":"US","city":"Bradford","state":"Rhode Island","state_ab":"RI","county":"Washington","geo_location":{ "type": "Point", "coordinates": [-71.7465, 41.4114] }},
{"zip_code":"2822","country":"US","city":"Exeter","state":"Rhode Island","state_ab":"RI","county":"Washington","geo_location":{ "type": "Point", "coordinates": [-71.6076, 41.574] }},
{"zip_code":"2875","country":"US","city":"Shannock","state":"Rhode Island","state_ab":"RI","county":"Washington","geo_location":{ "type": "Point", "coordinates": [-71.6355, 41.456] }},
{"zip_code":"29812","country":"US","city":"Barnwell","state":"South Carolina","state_ab":"SC","county":"Barnwell","geo_location":{ "type": "Point", "coordinates": [-81.3523, 33.2335] }},
{"zip_code":"29902","country":"US","city":"Beaufort","state":"South Carolina","state_ab":"SC","county":"Beaufort","geo_location":{ "type": "Point", "coordinates": [-80.6531, 32.4047] }},
{"zip_code":"29915","country":"US","city":"Daufuskie Island","state":"South Carolina","state_ab":"SC","county":"Beaufort","geo_location":{ "type": "Point", "coordinates": [-80.8686, 32.1145] }},
{"zip_code":"29928","country":"US","city":"Hilton Head Island","state":"South Carolina","state_ab":"SC","county":"Beaufort","geo_location":{ "type": "Point", "coordinates": [-80.7569, 32.1665] }},
{"zip_code":"29492","country":"US","city":"Charleston","state":"South Carolina","state_ab":"SC","county":"Berkeley","geo_location":{ "type": "Point", "coordinates": [-79.8528, 32.9668] }},
{"zip_code":"29412","country":"US","city":"Charleston","state":"South Carolina","state_ab":"SC","county":"Charleston","geo_location":{ "type": "Point", "coordinates": [-79.9537, 32.718] }},
{"zip_code":"29425","country":"US","city":"Charleston","state":"South Carolina","state_ab":"SC","county":"Charleston","geo_location":{ "type": "Point", "coordinates": [-79.9471, 32.7862] }},
{"zip_code":"29465","country":"US","city":"Mount Pleasant","state":"South Carolina","state_ab":"SC","county":"Charleston","geo_location":{ "type": "Point", "coordinates": [-79.8577, 32.8488] }},
{"zip_code":"29102","country":"US","city":"Manning","state":"South Carolina","state_ab":"SC","county":"Clarendon","geo_location":{ "type": "Point", "coordinates": [-80.2116, 33.6184] }},
{"zip_code":"29438","country":"US","city":"Edisto Island","state":"South Carolina","state_ab":"SC","county":"Colleton","geo_location":{ "type": "Point", "coordinates": [-80.307, 32.5486] }},
{"zip_code":"29452","country":"US","city":"Jacksonboro","state":"South Carolina","state_ab":"SC","county":"Colleton","geo_location":{ "type": "Point", "coordinates": [-80.4609, 32.7305] }},
{"zip_code":"29595","country":"US","city":"Andrews","state":"South Carolina","state_ab":"SC","county":"Darlington County","geo_location":{ "type": "Point", "coordinates": [-79.7176, 33.4857] }},
{"zip_code":"29542","country":"US","city":"Floyd Dale","state":"South Carolina","state_ab":"SC","county":"Dillon","geo_location":{ "type": "Point", "coordinates": [-79.3523, 34.4256] }},
{"zip_code":"29065","country":"US","city":"Jenkinsville","state":"South Carolina","state_ab":"SC","county":"Fairfield","geo_location":{ "type": "Point", "coordinates": [-81.2712, 34.2717] }},
{"zip_code":"29502","country":"US","city":"Florence","state":"South Carolina","state_ab":"SC","county":"Florence","geo_location":{ "type": "Point", "coordinates": [-79.7847, 34.201] }},
{"zip_code":"29555","country":"US","city":"Johnsonville","state":"South Carolina","state_ab":"SC","county":"Florence","geo_location":{ "type": "Point", "coordinates": [-79.4783, 33.8299] }},
{"zip_code":"29605","country":"US","city":"Greenville","state":"South Carolina","state_ab":"SC","county":"Greenville","geo_location":{ "type": "Point", "coordinates": [-82.3932, 34.8001] }},
{"zip_code":"29528","country":"US","city":"Conway","state":"South Carolina","state_ab":"SC","county":"Horry","geo_location":{ "type": "Point", "coordinates": [-78.9192, 33.9358] }},
{"zip_code":"29568","country":"US","city":"Longs","state":"South Carolina","state_ab":"SC","county":"Horry","geo_location":{ "type": "Point", "coordinates": [-78.7934, 33.9064] }},
{"zip_code":"29582","country":"US","city":"North Myrtle Beach","state":"South Carolina","state_ab":"SC","county":"Horry","geo_location":{ "type": "Point", "coordinates": [-78.6606, 33.8343] }},
{"zip_code":"29078","country":"US","city":"Lugoff","state":"South Carolina","state_ab":"SC","county":"Kershaw","geo_location":{ "type": "Point", "coordinates": [-80.7147, 34.2296] }},
{"zip_code":"29722","country":"US","city":"Lancaster","state":"South Carolina","state_ab":"SC","county":"Lancaster","geo_location":{ "type": "Point", "coordinates": [-80.6589, 34.7673] }},
{"zip_code":"29645","country":"US","city":"Gray Court","state":"South Carolina","state_ab":"SC","county":"Laurens","geo_location":{ "type": "Point", "coordinates": [-82.1147, 34.5953] }},
{"zip_code":"29838","country":"US","city":"Modoc","state":"South Carolina","state_ab":"SC","county":"McCormick","geo_location":{ "type": "Point", "coordinates": [-82.2187, 33.7052] }},
{"zip_code":"29658","country":"US","city":"Long Creek","state":"South Carolina","state_ab":"SC","county":"Oconee","geo_location":{ "type": "Point", "coordinates": [-83.2776, 34.7634] }},
{"zip_code":"29672","country":"US","city":"Seneca","state":"South Carolina","state_ab":"SC","county":"Oconee","geo_location":{ "type": "Point", "coordinates": [-82.9457, 34.774] }},
{"zip_code":"29038","country":"US","city":"Cope","state":"South Carolina","state_ab":"SC","county":"Orangeburg","geo_location":{ "type": "Point", "coordinates": [-80.9631, 33.3726] }},
{"zip_code":"29115","country":"US","city":"Orangeburg","state":"South Carolina","state_ab":"SC","county":"Orangeburg","geo_location":{ "type": "Point", "coordinates": [-80.8593, 33.5025] }},
{"zip_code":"29142","country":"US","city":"Santee","state":"South Carolina","state_ab":"SC","county":"Orangeburg","geo_location":{ "type": "Point", "coordinates": [-80.4805, 33.4835] }},
{"zip_code":"29632","country":"US","city":"Clemson","state":"South Carolina","state_ab":"SC","county":"Pickens","geo_location":{ "type": "Point", "coordinates": [-82.7101, 34.8474] }},
{"zip_code":"29685","country":"US","city":"Sunset","state":"South Carolina","state_ab":"SC","county":"Pickens","geo_location":{ "type": "Point", "coordinates": [-82.8076, 34.9706] }},
{"zip_code":"29052","country":"US","city":"Gadsden","state":"South Carolina","state_ab":"SC","county":"Richland","geo_location":{ "type": "Point", "coordinates": [-80.7532, 33.8455] }},
{"zip_code":"29205","country":"US","city":"Columbia","state":"South Carolina","state_ab":"SC","county":"Richland","geo_location":{ "type": "Point", "coordinates": [-80.9997, 33.9903] }},
{"zip_code":"29218","country":"US","city":"Columbia","state":"South Carolina","state_ab":"SC","county":"Richland","geo_location":{ "type": "Point", "coordinates": [-80.9708, 34.006] }},
{"zip_code":"29322","country":"US","city":"Campobello","state":"South Carolina","state_ab":"SC","county":"Spartanburg","geo_location":{ "type": "Point", "coordinates": [-82.1403, 35.108] }},
{"zip_code":"29335","country":"US","city":"Enoree","state":"South Carolina","state_ab":"SC","county":"Spartanburg","geo_location":{ "type": "Point", "coordinates": [-81.9237, 34.671] }},
{"zip_code":"29348","country":"US","city":"Gramling","state":"South Carolina","state_ab":"SC","county":"Spartanburg","geo_location":{ "type": "Point", "coordinates": [-81.969, 34.8882] }},
{"zip_code":"29375","country":"US","city":"Reidville","state":"South Carolina","state_ab":"SC","county":"Spartanburg","geo_location":{ "type": "Point", "coordinates": [-82.1101, 34.8636] }},
{"zip_code":"29388","country":"US","city":"Woodruff","state":"South Carolina","state_ab":"SC","county":"Spartanburg","geo_location":{ "type": "Point", "coordinates": [-82.0447, 34.7579] }},
{"zip_code":"29698","country":"US","city":"Greenville","state":"South Carolina","state_ab":"SC","county":"Spartanburg","geo_location":{ "type": "Point", "coordinates": [-81.969, 34.8882] }},
{"zip_code":"29128","country":"US","city":"Rembert","state":"South Carolina","state_ab":"SC","county":"Sumter","geo_location":{ "type": "Point", "coordinates": [-80.4945, 34.1085] }},
{"zip_code":"29168","country":"US","city":"Wedgefield","state":"South Carolina","state_ab":"SC","county":"Sumter","geo_location":{ "type": "Point", "coordinates": [-80.498, 33.8953] }},
{"zip_code":"29708","country":"US","city":"Fort Mill","state":"South Carolina","state_ab":"SC","county":"York","geo_location":{ "type": "Point", "coordinates": [-80.9908, 35.0502] }},
{"zip_code":"57002","country":"US","city":"Aurora","state":"South Dakota","state_ab":"SD","county":"Brookings","geo_location":{ "type": "Point", "coordinates": [-96.7043, 44.2838] }},
{"zip_code":"57402","country":"US","city":"Aberdeen","state":"South Dakota","state_ab":"SD","county":"Brown","geo_location":{ "type": "Point", "coordinates": [-98.352, 45.5896] }},
{"zip_code":"57325","country":"US","city":"Chamberlain","state":"South Dakota","state_ab":"SD","county":"Brule","geo_location":{ "type": "Point", "coordinates": [-99.3118, 43.7953] }},
{"zip_code":"57648","country":"US","city":"Pollock","state":"South Dakota","state_ab":"SD","county":"Campbell","geo_location":{ "type": "Point", "coordinates": [-100.2875, 45.889] }},
{"zip_code":"57235","country":"US","city":"Florence","state":"South Dakota","state_ab":"SD","county":"Codington","geo_location":{ "type": "Point", "coordinates": [-97.2866, 45.0554] }},
{"zip_code":"57738","country":"US","city":"Fairburn","state":"South Dakota","state_ab":"SD","county":"Custer","geo_location":{ "type": "Point", "coordinates": [-103.2133, 43.6623] }},
{"zip_code":"57468","country":"US","city":"Pierpont","state":"South Dakota","state_ab":"SD","county":"Day","geo_location":{ "type": "Point", "coordinates": [-97.8128, 45.496] }},
{"zip_code":"57428","country":"US","city":"Bowdle","state":"South Dakota","state_ab":"SD","county":"Edmunds","geo_location":{ "type": "Point", "coordinates": [-99.636, 45.4329] }},
{"zip_code":"57248","country":"US","city":"Lake Norden","state":"South Dakota","state_ab":"SD","county":"Hamlin","geo_location":{ "type": "Point", "coordinates": [-97.2009, 44.5844] }},
{"zip_code":"57312","country":"US","city":"Alpena","state":"South Dakota","state_ab":"SD","county":"Jerauld","geo_location":{ "type": "Point", "coordinates": [-98.3962, 44.1709] }},
{"zip_code":"57042","country":"US","city":"Madison","state":"South Dakota","state_ab":"SD","county":"Lake","geo_location":{ "type": "Point", "coordinates": [-97.1149, 44.0054] }},
{"zip_code":"57365","country":"US","city":"Oacoma","state":"South Dakota","state_ab":"SD","county":"Lyman","geo_location":{ "type": "Point", "coordinates": [-99.3947, 43.7975] }},
{"zip_code":"57765","country":"US","city":"Opal","state":"South Dakota","state_ab":"SD","county":"Meade","geo_location":{ "type": "Point", "coordinates": [-102.7872, 44.5898] }},
{"zip_code":"57792","country":"US","city":"White Owl","state":"South Dakota","state_ab":"SD","county":"Meade","geo_location":{ "type": "Point", "coordinates": [-102.4452, 44.6182] }},
{"zip_code":"57585","country":"US","city":"Wood","state":"South Dakota","state_ab":"SD","county":"Mellette","geo_location":{ "type": "Point", "coordinates": [-100.4379, 43.5366] }},
{"zip_code":"57055","country":"US","city":"Renner","state":"South Dakota","state_ab":"SD","county":"Minnehaha","geo_location":{ "type": "Point", "coordinates": [-96.7119, 43.6366] }},
{"zip_code":"57068","country":"US","city":"Valley Springs","state":"South Dakota","state_ab":"SD","county":"Minnehaha","geo_location":{ "type": "Point", "coordinates": [-96.4956, 43.5773] }},
{"zip_code":"57105","country":"US","city":"Sioux Falls","state":"South Dakota","state_ab":"SD","county":"Minnehaha","geo_location":{ "type": "Point", "coordinates": [-96.7341, 43.524] }},
{"zip_code":"57118","country":"US","city":"Sioux Falls","state":"South Dakota","state_ab":"SD","county":"Minnehaha","geo_location":{ "type": "Point", "coordinates": [-96.7913, 43.6746] }},
{"zip_code":"57198","country":"US","city":"Sioux Falls","state":"South Dakota","state_ab":"SD","county":"Minnehaha","geo_location":{ "type": "Point", "coordinates": [-96.7913, 43.6746] }},
{"zip_code":"57028","country":"US","city":"Flandreau","state":"South Dakota","state_ab":"SD","county":"Moody","geo_location":{ "type": "Point", "coordinates": [-96.6222, 44.0658] }},
{"zip_code":"57725","country":"US","city":"Caputa","state":"South Dakota","state_ab":"SD","county":"Pennington","geo_location":{ "type": "Point", "coordinates": [-102.7935, 43.9481] }},
{"zip_code":"57778","country":"US","city":"Rochford","state":"South Dakota","state_ab":"SD","county":"Pennington","geo_location":{ "type": "Point", "coordinates": [-103.7611, 44.1176] }},
{"zip_code":"57442","country":"US","city":"Gettysburg","state":"South Dakota","state_ab":"SD","county":"Potter","geo_location":{ "type": "Point", "coordinates": [-99.9766, 45.0259] }},
{"zip_code":"57455","country":"US","city":"Lebanon","state":"South Dakota","state_ab":"SD","county":"Potter","geo_location":{ "type": "Point", "coordinates": [-99.7366, 45.0123] }},
{"zip_code":"57262","country":"US","city":"Sisseton","state":"South Dakota","state_ab":"SD","county":"Roberts","geo_location":{ "type": "Point", "coordinates": [-97.0715, 45.6732] }},
{"zip_code":"57752","country":"US","city":"Kyle","state":"South Dakota","state_ab":"SD","county":"Shannon","geo_location":{ "type": "Point", "coordinates": [-102.2124, 43.4394] }},
{"zip_code":"57532","country":"US","city":"Fort Pierre","state":"South Dakota","state_ab":"SD","county":"Stanley","geo_location":{ "type": "Point", "coordinates": [-100.4043, 44.3426] }},
{"zip_code":"57572","country":"US","city":"Saint Francis","state":"South Dakota","state_ab":"SD","county":"Todd","geo_location":{ "type": "Point", "coordinates": [-100.885, 43.191] }},
{"zip_code":"57545","country":"US","city":"Keyapaha","state":"South Dakota","state_ab":"SD","county":"Tripp County","geo_location":{ "type": "Point", "coordinates": [-100.1682, 43.0916] }},
{"zip_code":"57015","country":"US","city":"Chancellor","state":"South Dakota","state_ab":"SD","county":"Turner","geo_location":{ "type": "Point", "coordinates": [-96.9827, 43.408] }},
{"zip_code":"57622","country":"US","city":"Cherry Creek","state":"South Dakota","state_ab":"SD","county":"Ziebach","geo_location":{ "type": "Point", "coordinates": [-101.5687, 44.9921] }},
{"zip_code":"37705","country":"US","city":"Andersonville","state":"Tennessee","state_ab":"TN","county":"Anderson","geo_location":{ "type": "Point", "coordinates": [-84.0544, 36.1915] }},
{"zip_code":"37358","country":"US","city":"Mount Vernon","state":"Tennessee","state_ab":"TN","county":"Blount County","geo_location":{ "type": "Point", "coordinates": [-84.3643, 35.4115] }},
{"zip_code":"38258","country":"US","city":"Trezevant","state":"Tennessee","state_ab":"TN","county":"Carroll","geo_location":{ "type": "Point", "coordinates": [-88.61, 36.0172] }},
{"zip_code":"38348","country":"US","city":"Lavinia","state":"Tennessee","state_ab":"TN","county":"Carroll","geo_location":{ "type": "Point", "coordinates": [-88.6324, 35.8583] }},
{"zip_code":"37682","country":"US","city":"Milligan College","state":"Tennessee","state_ab":"TN","county":"Carter","geo_location":{ "type": "Point", "coordinates": [-82.3054, 36.296] }},
{"zip_code":"37035","country":"US","city":"Chapmansboro","state":"Tennessee","state_ab":"TN","county":"Cheatham","geo_location":{ "type": "Point", "coordinates": [-87.1127, 36.3768] }},
{"zip_code":"37822","country":"US","city":"Newport","state":"Tennessee","state_ab":"TN","county":"Cocke","geo_location":{ "type": "Point", "coordinates": [-83.1066, 35.9477] }},
{"zip_code":"38555","country":"US","city":"Crossville","state":"Tennessee","state_ab":"TN","county":"Cumberland","geo_location":{ "type": "Point", "coordinates": [-85.0514, 35.9623] }},
{"zip_code":"37138","country":"US","city":"Old Hickory","state":"Tennessee","state_ab":"TN","county":"Davidson","geo_location":{ "type": "Point", "coordinates": [-86.6117, 36.2416] }},
{"zip_code":"37202","country":"US","city":"Nashville","state":"Tennessee","state_ab":"TN","county":"Davidson","geo_location":{ "type": "Point", "coordinates": [-86.8273, 36.3403] }},
{"zip_code":"37215","country":"US","city":"Nashville","state":"Tennessee","state_ab":"TN","county":"Davidson","geo_location":{ "type": "Point", "coordinates": [-86.8219, 36.0986] }},
{"zip_code":"37228","country":"US","city":"Nashville","state":"Tennessee","state_ab":"TN","county":"Davidson","geo_location":{ "type": "Point", "coordinates": [-86.8053, 36.1901] }},
{"zip_code":"37242","country":"US","city":"Nashville","state":"Tennessee","state_ab":"TN","county":"Davidson","geo_location":{ "type": "Point", "coordinates": [-86.7852, 36.1866] }},
{"zip_code":"37165","country":"US","city":"Slayden","state":"Tennessee","state_ab":"TN","county":"Dickson","geo_location":{ "type": "Point", "coordinates": [-87.4581, 36.2835] }},
{"zip_code":"38025","country":"US","city":"Dyersburg","state":"Tennessee","state_ab":"TN","county":"Dyer","geo_location":{ "type": "Point", "coordinates": [-89.4438, 36.0469] }},
{"zip_code":"37318","country":"US","city":"Cowan","state":"Tennessee","state_ab":"TN","county":"Franklin","geo_location":{ "type": "Point", "coordinates": [-86.0167, 35.1783] }},
{"zip_code":"37345","country":"US","city":"Huntland","state":"Tennessee","state_ab":"TN","county":"Franklin","geo_location":{ "type": "Point", "coordinates": [-86.2694, 35.0512] }},
{"zip_code":"37372","country":"US","city":"Saint Andrews","state":"Tennessee","state_ab":"TN","county":"Franklin","geo_location":{ "type": "Point", "coordinates": [-86.0983, 35.1755] }},
{"zip_code":"37398","country":"US","city":"Winchester","state":"Tennessee","state_ab":"TN","county":"Franklin","geo_location":{ "type": "Point", "coordinates": [-86.113, 35.1864] }},
{"zip_code":"38478","country":"US","city":"Pulaski","state":"Tennessee","state_ab":"TN","county":"Giles","geo_location":{ "type": "Point", "coordinates": [-87.0393, 35.2093] }},
{"zip_code":"37848","country":"US","city":"Powder Springs","state":"Tennessee","state_ab":"TN","county":"Grainger","geo_location":{ "type": "Point", "coordinates": [-83.6801, 36.2357] }},
{"zip_code":"37888","country":"US","city":"Washburn","state":"Tennessee","state_ab":"TN","county":"Grainger","geo_location":{ "type": "Point", "coordinates": [-83.5937, 36.3106] }},
{"zip_code":"37745","country":"US","city":"Greeneville","state":"Tennessee","state_ab":"TN","county":"Greene","geo_location":{ "type": "Point", "coordinates": [-82.8238, 36.2455] }},
{"zip_code":"37305","country":"US","city":"Beersheba Springs","state":"Tennessee","state_ab":"TN","county":"Grundy","geo_location":{ "type": "Point", "coordinates": [-85.6942, 35.4652] }},
{"zip_code":"37408","country":"US","city":"Chattanooga","state":"Tennessee","state_ab":"TN","county":"Hamilton","geo_location":{ "type": "Point", "coordinates": [-85.3068, 35.0292] }},
{"zip_code":"37422","country":"US","city":"Chattanooga","state":"Tennessee","state_ab":"TN","county":"Hamilton","geo_location":{ "type": "Point", "coordinates": [-85.2091, 35.2211] }},
{"zip_code":"38052","country":"US","city":"Middleton","state":"Tennessee","state_ab":"TN","county":"Hardeman","geo_location":{ "type": "Point", "coordinates": [-88.9046, 35.0818] }},
{"zip_code":"37642","country":"US","city":"Church Hill","state":"Tennessee","state_ab":"TN","county":"Hawkins","geo_location":{ "type": "Point", "coordinates": [-82.7252, 36.5399] }},
{"zip_code":"38012","country":"US","city":"Brownsville","state":"Tennessee","state_ab":"TN","county":"Haywood","geo_location":{ "type": "Point", "coordinates": [-89.2624, 35.61] }},
{"zip_code":"38388","country":"US","city":"Wildersville","state":"Tennessee","state_ab":"TN","county":"Henderson","geo_location":{ "type": "Point", "coordinates": [-88.4388, 35.7698] }},
{"zip_code":"37178","country":"US","city":"Tennessee Ridge","state":"Tennessee","state_ab":"TN","county":"Houston","geo_location":{ "type": "Point", "coordinates": [-87.7808, 36.3297] }},
{"zip_code":"37912","country":"US","city":"Knoxville","state":"Tennessee","state_ab":"TN","county":"Knox","geo_location":{ "type": "Point", "coordinates": [-83.9773, 36.0055] }},
{"zip_code":"37938","country":"US","city":"Knoxville","state":"Tennessee","state_ab":"TN","county":"Knox","geo_location":{ "type": "Point", "coordinates": [-83.946, 36.1055] }},
{"zip_code":"37772","country":"US","city":"Lenoir City","state":"Tennessee","state_ab":"TN","county":"Loudon","geo_location":{ "type": "Point", "coordinates": [-84.2188, 35.7883] }},
{"zip_code":"38375","country":"US","city":"Selmer","state":"Tennessee","state_ab":"TN","county":"McNairy","geo_location":{ "type": "Point", "coordinates": [-88.5958, 35.1691] }},
{"zip_code":"38308","country":"US","city":"Jackson","state":"Tennessee","state_ab":"TN","county":"Madison","geo_location":{ "type": "Point", "coordinates": [-88.8412, 35.6124] }},
{"zip_code":"38362","country":"US","city":"Oakfield","state":"Tennessee","state_ab":"TN","county":"Madison","geo_location":{ "type": "Point", "coordinates": [-88.7801, 35.7242] }},
{"zip_code":"37385","country":"US","city":"Tellico Plains","state":"Tennessee","state_ab":"TN","county":"Monroe","geo_location":{ "type": "Point", "coordinates": [-84.3068, 35.3562] }},
{"zip_code":"38232","country":"US","city":"Hornbeak","state":"Tennessee","state_ab":"TN","county":"Obion","geo_location":{ "type": "Point", "coordinates": [-89.3056, 36.3596] }},
{"zip_code":"38542","country":"US","city":"Allred","state":"Tennessee","state_ab":"TN","county":"Overton","geo_location":{ "type": "Point", "coordinates": [-85.2031, 36.324] }},
{"zip_code":"38568","country":"US","city":"Hilham","state":"Tennessee","state_ab":"TN","county":"Overton","geo_location":{ "type": "Point", "coordinates": [-85.4464, 36.4227] }},
{"zip_code":"38502","country":"US","city":"Cookeville","state":"Tennessee","state_ab":"TN","county":"Putnam","geo_location":{ "type": "Point", "coordinates": [-85.4548, 36.1418] }},
{"zip_code":"38582","country":"US","city":"Silver Point","state":"Tennessee","state_ab":"TN","county":"Putnam","geo_location":{ "type": "Point", "coordinates": [-85.7338, 36.1006] }},
{"zip_code":"37332","country":"US","city":"Evensville","state":"Tennessee","state_ab":"TN","county":"Rhea","geo_location":{ "type": "Point", "coordinates": [-85.0228, 35.6153] }},
{"zip_code":"37152","country":"US","city":"Ridgetop","state":"Tennessee","state_ab":"TN","county":"Robertson","geo_location":{ "type": "Point", "coordinates": [-86.7722, 36.4025] }},
{"zip_code":"37732","country":"US","city":"Elgin","state":"Tennessee","state_ab":"TN","county":"Scott","geo_location":{ "type": "Point", "coordinates": [-84.6166, 36.3879] }},
{"zip_code":"37862","country":"US","city":"Sevierville","state":"Tennessee","state_ab":"TN","county":"Sevier","geo_location":{ "type": "Point", "coordinates": [-83.5386, 35.8452] }},
{"zip_code":"38115","country":"US","city":"Memphis","state":"Tennessee","state_ab":"TN","county":"Shelby","geo_location":{ "type": "Point", "coordinates": [-89.864, 35.0579] }},
{"zip_code":"38128","country":"US","city":"Memphis","state":"Tennessee","state_ab":"TN","county":"Shelby","geo_location":{ "type": "Point", "coordinates": [-89.9413, 35.2213] }},
{"zip_code":"38142","country":"US","city":"Memphis","state":"Tennessee","state_ab":"TN","county":"Shelby","geo_location":{ "type": "Point", "coordinates": [-89.9715, 35.2017] }},
{"zip_code":"38168","country":"US","city":"Memphis","state":"Tennessee","state_ab":"TN","county":"Shelby","geo_location":{ "type": "Point", "coordinates": [-89.9715, 35.2017] }},
{"zip_code":"38182","country":"US","city":"Memphis","state":"Tennessee","state_ab":"TN","county":"Shelby","geo_location":{ "type": "Point", "coordinates": [-89.9715, 35.2017] }},
{"zip_code":"38195","country":"US","city":"Memphis","state":"Tennessee","state_ab":"TN","county":"Shelby","geo_location":{ "type": "Point", "coordinates": [-89.9715, 35.2017] }},
{"zip_code":"37022","country":"US","city":"Bethpage","state":"Tennessee","state_ab":"TN","county":"Sumner","geo_location":{ "type": "Point", "coordinates": [-86.3146, 36.5186] }},
{"zip_code":"37048","country":"US","city":"Cottontown","state":"Tennessee","state_ab":"TN","county":"Sumner","geo_location":{ "type": "Point", "coordinates": [-86.6033, 36.4912] }},
{"zip_code":"37075","country":"US","city":"Hendersonville","state":"Tennessee","state_ab":"TN","county":"Sumner","geo_location":{ "type": "Point", "coordinates": [-86.6072, 36.3054] }},
{"zip_code":"37602","country":"US","city":"Johnson City","state":"Tennessee","state_ab":"TN","county":"Washington","geo_location":{ "type": "Point", "coordinates": [-82.5012, 36.2717] }},
{"zip_code":"37615","country":"US","city":"Johnson City","state":"Tennessee","state_ab":"TN","county":"Washington","geo_location":{ "type": "Point", "coordinates": [-82.4523, 36.3996] }},
{"zip_code":"38425","country":"US","city":"Clifton","state":"Tennessee","state_ab":"TN","county":"Wayne","geo_location":{ "type": "Point", "coordinates": [-87.95, 35.3819] }},
{"zip_code":"38452","country":"US","city":"Cypress Inn","state":"Tennessee","state_ab":"TN","county":"Wayne","geo_location":{ "type": "Point", "coordinates": [-87.7883, 35.0579] }},
{"zip_code":"37062","country":"US","city":"Fairview","state":"Tennessee","state_ab":"TN","county":"Williamson","geo_location":{ "type": "Point", "coordinates": [-87.1321, 35.9755] }},
{"zip_code":"37088","country":"US","city":"Lebanon","state":"Tennessee","state_ab":"TN","county":"Wilson","geo_location":{ "type": "Point", "coordinates": [-86.3049, 36.1562] }},
{"zip_code":"75802","country":"US","city":"Palestine","state":"Texas","state_ab":"TX","county":"Anderson","geo_location":{ "type": "Point", "coordinates": [-95.5796, 31.9268] }},
{"zip_code":"75882","country":"US","city":"Palestine","state":"Texas","state_ab":"TX","county":"Anderson","geo_location":{ "type": "Point", "coordinates": [-95.662, 31.7942] }},
{"zip_code":"78012","country":"US","city":"Christine","state":"Texas","state_ab":"TX","county":"Atascosa","geo_location":{ "type": "Point", "coordinates": [-98.4886, 28.7858] }},
{"zip_code":"78052","country":"US","city":"Lytle","state":"Texas","state_ab":"TX","county":"Atascosa","geo_location":{ "type": "Point", "coordinates": [-98.7945, 29.2366] }},
{"zip_code":"78065","country":"US","city":"Poteet","state":"Texas","state_ab":"TX","county":"Atascosa","geo_location":{ "type": "Point", "coordinates": [-98.6241, 29.0994] }},
{"zip_code":"78102","country":"US","city":"Beeville","state":"Texas","state_ab":"TX","county":"Bee","geo_location":{ "type": "Point", "coordinates": [-97.7616, 28.4222] }},
{"zip_code":"78142","country":"US","city":"Normanna","state":"Texas","state_ab":"TX","county":"Bee","geo_location":{ "type": "Point", "coordinates": [-97.7831, 28.5278] }},
{"zip_code":"76508","country":"US","city":"Temple","state":"Texas","state_ab":"TX","county":"Bell","geo_location":{ "type": "Point", "coordinates": [-97.492, 31.0363] }},
{"zip_code":"76548","country":"US","city":"Harker Heights","state":"Texas","state_ab":"TX","county":"Bell","geo_location":{ "type": "Point", "coordinates": [-97.6115, 31.0286] }},
{"zip_code":"78205","country":"US","city":"San Antonio","state":"Texas","state_ab":"TX","county":"Bexar","geo_location":{ "type": "Point", "coordinates": [-98.4925, 29.4237] }},
{"zip_code":"78218","country":"US","city":"San Antonio","state":"Texas","state_ab":"TX","county":"Bexar","geo_location":{ "type": "Point", "coordinates": [-98.4032, 29.4969] }},
{"zip_code":"78232","country":"US","city":"San Antonio","state":"Texas","state_ab":"TX","county":"Bexar","geo_location":{ "type": "Point", "coordinates": [-98.4769, 29.5863] }},
{"zip_code":"78245","country":"US","city":"San Antonio","state":"Texas","state_ab":"TX","county":"Bexar","geo_location":{ "type": "Point", "coordinates": [-98.6895, 29.4189] }},
{"zip_code":"78258","country":"US","city":"San Antonio","state":"Texas","state_ab":"TX","county":"Bexar","geo_location":{ "type": "Point", "coordinates": [-98.4967, 29.6562] }},
{"zip_code":"78285","country":"US","city":"San Antonio","state":"Texas","state_ab":"TX","county":"Bexar","geo_location":{ "type": "Point", "coordinates": [-98.4616, 29.4375] }},
{"zip_code":"78298","country":"US","city":"San Antonio","state":"Texas","state_ab":"TX","county":"Bexar","geo_location":{ "type": "Point", "coordinates": [-98.4616, 29.4375] }},
{"zip_code":"79738","country":"US","city":"Gail","state":"Texas","state_ab":"TX","county":"Borden","geo_location":{ "type": "Point", "coordinates": [-101.45, 32.7523] }},
{"zip_code":"76652","country":"US","city":"Kopperl","state":"Texas","state_ab":"TX","county":"Bosque","geo_location":{ "type": "Point", "coordinates": [-97.5421, 32.1035] }},
{"zip_code":"76665","country":"US","city":"Meridian","state":"Texas","state_ab":"TX","county":"Bosque","geo_location":{ "type": "Point", "coordinates": [-97.6443, 31.929] }},
{"zip_code":"75505","country":"US","city":"Texarkana","state":"Texas","state_ab":"TX","county":"Bowie","geo_location":{ "type": "Point", "coordinates": [-94.0715, 33.4624] }},
{"zip_code":"77422","country":"US","city":"Brazoria","state":"Texas","state_ab":"TX","county":"Brazoria","geo_location":{ "type": "Point", "coordinates": [-95.5867, 29.0236] }},
{"zip_code":"77512","country":"US","city":"Alvin","state":"Texas","state_ab":"TX","county":"Brazoria","geo_location":{ "type": "Point", "coordinates": [-95.276, 29.3629] }},
{"zip_code":"77578","country":"US","city":"Manvel","state":"Texas","state_ab":"TX","county":"Brazoria","geo_location":{ "type": "Point", "coordinates": [-95.3503, 29.4694] }},
{"zip_code":"77808","country":"US","city":"Bryan","state":"Texas","state_ab":"TX","county":"Brazos","geo_location":{ "type": "Point", "coordinates": [-96.3059, 30.8202] }},
{"zip_code":"77862","country":"US","city":"Kurten","state":"Texas","state_ab":"TX","county":"Brazos","geo_location":{ "type": "Point", "coordinates": [-96.341, 30.6521] }},
{"zip_code":"79842","country":"US","city":"Marathon","state":"Texas","state_ab":"TX","county":"Brewster","geo_location":{ "type": "Point", "coordinates": [-103.2214, 30.1886] }},
{"zip_code":"76432","country":"US","city":"Blanket","state":"Texas","state_ab":"TX","county":"Brown","geo_location":{ "type": "Point", "coordinates": [-98.8311, 31.7882] }},
{"zip_code":"78605","country":"US","city":"Bertram","state":"Texas","state_ab":"TX","county":"Burnet","geo_location":{ "type": "Point", "coordinates": [-98.0529, 30.7411] }},
{"zip_code":"77978","country":"US","city":"Point Comfort","state":"Texas","state_ab":"TX","county":"Calhoun","geo_location":{ "type": "Point", "coordinates": [-96.5506, 28.6651] }},
{"zip_code":"78568","country":"US","city":"Lozano","state":"Texas","state_ab":"TX","county":"Cameron","geo_location":{ "type": "Point", "coordinates": [-97.5423, 26.1904] }},
{"zip_code":"79068","country":"US","city":"Panhandle","state":"Texas","state_ab":"TX","county":"Carson","geo_location":{ "type": "Point", "coordinates": [-101.4304, 35.3808] }},
{"zip_code":"75572","country":"US","city":"Queen City","state":"Texas","state_ab":"TX","county":"Cass","geo_location":{ "type": "Point", "coordinates": [-94.1537, 33.1557] }},
{"zip_code":"79222","country":"US","city":"Carey","state":"Texas","state_ab":"TX","county":"Childress","geo_location":{ "type": "Point", "coordinates": [-100.2076, 34.5297] }},
{"zip_code":"76845","country":"US","city":"Gouldbusk","state":"Texas","state_ab":"TX","county":"Coleman","geo_location":{ "type": "Point", "coordinates": [-99.5136, 31.5511] }},
{"zip_code":"75002","country":"US","city":"Allen","state":"Texas","state_ab":"TX","county":"Collin","geo_location":{ "type": "Point", "coordinates": [-96.6454, 33.0934] }},
{"zip_code":"75442","country":"US","city":"Farmersville","state":"Texas","state_ab":"TX","county":"Collin","geo_location":{ "type": "Point", "coordinates": [-96.3686, 33.1659] }},
{"zip_code":"79095","country":"US","city":"Wellington","state":"Texas","state_ab":"TX","county":"Collingsworth","geo_location":{ "type": "Point", "coordinates": [-100.2207, 34.8717] }},
{"zip_code":"77475","country":"US","city":"Sheridan","state":"Texas","state_ab":"TX","county":"Colorado","geo_location":{ "type": "Point", "coordinates": [-96.6536, 29.4452] }},
{"zip_code":"76238","country":"US","city":"Era","state":"Texas","state_ab":"TX","county":"Cooke","geo_location":{ "type": "Point", "coordinates": [-97.3859, 33.4965] }},
{"zip_code":"76252","country":"US","city":"Muenster","state":"Texas","state_ab":"TX","county":"Cooke","geo_location":{ "type": "Point", "coordinates": [-97.3624, 33.6595] }},
{"zip_code":"76522","country":"US","city":"Copperas Cove","state":"Texas","state_ab":"TX","county":"Coryell","geo_location":{ "type": "Point", "coordinates": [-97.9301, 31.2029] }},
{"zip_code":"79248","country":"US","city":"Paducah","state":"Texas","state_ab":"TX","county":"Cottle","geo_location":{ "type": "Point", "coordinates": [-100.2986, 34.0217] }},
{"zip_code":"79855","country":"US","city":"Van Horn","state":"Texas","state_ab":"TX","county":"Culberson","geo_location":{ "type": "Point", "coordinates": [-104.8245, 31.0391] }},
{"zip_code":"75015","country":"US","city":"Irving","state":"Texas","state_ab":"TX","county":"Dallas","geo_location":{ "type": "Point", "coordinates": [-96.7776, 32.7673] }},
{"zip_code":"75042","country":"US","city":"Garland","state":"Texas","state_ab":"TX","county":"Dallas","geo_location":{ "type": "Point", "coordinates": [-96.6775, 32.9185] }},
{"zip_code":"75082","country":"US","city":"Richardson","state":"Texas","state_ab":"TX","county":"Dallas","geo_location":{ "type": "Point", "coordinates": [-96.686, 32.9865] }},
{"zip_code":"75172","country":"US","city":"Wilmer","state":"Texas","state_ab":"TX","county":"Dallas","geo_location":{ "type": "Point", "coordinates": [-96.6838, 32.5981] }},
{"zip_code":"75185","country":"US","city":"Mesquite","state":"Texas","state_ab":"TX","county":"Dallas","geo_location":{ "type": "Point", "coordinates": [-96.5618, 32.7403] }},
{"zip_code":"75208","country":"US","city":"Dallas","state":"Texas","state_ab":"TX","county":"Dallas","geo_location":{ "type": "Point", "coordinates": [-96.8389, 32.7492] }},
{"zip_code":"75222","country":"US","city":"Dallas","state":"Texas","state_ab":"TX","county":"Dallas","geo_location":{ "type": "Point", "coordinates": [-96.7776, 32.7673] }},
{"zip_code":"75235","country":"US","city":"Dallas","state":"Texas","state_ab":"TX","county":"Dallas","geo_location":{ "type": "Point", "coordinates": [-96.8388, 32.8252] }},
{"zip_code":"75248","country":"US","city":"Dallas","state":"Texas","state_ab":"TX","county":"Dallas","geo_location":{ "type": "Point", "coordinates": [-96.7942, 32.9682] }},
{"zip_code":"75262","country":"US","city":"Dallas","state":"Texas","state_ab":"TX","county":"Dallas","geo_location":{ "type": "Point", "coordinates": [-96.7776, 32.7673] }},
{"zip_code":"75275","country":"US","city":"Dallas","state":"Texas","state_ab":"TX","county":"Dallas","geo_location":{ "type": "Point", "coordinates": [-96.7776, 32.7673] }},
{"zip_code":"75312","country":"US","city":"Dallas","state":"Texas","state_ab":"TX","county":"Dallas","geo_location":{ "type": "Point", "coordinates": [-96.7776, 32.7673] }},
{"zip_code":"75378","country":"US","city":"Dallas","state":"Texas","state_ab":"TX","county":"Dallas","geo_location":{ "type": "Point", "coordinates": [-96.7776, 32.7673] }},
{"zip_code":"75392","country":"US","city":"Dallas","state":"Texas","state_ab":"TX","county":"Dallas","geo_location":{ "type": "Point", "coordinates": [-96.7776, 32.7673] }},
{"zip_code":"75415","country":"US","city":"Ben Franklin","state":"Texas","state_ab":"TX","county":"Delta","geo_location":{ "type": "Point", "coordinates": [-95.7591, 33.4741] }},
{"zip_code":"75028","country":"US","city":"Flower Mound","state":"Texas","state_ab":"TX","county":"Denton","geo_location":{ "type": "Point", "coordinates": [-97.0745, 33.0383] }},
{"zip_code":"75068","country":"US","city":"Little Elm","state":"Texas","state_ab":"TX","county":"Denton","geo_location":{ "type": "Point", "coordinates": [-96.9583, 33.1768] }},
{"zip_code":"76625","country":"US","city":"Birome","state":"Texas","state_ab":"TX","county":"Denton County","geo_location":{ "type": "Point", "coordinates": [-96.9429, 31.8553] }},
{"zip_code":"76445","country":"US","city":"Desdemona","state":"Texas","state_ab":"TX","county":"Eastland","geo_location":{ "type": "Point", "coordinates": [-98.5673, 32.2819] }},
{"zip_code":"79765","country":"US","city":"Odessa","state":"Texas","state_ab":"TX","county":"Ector","geo_location":{ "type": "Point", "coordinates": [-102.3944, 31.9375] }},
{"zip_code":"79905","country":"US","city":"El Paso","state":"Texas","state_ab":"TX","county":"El Paso","geo_location":{ "type": "Point", "coordinates": [-106.4304, 31.7674] }},
{"zip_code":"79918","country":"US","city":"El Paso","state":"Texas","state_ab":"TX","county":"El Paso","geo_location":{ "type": "Point", "coordinates": [-106.3907, 31.8318] }},
{"zip_code":"79932","country":"US","city":"El Paso","state":"Texas","state_ab":"TX","county":"El Paso","geo_location":{ "type": "Point", "coordinates": [-106.5932, 31.8623] }},
{"zip_code":"79945","country":"US","city":"El Paso","state":"Texas","state_ab":"TX","county":"El Paso","geo_location":{ "type": "Point", "coordinates": [-106.3, 31.6948] }},
{"zip_code":"79958","country":"US","city":"El Paso","state":"Texas","state_ab":"TX","county":"El Paso","geo_location":{ "type": "Point", "coordinates": [-106.3, 31.6948] }},
{"zip_code":"79985","country":"US","city":"El Paso","state":"Texas","state_ab":"TX","county":"El Paso","geo_location":{ "type": "Point", "coordinates": [-106.3, 31.6948] }},
{"zip_code":"79998","country":"US","city":"El Paso","state":"Texas","state_ab":"TX","county":"El Paso","geo_location":{ "type": "Point", "coordinates": [-106.3, 31.6948] }},
{"zip_code":"88518","country":"US","city":"El Paso","state":"Texas","state_ab":"TX","county":"El Paso","geo_location":{ "type": "Point", "coordinates": [-106.3, 31.6948] }},
{"zip_code":"88532","country":"US","city":"El Paso","state":"Texas","state_ab":"TX","county":"El Paso","geo_location":{ "type": "Point", "coordinates": [-106.3, 31.6948] }},
{"zip_code":"88545","country":"US","city":"El Paso","state":"Texas","state_ab":"TX","county":"El Paso","geo_location":{ "type": "Point", "coordinates": [-106.3, 31.6948] }},
{"zip_code":"88558","country":"US","city":"El Paso","state":"Texas","state_ab":"TX","county":"El Paso","geo_location":{ "type": "Point", "coordinates": [-106.3, 31.6948] }},
{"zip_code":"88572","country":"US","city":"El Paso","state":"Texas","state_ab":"TX","county":"El Paso","geo_location":{ "type": "Point", "coordinates": [-106.3, 31.6948] }},
{"zip_code":"88585","country":"US","city":"El Paso","state":"Texas","state_ab":"TX","county":"El Paso","geo_location":{ "type": "Point", "coordinates": [-106.3, 31.6948] }},
{"zip_code":"79235","country":"US","city":"Floydada","state":"Texas","state_ab":"TX","county":"Floyd","geo_location":{ "type": "Point", "coordinates": [-101.3346, 33.9743] }},
{"zip_code":"77552","country":"US","city":"Galveston","state":"Texas","state_ab":"TX","county":"Galveston","geo_location":{ "type": "Point", "coordinates": [-94.9444, 29.2205] }},
{"zip_code":"77565","country":"US","city":"Kemah","state":"Texas","state_ab":"TX","county":"Galveston","geo_location":{ "type": "Point", "coordinates": [-95.0276, 29.5236] }},
{"zip_code":"77592","country":"US","city":"Texas City","state":"Texas","state_ab":"TX","county":"Galveston","geo_location":{ "type": "Point", "coordinates": [-94.8002, 29.3305] }},
{"zip_code":"78618","country":"US","city":"Doss","state":"Texas","state_ab":"TX","county":"Gillespie","geo_location":{ "type": "Point", "coordinates": [-99.1707, 30.4613] }},
{"zip_code":"78632","country":"US","city":"Harwood","state":"Texas","state_ab":"TX","county":"Gonzales","geo_location":{ "type": "Point", "coordinates": [-97.4906, 29.6661] }},
{"zip_code":"78658","country":"US","city":"Ottine","state":"Texas","state_ab":"TX","county":"Gonzales","geo_location":{ "type": "Point", "coordinates": [-97.5911, 29.5952] }},
{"zip_code":"79002","country":"US","city":"Alanreed","state":"Texas","state_ab":"TX","county":"Gray","geo_location":{ "type": "Point", "coordinates": [-100.7592, 35.2273] }},
{"zip_code":"75495","country":"US","city":"Van Alstyne","state":"Texas","state_ab":"TX","county":"Grayson","geo_location":{ "type": "Point", "coordinates": [-96.5486, 33.4292] }},
{"zip_code":"75608","country":"US","city":"Longview","state":"Texas","state_ab":"TX","county":"Gregg","geo_location":{ "type": "Point", "coordinates": [-94.8481, 32.5701] }},
{"zip_code":"75662","country":"US","city":"Kilgore","state":"Texas","state_ab":"TX","county":"Gregg","geo_location":{ "type": "Point", "coordinates": [-94.8653, 32.3836] }},
{"zip_code":"77875","country":"US","city":"Roans Prairie","state":"Texas","state_ab":"TX","county":"Grimes","geo_location":{ "type": "Point", "coordinates": [-95.9579, 30.6075] }},
{"zip_code":"78115","country":"US","city":"Geronimo","state":"Texas","state_ab":"TX","county":"Guadalupe","geo_location":{ "type": "Point", "coordinates": [-98.0408, 29.5451] }},
{"zip_code":"78155","country":"US","city":"Seguin","state":"Texas","state_ab":"TX","county":"Guadalupe","geo_location":{ "type": "Point", "coordinates": [-97.9628, 29.5613] }},
{"zip_code":"77008","country":"US","city":"Houston","state":"Texas","state_ab":"TX","county":"Harris","geo_location":{ "type": "Point", "coordinates": [-95.4118, 29.7991] }},
{"zip_code":"77022","country":"US","city":"Houston","state":"Texas","state_ab":"TX","county":"Harris","geo_location":{ "type": "Point", "coordinates": [-95.3769, 29.8299] }},
{"zip_code":"77035","country":"US","city":"Houston","state":"Texas","state_ab":"TX","county":"Harris","geo_location":{ "type": "Point", "coordinates": [-95.4854, 29.6518] }},
{"zip_code":"77048","country":"US","city":"Houston","state":"Texas","state_ab":"TX","county":"Harris","geo_location":{ "type": "Point", "coordinates": [-95.3416, 29.6321] }},
{"zip_code":"77062","country":"US","city":"Houston","state":"Texas","state_ab":"TX","county":"Harris","geo_location":{ "type": "Point", "coordinates": [-95.1303, 29.5721] }},
{"zip_code":"77075","country":"US","city":"Houston","state":"Texas","state_ab":"TX","county":"Harris","geo_location":{ "type": "Point", "coordinates": [-95.26, 29.6223] }},
{"zip_code":"77088","country":"US","city":"Houston","state":"Texas","state_ab":"TX","county":"Harris","geo_location":{ "type": "Point", "coordinates": [-95.4539, 29.8817] }},
{"zip_code":"77202","country":"US","city":"Houston","state":"Texas","state_ab":"TX","county":"Harris","geo_location":{ "type": "Point", "coordinates": [-95.4342, 29.834] }},
{"zip_code":"77215","country":"US","city":"Houston","state":"Texas","state_ab":"TX","county":"Harris","geo_location":{ "type": "Point", "coordinates": [-95.4342, 29.834] }},
{"zip_code":"77228","country":"US","city":"Houston","state":"Texas","state_ab":"TX","county":"Harris","geo_location":{ "type": "Point", "coordinates": [-95.4342, 29.834] }},
{"zip_code":"77242","country":"US","city":"Houston","state":"Texas","state_ab":"TX","county":"Harris","geo_location":{ "type": "Point", "coordinates": [-95.4342, 29.834] }},
{"zip_code":"77255","country":"US","city":"Houston","state":"Texas","state_ab":"TX","county":"Harris","geo_location":{ "type": "Point", "coordinates": [-95.4342, 29.834] }},
{"zip_code":"77268","country":"US","city":"Houston","state":"Texas","state_ab":"TX","county":"Harris","geo_location":{ "type": "Point", "coordinates": [-95.4342, 29.834] }},
{"zip_code":"77282","country":"US","city":"Houston","state":"Texas","state_ab":"TX","county":"Harris","geo_location":{ "type": "Point", "coordinates": [-95.4342, 29.834] }},
{"zip_code":"77345","country":"US","city":"Humble","state":"Texas","state_ab":"TX","county":"Harris","geo_location":{ "type": "Point", "coordinates": [-95.1707, 30.0566] }},
{"zip_code":"75688","country":"US","city":"Scottsville","state":"Texas","state_ab":"TX","county":"Harrison","geo_location":{ "type": "Point", "coordinates": [-94.2394, 32.554] }},
{"zip_code":"75752","country":"US","city":"Athens","state":"Texas","state_ab":"TX","county":"Henderson","geo_location":{ "type": "Point", "coordinates": [-95.79, 32.2151] }},
{"zip_code":"75778","country":"US","city":"Murchison","state":"Texas","state_ab":"TX","county":"Henderson","geo_location":{ "type": "Point", "coordinates": [-95.7737, 32.3257] }},
{"zip_code":"78502","country":"US","city":"Mcallen","state":"Texas","state_ab":"TX","county":"Hidalgo","geo_location":{ "type": "Point", "coordinates": [-98.1989, 26.2567] }},
{"zip_code":"78542","country":"US","city":"Edinburg","state":"Texas","state_ab":"TX","county":"Hidalgo","geo_location":{ "type": "Point", "coordinates": [-98.0695, 26.4661] }},
{"zip_code":"78595","country":"US","city":"Sullivan City","state":"Texas","state_ab":"TX","county":"Hidalgo","geo_location":{ "type": "Point", "coordinates": [-98.5627, 26.272] }},
{"zip_code":"76692","country":"US","city":"Whitney","state":"Texas","state_ab":"TX","county":"Hill","geo_location":{ "type": "Point", "coordinates": [-97.3463, 31.9713] }},
{"zip_code":"79338","country":"US","city":"Levelland","state":"Texas","state_ab":"TX","county":"Hockley","geo_location":{ "type": "Point", "coordinates": [-102.3627, 33.5932] }},
{"zip_code":"75482","country":"US","city":"Sulphur Springs","state":"Texas","state_ab":"TX","county":"Hopkins","geo_location":{ "type": "Point", "coordinates": [-95.5922, 33.1345] }},
{"zip_code":"75402","country":"US","city":"Greenville","state":"Texas","state_ab":"TX","county":"Hunt","geo_location":{ "type": "Point", "coordinates": [-96.0927, 33.1047] }},
{"zip_code":"75428","country":"US","city":"Commerce","state":"Texas","state_ab":"TX","county":"Hunt","geo_location":{ "type": "Point", "coordinates": [-95.9097, 33.2493] }},
{"zip_code":"76458","country":"US","city":"Jacksboro","state":"Texas","state_ab":"TX","county":"Jack","geo_location":{ "type": "Point", "coordinates": [-98.1681, 33.2347] }},
{"zip_code":"77615","country":"US","city":"Evadale","state":"Texas","state_ab":"TX","county":"Jasper","geo_location":{ "type": "Point", "coordinates": [-94.0731, 30.3129] }},
{"zip_code":"77642","country":"US","city":"Port Arthur","state":"Texas","state_ab":"TX","county":"Jefferson","geo_location":{ "type": "Point", "coordinates": [-93.927, 29.9212] }},
{"zip_code":"77655","country":"US","city":"Sabine Pass","state":"Texas","state_ab":"TX","county":"Jefferson","geo_location":{ "type": "Point", "coordinates": [-94.096, 29.6682] }},
{"zip_code":"77705","country":"US","city":"Beaumont","state":"Texas","state_ab":"TX","county":"Jefferson","geo_location":{ "type": "Point", "coordinates": [-94.1157, 30.0211] }},
{"zip_code":"78375","country":"US","city":"Premont","state":"Texas","state_ab":"TX","county":"Jim Wells","geo_location":{ "type": "Point", "coordinates": [-98.133, 27.3544] }},
{"zip_code":"76058","country":"US","city":"Joshua","state":"Texas","state_ab":"TX","county":"Johnson","geo_location":{ "type": "Point", "coordinates": [-97.4011, 32.4663] }},
{"zip_code":"75118","country":"US","city":"Elmo","state":"Texas","state_ab":"TX","county":"Kaufman","geo_location":{ "type": "Point", "coordinates": [-96.3027, 32.5996] }},
{"zip_code":"75158","country":"US","city":"Scurry","state":"Texas","state_ab":"TX","county":"Kaufman","geo_location":{ "type": "Point", "coordinates": [-96.3925, 32.4818] }},
{"zip_code":"79518","country":"US","city":"Girard","state":"Texas","state_ab":"TX","county":"Kent","geo_location":{ "type": "Point", "coordinates": [-100.6937, 33.3632] }},
{"zip_code":"78025","country":"US","city":"Ingram","state":"Texas","state_ab":"TX","county":"Kerr","geo_location":{ "type": "Point", "coordinates": [-99.269, 30.0731] }},
{"zip_code":"79505","country":"US","city":"Benjamin","state":"Texas","state_ab":"TX","county":"Knox","geo_location":{ "type": "Point", "coordinates": [-99.8271, 33.5556] }},
{"zip_code":"75468","country":"US","city":"Pattonville","state":"Texas","state_ab":"TX","county":"Lamar","geo_location":{ "type": "Point", "coordinates": [-95.3908, 33.5702] }},
{"zip_code":"79082","country":"US","city":"Springlake","state":"Texas","state_ab":"TX","county":"Lamb","geo_location":{ "type": "Point", "coordinates": [-102.309, 34.2393] }},
{"zip_code":"79312","country":"US","city":"Amherst","state":"Texas","state_ab":"TX","county":"Lamb","geo_location":{ "type": "Point", "coordinates": [-102.4416, 33.9976] }},
{"zip_code":"78942","country":"US","city":"Giddings","state":"Texas","state_ab":"TX","county":"Lee","geo_location":{ "type": "Point", "coordinates": [-96.9332, 30.1777] }},
{"zip_code":"75855","country":"US","city":"Oakwood","state":"Texas","state_ab":"TX","county":"Leon","geo_location":{ "type": "Point", "coordinates": [-95.9022, 31.6023] }},
{"zip_code":"77538","country":"US","city":"Devers","state":"Texas","state_ab":"TX","county":"Liberty","geo_location":{ "type": "Point", "coordinates": [-94.5746, 29.9978] }},
{"zip_code":"76678","country":"US","city":"Prairie Hill","state":"Texas","state_ab":"TX","county":"Limestone","geo_location":{ "type": "Point", "coordinates": [-96.8094, 31.6591] }},
{"zip_code":"76885","country":"US","city":"Valley Spring","state":"Texas","state_ab":"TX","county":"Llano","geo_location":{ "type": "Point", "coordinates": [-98.8357, 30.866] }},
{"zip_code":"78672","country":"US","city":"Tow","state":"Texas","state_ab":"TX","county":"Llano","geo_location":{ "type": "Point", "coordinates": [-98.4596, 30.8609] }},
{"zip_code":"79402","country":"US","city":"Lubbock","state":"Texas","state_ab":"TX","county":"Lubbock","geo_location":{ "type": "Point", "coordinates": [-101.8511, 33.5922] }},
{"zip_code":"79415","country":"US","city":"Lubbock","state":"Texas","state_ab":"TX","county":"Lubbock","geo_location":{ "type": "Point", "coordinates": [-101.876, 33.6021] }},
{"zip_code":"76858","country":"US","city":"Melvin","state":"Texas","state_ab":"TX","county":"McCulloch","geo_location":{ "type": "Point", "coordinates": [-99.5439, 31.1851] }},
{"zip_code":"76872","country":"US","city":"Rochelle","state":"Texas","state_ab":"TX","county":"McCulloch","geo_location":{ "type": "Point", "coordinates": [-99.1572, 31.3] }},
{"zip_code":"76638","country":"US","city":"Crawford","state":"Texas","state_ab":"TX","county":"McLennan","geo_location":{ "type": "Point", "coordinates": [-97.39, 31.5598] }},
{"zip_code":"76702","country":"US","city":"Waco","state":"Texas","state_ab":"TX","county":"McLennan","geo_location":{ "type": "Point", "coordinates": [-97.1443, 31.5475] }},
{"zip_code":"76715","country":"US","city":"Waco","state":"Texas","state_ab":"TX","county":"McLennan","geo_location":{ "type": "Point", "coordinates": [-97.2032, 31.5536] }},
{"zip_code":"76795","country":"US","city":"Waco","state":"Texas","state_ab":"TX","county":"McLennan","geo_location":{ "type": "Point", "coordinates": [-97.2032, 31.5536] }},
{"zip_code":"78852","country":"US","city":"Eagle Pass","state":"Texas","state_ab":"TX","county":"Maverick","geo_location":{ "type": "Point", "coordinates": [-100.4818, 28.7028] }},
{"zip_code":"79712","country":"US","city":"Midland","state":"Texas","state_ab":"TX","county":"Midland","geo_location":{ "type": "Point", "coordinates": [-102.0317, 31.8693] }},
{"zip_code":"79532","country":"US","city":"Loraine","state":"Texas","state_ab":"TX","county":"Mitchell","geo_location":{ "type": "Point", "coordinates": [-100.7285, 32.385] }},
{"zip_code":"76265","country":"US","city":"Saint Jo","state":"Texas","state_ab":"TX","county":"Montague","geo_location":{ "type": "Point", "coordinates": [-97.5568, 33.744] }},
{"zip_code":"77305","country":"US","city":"Conroe","state":"Texas","state_ab":"TX","county":"Montgomery","geo_location":{ "type": "Point", "coordinates": [-95.3832, 30.2906] }},
{"zip_code":"77318","country":"US","city":"Willis","state":"Texas","state_ab":"TX","county":"Montgomery","geo_location":{ "type": "Point", "coordinates": [-95.5394, 30.4416] }},
{"zip_code":"77372","country":"US","city":"Splendora","state":"Texas","state_ab":"TX","county":"Montgomery","geo_location":{ "type": "Point", "coordinates": [-95.1993, 30.2326] }},
{"zip_code":"77385","country":"US","city":"Conroe","state":"Texas","state_ab":"TX","county":"Montgomery","geo_location":{ "type": "Point", "coordinates": [-95.4288, 30.1877] }},
{"zip_code":"75958","country":"US","city":"Martinsville","state":"Texas","state_ab":"TX","county":"Nacogdoches","geo_location":{ "type": "Point", "coordinates": [-94.639, 31.5342] }},
{"zip_code":"75105","country":"US","city":"Chatfield","state":"Texas","state_ab":"TX","county":"Navarro","geo_location":{ "type": "Point", "coordinates": [-96.3887, 32.2954] }},
{"zip_code":"75932","country":"US","city":"Burkeville","state":"Texas","state_ab":"TX","county":"Newton","geo_location":{ "type": "Point", "coordinates": [-93.6585, 31.0099] }},
{"zip_code":"79545","country":"US","city":"Roscoe","state":"Texas","state_ab":"TX","county":"Nolan","geo_location":{ "type": "Point", "coordinates": [-100.5391, 32.4276] }},
{"zip_code":"78412","country":"US","city":"Corpus Christi","state":"Texas","state_ab":"TX","county":"Nueces","geo_location":{ "type": "Point", "coordinates": [-97.3537, 27.7061] }},
{"zip_code":"78465","country":"US","city":"Corpus Christi","state":"Texas","state_ab":"TX","county":"Nueces","geo_location":{ "type": "Point", "coordinates": [-97.4632, 27.777] }},
{"zip_code":"78478","country":"US","city":"Corpus Christi","state":"Texas","state_ab":"TX","county":"Nueces","geo_location":{ "type": "Point", "coordinates": [-97.4632, 27.777] }},
{"zip_code":"76472","country":"US","city":"Santo","state":"Texas","state_ab":"TX","county":"Palo Pinto","geo_location":{ "type": "Point", "coordinates": [-98.1797, 32.5979] }},
{"zip_code":"76085","country":"US","city":"Weatherford","state":"Texas","state_ab":"TX","county":"Parker","geo_location":{ "type": "Point", "coordinates": [-97.7516, 32.7676] }},
{"zip_code":"76098","country":"US","city":"Azle","state":"Texas","state_ab":"TX","county":"Parker","geo_location":{ "type": "Point", "coordinates": [-97.5636, 32.8957] }},
{"zip_code":"76485","country":"US","city":"Peaster","state":"Texas","state_ab":"TX","county":"Parker","geo_location":{ "type": "Point", "coordinates": [-97.8055, 32.7793] }},
{"zip_code":"79325","country":"US","city":"Farwell","state":"Texas","state_ab":"TX","county":"Parmer","geo_location":{ "type": "Point", "coordinates": [-102.9901, 34.386] }},
{"zip_code":"77332","country":"US","city":"Dallardsville","state":"Texas","state_ab":"TX","county":"Polk","geo_location":{ "type": "Point", "coordinates": [-94.8691, 30.8179] }},
{"zip_code":"79105","country":"US","city":"Amarillo","state":"Texas","state_ab":"TX","county":"Potter","geo_location":{ "type": "Point", "coordinates": [-101.8951, 35.4015] }},
{"zip_code":"79172","country":"US","city":"Amarillo","state":"Texas","state_ab":"TX","county":"Potter","geo_location":{ "type": "Point", "coordinates": [-101.8951, 35.4015] }},
{"zip_code":"79185","country":"US","city":"Amarillo","state":"Texas","state_ab":"TX","county":"Potter","geo_location":{ "type": "Point", "coordinates": [-101.8951, 35.4015] }},
{"zip_code":"79015","country":"US","city":"Canyon","state":"Texas","state_ab":"TX","county":"Randall","geo_location":{ "type": "Point", "coordinates": [-101.9247, 34.9772] }},
{"zip_code":"79118","country":"US","city":"Amarillo","state":"Texas","state_ab":"TX","county":"Randall","geo_location":{ "type": "Point", "coordinates": [-101.8349, 35.0763] }},
{"zip_code":"75132","country":"US","city":"Fate","state":"Texas","state_ab":"TX","county":"Rockwall","geo_location":{ "type": "Point", "coordinates": [-96.3828, 32.9411] }},
{"zip_code":"75972","country":"US","city":"San Augustine","state":"Texas","state_ab":"TX","county":"San Augustine","geo_location":{ "type": "Point", "coordinates": [-94.1326, 31.5152] }},
{"zip_code":"78335","country":"US","city":"Aransas Pass","state":"Texas","state_ab":"TX","county":"San Patricio","geo_location":{ "type": "Point", "coordinates": [-97.1884, 27.9125] }},
{"zip_code":"78362","country":"US","city":"Ingleside","state":"Texas","state_ab":"TX","county":"San Patricio","geo_location":{ "type": "Point", "coordinates": [-97.2069, 27.8682] }},
{"zip_code":"76832","country":"US","city":"Cherokee","state":"Texas","state_ab":"TX","county":"San Saba","geo_location":{ "type": "Point", "coordinates": [-98.6633, 30.9806] }},
{"zip_code":"75712","country":"US","city":"Tyler","state":"Texas","state_ab":"TX","county":"Smith","geo_location":{ "type": "Point", "coordinates": [-95.2899, 32.4112] }},
{"zip_code":"75792","country":"US","city":"Winona","state":"Texas","state_ab":"TX","county":"Smith","geo_location":{ "type": "Point", "coordinates": [-95.1246, 32.4662] }},
{"zip_code":"78582","country":"US","city":"Rio Grande City","state":"Texas","state_ab":"TX","county":"Starr","geo_location":{ "type": "Point", "coordinates": [-98.8104, 26.3942] }},
{"zip_code":"79042","country":"US","city":"Happy","state":"Texas","state_ab":"TX","county":"Swisher","geo_location":{ "type": "Point", "coordinates": [-101.8256, 34.7219] }},
{"zip_code":"76005","country":"US","city":"Arlington","state":"Texas","state_ab":"TX","county":"Tarrant","geo_location":{ "type": "Point", "coordinates": [-97.2915, 32.7714] }},
{"zip_code":"76018","country":"US","city":"Arlington","state":"Texas","state_ab":"TX","county":"Tarrant","geo_location":{ "type": "Point", "coordinates": [-97.092, 32.6548] }},
{"zip_code":"76108","country":"US","city":"Fort Worth","state":"Texas","state_ab":"TX","county":"Tarrant","geo_location":{ "type": "Point", "coordinates": [-97.4969, 32.7822] }},
{"zip_code":"76122","country":"US","city":"Fort Worth","state":"Texas","state_ab":"TX","county":"Tarrant","geo_location":{ "type": "Point", "coordinates": [-97.2915, 32.7714] }},
{"zip_code":"76135","country":"US","city":"Fort Worth","state":"Texas","state_ab":"TX","county":"Tarrant","geo_location":{ "type": "Point", "coordinates": [-97.4519, 32.8248] }},
{"zip_code":"76148","country":"US","city":"Fort Worth","state":"Texas","state_ab":"TX","county":"Tarrant","geo_location":{ "type": "Point", "coordinates": [-97.2508, 32.8621] }},
{"zip_code":"76162","country":"US","city":"Fort Worth","state":"Texas","state_ab":"TX","county":"Tarrant","geo_location":{ "type": "Point", "coordinates": [-97.2915, 32.7714] }},
{"zip_code":"79608","country":"US","city":"Abilene","state":"Texas","state_ab":"TX","county":"Taylor","geo_location":{ "type": "Point", "coordinates": [-99.8907, 32.3021] }},
{"zip_code":"79378","country":"US","city":"Wellman","state":"Texas","state_ab":"TX","county":"Terry","geo_location":{ "type": "Point", "coordinates": [-102.4282, 33.0473] }},
{"zip_code":"75455","country":"US","city":"Mount Pleasant","state":"Texas","state_ab":"TX","county":"Titus","geo_location":{ "type": "Point", "coordinates": [-94.9695, 33.1733] }},
{"zip_code":"75558","country":"US","city":"Cookville","state":"Texas","state_ab":"TX","county":"Titus","geo_location":{ "type": "Point", "coordinates": [-94.8747, 33.2432] }},
{"zip_code":"76908","country":"US","city":"Goodfellow Afb","state":"Texas","state_ab":"TX","county":"Tom Green","geo_location":{ "type": "Point", "coordinates": [-100.4022, 31.4321] }},
{"zip_code":"76935","country":"US","city":"Christoval","state":"Texas","state_ab":"TX","county":"Tom Green","geo_location":{ "type": "Point", "coordinates": [-100.5203, 31.2346] }}]}