{"value": [{"zip_code":"20115","country":"US","city":"Marshall","state":"Virginia","state_ab":"VA","county":"Fauquier","geo_location":{ "type": "Point", "coordinates": [-77.8911, 38.8405] }},
{"zip_code":"20128","country":"US","city":"Orlean","state":"Virginia","state_ab":"VA","county":"Fauquier","geo_location":{ "type": "Point", "coordinates": [-77.9774, 38.7416] }},
{"zip_code":"22728","country":"US","city":"Midland","state":"Virginia","state_ab":"VA","county":"Fauquier","geo_location":{ "type": "Point", "coordinates": [-77.7127, 38.5671] }},
{"zip_code":"22742","country":"US","city":"Sumerduck","state":"Virginia","state_ab":"VA","county":"Fauquier","geo_location":{ "type": "Point", "coordinates": [-77.7044, 38.4674] }},
{"zip_code":"23022","country":"US","city":"Bremo Bluff","state":"Virginia","state_ab":"VA","county":"Fluvanna","geo_location":{ "type": "Point", "coordinates": [-78.2672, 37.7453] }},
{"zip_code":"24065","country":"US","city":"Boones Mill","state":"Virginia","state_ab":"VA","county":"Franklin","geo_location":{ "type": "Point", "coordinates": [-79.9556, 37.1331] }},
{"zip_code":"24092","country":"US","city":"Glade Hill","state":"Virginia","state_ab":"VA","county":"Franklin","geo_location":{ "type": "Point", "coordinates": [-79.773, 36.9859] }},
{"zip_code":"24102","country":"US","city":"Henry","state":"Virginia","state_ab":"VA","county":"Franklin","geo_location":{ "type": "Point", "coordinates": [-79.9904, 36.8393] }},
{"zip_code":"22625","country":"US","city":"Cross Junction","state":"Virginia","state_ab":"VA","county":"Frederick","geo_location":{ "type": "Point", "coordinates": [-78.3081, 39.3744] }},
{"zip_code":"22638","country":"US","city":"Winchester","state":"Virginia","state_ab":"VA","county":"Frederick","geo_location":{ "type": "Point", "coordinates": [-78.2885, 39.2369] }},
{"zip_code":"24128","country":"US","city":"Newport","state":"Virginia","state_ab":"VA","county":"Giles","geo_location":{ "type": "Point", "coordinates": [-80.5099, 37.3069] }},
{"zip_code":"23062","country":"US","city":"Gloucester Point","state":"Virginia","state_ab":"VA","county":"Gloucester","geo_location":{ "type": "Point", "coordinates": [-76.4959, 37.2585] }},
{"zip_code":"23178","country":"US","city":"Ware Neck","state":"Virginia","state_ab":"VA","county":"Gloucester","geo_location":{ "type": "Point", "coordinates": [-76.4529, 37.4004] }},
{"zip_code":"24348","country":"US","city":"Independence","state":"Virginia","state_ab":"VA","county":"Grayson","geo_location":{ "type": "Point", "coordinates": [-81.1582, 36.6294] }},
{"zip_code":"22935","country":"US","city":"Dyke","state":"Virginia","state_ab":"VA","county":"Greene","geo_location":{ "type": "Point", "coordinates": [-78.5578, 38.2705] }},
{"zip_code":"23192","country":"US","city":"Montpelier","state":"Virginia","state_ab":"VA","county":"Hanover","geo_location":{ "type": "Point", "coordinates": [-77.6924, 37.8177] }},
{"zip_code":"23075","country":"US","city":"Highland Springs","state":"Virginia","state_ab":"VA","county":"Henrico","geo_location":{ "type": "Point", "coordinates": [-77.3226, 37.5437] }},
{"zip_code":"23228","country":"US","city":"Richmond","state":"Virginia","state_ab":"VA","county":"Henrico","geo_location":{ "type": "Point", "coordinates": [-77.4959, 37.625] }},
{"zip_code":"23242","country":"US","city":"Richmond","state":"Virginia","state_ab":"VA","county":"Henrico","geo_location":{ "type": "Point", "coordinates": [-77.4161, 37.5313] }},
{"zip_code":"23255","country":"US","city":"Richmond","state":"Virginia","state_ab":"VA","county":"Henrico","geo_location":{ "type": "Point", "coordinates": [-77.4161, 37.5313] }},
{"zip_code":"24078","country":"US","city":"Collinsville","state":"Virginia","state_ab":"VA","county":"Henry","geo_location":{ "type": "Point", "coordinates": [-79.9142, 36.7238] }},
{"zip_code":"24168","country":"US","city":"Stanleytown","state":"Virginia","state_ab":"VA","county":"Henry","geo_location":{ "type": "Point", "coordinates": [-79.9465, 36.7348] }},
{"zip_code":"24465","country":"US","city":"Monterey","state":"Virginia","state_ab":"VA","county":"Highland","geo_location":{ "type": "Point", "coordinates": [-79.5941, 38.4058] }},
{"zip_code":"22485","country":"US","city":"King George","state":"Virginia","state_ab":"VA","county":"King George","geo_location":{ "type": "Point", "coordinates": [-77.126, 38.2811] }},
{"zip_code":"24218","country":"US","city":"Ben Hur","state":"Virginia","state_ab":"VA","county":"Lee","geo_location":{ "type": "Point", "coordinates": [-83.2234, 36.7435] }},
{"zip_code":"20102","country":"US","city":"Dulles","state":"Virginia","state_ab":"VA","county":"Loudoun","geo_location":{ "type": "Point", "coordinates": [-77.6452, 39.0853] }},
{"zip_code":"20142","country":"US","city":"Round Hill","state":"Virginia","state_ab":"VA","county":"Loudoun","geo_location":{ "type": "Point", "coordinates": [-77.7747, 39.1307] }},
{"zip_code":"23938","country":"US","city":"Dundas","state":"Virginia","state_ab":"VA","county":"Lunenburg","geo_location":{ "type": "Point", "coordinates": [-78.01, 36.9053] }},
{"zip_code":"23952","country":"US","city":"Lunenburg","state":"Virginia","state_ab":"VA","county":"Lunenburg","geo_location":{ "type": "Point", "coordinates": [-78.2915, 36.9291] }},
{"zip_code":"22715","country":"US","city":"Brightwood","state":"Virginia","state_ab":"VA","county":"Madison","geo_location":{ "type": "Point", "coordinates": [-78.1698, 38.4114] }},
{"zip_code":"22948","country":"US","city":"Locust Dale","state":"Virginia","state_ab":"VA","county":"Madison","geo_location":{ "type": "Point", "coordinates": [-78.1229, 38.3572] }},
{"zip_code":"23035","country":"US","city":"Cobbs Creek","state":"Virginia","state_ab":"VA","county":"Mathews","geo_location":{ "type": "Point", "coordinates": [-76.3863, 37.4959] }},
{"zip_code":"23125","country":"US","city":"New Point","state":"Virginia","state_ab":"VA","county":"Mathews","geo_location":{ "type": "Point", "coordinates": [-76.2878, 37.3438] }},
{"zip_code":"23138","country":"US","city":"Port Haywood","state":"Virginia","state_ab":"VA","county":"Mathews","geo_location":{ "type": "Point", "coordinates": [-76.2923, 37.3556] }},
{"zip_code":"22922","country":"US","city":"Arrington","state":"Virginia","state_ab":"VA","county":"Nelson","geo_location":{ "type": "Point", "coordinates": [-78.9479, 37.6902] }},
{"zip_code":"23398","country":"US","city":"Jamesville","state":"Virginia","state_ab":"VA","county":"Northampton","geo_location":{ "type": "Point", "coordinates": [-75.8771, 37.5343] }},
{"zip_code":"23408","country":"US","city":"Marionville","state":"Virginia","state_ab":"VA","county":"Northampton","geo_location":{ "type": "Point", "coordinates": [-75.8473, 37.4556] }},
{"zip_code":"22432","country":"US","city":"Burgess","state":"Virginia","state_ab":"VA","county":"Northumberland","geo_location":{ "type": "Point", "coordinates": [-76.3542, 37.8687] }},
{"zip_code":"22508","country":"US","city":"Locust Grove","state":"Virginia","state_ab":"VA","county":"Orange","geo_location":{ "type": "Point", "coordinates": [-77.7709, 38.3352] }},
{"zip_code":"23875","country":"US","city":"Prince George","state":"Virginia","state_ab":"VA","county":"Prince George","geo_location":{ "type": "Point", "coordinates": [-77.2747, 37.2333] }},
{"zip_code":"20155","country":"US","city":"Gainesville","state":"Virginia","state_ab":"VA","county":"Prince William","geo_location":{ "type": "Point", "coordinates": [-77.6216, 38.8157] }},
{"zip_code":"20168","country":"US","city":"Haymarket","state":"Virginia","state_ab":"VA","county":"Prince William","geo_location":{ "type": "Point", "coordinates": [-77.4669, 38.7219] }},
{"zip_code":"20182","country":"US","city":"Nokesville","state":"Virginia","state_ab":"VA","county":"Prince William","geo_location":{ "type": "Point", "coordinates": [-77.5857, 38.7009] }},
{"zip_code":"22018","country":"US","city":"Catharpin","state":"Virginia","state_ab":"VA","county":"Prince William County","geo_location":{ "type": "Point", "coordinates": [-77.5624, 38.8547] }},
{"zip_code":"22135","country":"US","city":"Quantico","state":"Virginia","state_ab":"VA","county":"Prince William","geo_location":{ "type": "Point", "coordinates": [-77.4669, 38.7219] }},
{"zip_code":"22472","country":"US","city":"Haynesville","state":"Virginia","state_ab":"VA","county":"Richmond","geo_location":{ "type": "Point", "coordinates": [-76.6367, 37.9505] }},
{"zip_code":"22548","country":"US","city":"Sharps","state":"Virginia","state_ab":"VA","county":"Richmond","geo_location":{ "type": "Point", "coordinates": [-76.6948, 37.8376] }},
{"zip_code":"24555","country":"US","city":"Glasgow","state":"Virginia","state_ab":"VA","county":"Rockbridge","geo_location":{ "type": "Point", "coordinates": [-79.459, 37.643] }},
{"zip_code":"22832","country":"US","city":"Keezletown","state":"Virginia","state_ab":"VA","county":"Rockingham","geo_location":{ "type": "Point", "coordinates": [-78.7499, 38.4659] }},
{"zip_code":"24245","country":"US","city":"Dungannon","state":"Virginia","state_ab":"VA","county":"Scott","geo_location":{ "type": "Point", "coordinates": [-82.496, 36.8242] }},
{"zip_code":"24258","country":"US","city":"Hiltons","state":"Virginia","state_ab":"VA","county":"Scott","geo_location":{ "type": "Point", "coordinates": [-82.4299, 36.6498] }},
{"zip_code":"22652","country":"US","city":"Fort Valley","state":"Virginia","state_ab":"VA","county":"Shenandoah","geo_location":{ "type": "Point", "coordinates": [-78.4276, 38.8407] }},
{"zip_code":"22845","country":"US","city":"Orkney Springs","state":"Virginia","state_ab":"VA","county":"Shenandoah","geo_location":{ "type": "Point", "coordinates": [-78.8111, 38.7937] }},
{"zip_code":"24375","country":"US","city":"Sugar Grove","state":"Virginia","state_ab":"VA","county":"Smyth","geo_location":{ "type": "Point", "coordinates": [-81.4084, 36.7736] }},
{"zip_code":"22405","country":"US","city":"Fredericksburg","state":"Virginia","state_ab":"VA","county":"Stafford","geo_location":{ "type": "Point", "coordinates": [-77.4366, 38.3365] }},
{"zip_code":"23888","country":"US","city":"Wakefield","state":"Virginia","state_ab":"VA","county":"Sussex","geo_location":{ "type": "Point", "coordinates": [-76.979, 36.9757] }},
{"zip_code":"24605","country":"US","city":"Bluefield","state":"Virginia","state_ab":"VA","county":"Tazewell","geo_location":{ "type": "Point", "coordinates": [-81.5071, 37.1724] }},
{"zip_code":"24285","country":"US","city":"Stonega","state":"Virginia","state_ab":"VA","county":"Wise","geo_location":{ "type": "Point", "coordinates": [-82.7867, 36.9509] }},
{"zip_code":"24322","country":"US","city":"Cripple Creek","state":"Virginia","state_ab":"VA","county":"Wythe","geo_location":{ "type": "Point", "coordinates": [-81.1039, 36.8086] }},
{"zip_code":"22302","country":"US","city":"Alexandria","state":"Virginia","state_ab":"VA","county":"Alexandria (city)","geo_location":{ "type": "Point", "coordinates": [-77.0896, 38.8276] }},
{"zip_code":"22908","country":"US","city":"Charlottesville","state":"Virginia","state_ab":"VA","county":"Charlottesville (city)","geo_location":{ "type": "Point", "coordinates": [-78.4851, 38.0401] }},
{"zip_code":"23668","country":"US","city":"Hampton","state":"Virginia","state_ab":"VA","county":"Hampton (city)","geo_location":{ "type": "Point", "coordinates": [-76.3377, 37.0206] }},
{"zip_code":"24502","country":"US","city":"Lynchburg","state":"Virginia","state_ab":"VA","county":"Lynchburg (city)","geo_location":{ "type": "Point", "coordinates": [-79.2181, 37.3825] }},
{"zip_code":"24515","country":"US","city":"Lynchburg","state":"Virginia","state_ab":"VA","county":"Lynchburg (city)","geo_location":{ "type": "Point", "coordinates": [-79.1785, 37.4009] }},
{"zip_code":"24115","country":"US","city":"Martinsville","state":"Virginia","state_ab":"VA","county":"Martinsville (city)","geo_location":{ "type": "Point", "coordinates": [-79.8652, 36.6796] }},
{"zip_code":"23602","country":"US","city":"Newport News","state":"Virginia","state_ab":"VA","county":"Newport News (city)","geo_location":{ "type": "Point", "coordinates": [-76.5179, 37.1132] }},
{"zip_code":"23628","country":"US","city":"Newport News","state":"Virginia","state_ab":"VA","county":"Newport News (city)","geo_location":{ "type": "Point", "coordinates": [-76.5248, 37.1959] }},
{"zip_code":"23512","country":"US","city":"Norfolk","state":"Virginia","state_ab":"VA","county":"Norfolk (city)","geo_location":{ "type": "Point", "coordinates": [-76.2397, 36.9312] }},
{"zip_code":"23705","country":"US","city":"Portsmouth","state":"Virginia","state_ab":"VA","county":"Portsmouth (city)","geo_location":{ "type": "Point", "coordinates": [-76.3552, 36.8686] }},
{"zip_code":"24142","country":"US","city":"Radford","state":"Virginia","state_ab":"VA","county":"Radford (city)","geo_location":{ "type": "Point", "coordinates": [-80.548, 37.1387] }},
{"zip_code":"23202","country":"US","city":"Richmond","state":"Virginia","state_ab":"VA","county":"City of Richmond","geo_location":{ "type": "Point", "coordinates": [-77.4471, 37.5593] }},
{"zip_code":"23215","country":"US","city":"Richmond","state":"Virginia","state_ab":"VA","county":"City of Richmond","geo_location":{ "type": "Point", "coordinates": [-77.4471, 37.5593] }},
{"zip_code":"23282","country":"US","city":"Richmond","state":"Virginia","state_ab":"VA","county":"Richmond (city)","geo_location":{ "type": "Point", "coordinates": [-77.4932, 37.5242] }},
{"zip_code":"23295","country":"US","city":"Richmond","state":"Virginia","state_ab":"VA","county":"City of Richmond","geo_location":{ "type": "Point", "coordinates": [-77.4621, 37.5532] }},
{"zip_code":"24012","country":"US","city":"Roanoke","state":"Virginia","state_ab":"VA","county":"Roanoke (city)","geo_location":{ "type": "Point", "coordinates": [-79.9322, 37.3029] }},
{"zip_code":"24025","country":"US","city":"Roanoke","state":"Virginia","state_ab":"VA","county":"Roanoke (city)","geo_location":{ "type": "Point", "coordinates": [-79.9579, 37.2742] }},
{"zip_code":"24038","country":"US","city":"Roanoke","state":"Virginia","state_ab":"VA","county":"Roanoke (city)","geo_location":{ "type": "Point", "coordinates": [-79.9579, 37.2742] }},
{"zip_code":"24155","country":"US","city":"Salem","state":"Virginia","state_ab":"VA","county":"Salem (city)","geo_location":{ "type": "Point", "coordinates": [-80.0671, 37.2884] }},
{"zip_code":"23435","country":"US","city":"Suffolk","state":"Virginia","state_ab":"VA","county":"Suffolk (city)","geo_location":{ "type": "Point", "coordinates": [-76.4664, 36.8544] }},
{"zip_code":"23462","country":"US","city":"Virginia Beach","state":"Virginia","state_ab":"VA","county":"Virginia Beach (city)","geo_location":{ "type": "Point", "coordinates": [-76.1522, 36.8392] }},
{"zip_code":"5152","country":"US","city":"Peru","state":"Vermont","state_ab":"VT","county":"Bennington","geo_location":{ "type": "Point", "coordinates": [-72.8868, 43.2565] }},
{"zip_code":"5255","country":"US","city":"Manchester Center","state":"Vermont","state_ab":"VT","county":"Bennington","geo_location":{ "type": "Point", "coordinates": [-73.0474, 43.1693] }},
{"zip_code":"5848","country":"US","city":"Lower Waterford","state":"Vermont","state_ab":"VT","county":"Caledonia","geo_location":{ "type": "Point", "coordinates": [-71.9195, 44.3821] }},
{"zip_code":"5862","country":"US","city":"Peacham","state":"Vermont","state_ab":"VT","county":"Caledonia","geo_location":{ "type": "Point", "coordinates": [-72.1358, 44.4624] }},
{"zip_code":"5408","country":"US","city":"Burlington","state":"Vermont","state_ab":"VT","county":"Chittenden County","geo_location":{ "type": "Point", "coordinates": [-73.2492, 44.512] }},
{"zip_code":"5462","country":"US","city":"Huntington","state":"Vermont","state_ab":"VT","county":"Chittenden","geo_location":{ "type": "Point", "coordinates": [-72.9964, 44.3227] }},
{"zip_code":"5448","country":"US","city":"East Fairfield","state":"Vermont","state_ab":"VT","county":"Franklin","geo_location":{ "type": "Point", "coordinates": [-72.8827, 44.7412] }},
{"zip_code":"5488","country":"US","city":"Swanton","state":"Vermont","state_ab":"VT","county":"Franklin","geo_location":{ "type": "Point", "coordinates": [-73.1211, 44.9168] }},
{"zip_code":"5655","country":"US","city":"Hyde Park","state":"Vermont","state_ab":"VT","county":"Lamoille","geo_location":{ "type": "Point", "coordinates": [-72.595, 44.6225] }},
{"zip_code":"5075","country":"US","city":"Thetford Center","state":"Vermont","state_ab":"VT","county":"Orange","geo_location":{ "type": "Point", "coordinates": [-72.2662, 43.8149] }},
{"zip_code":"5822","country":"US","city":"Barton","state":"Vermont","state_ab":"VT","county":"Orleans","geo_location":{ "type": "Point", "coordinates": [-72.16, 44.7395] }},
{"zip_code":"5875","country":"US","city":"West Glover","state":"Vermont","state_ab":"VT","county":"Orleans","geo_location":{ "type": "Point", "coordinates": [-72.2599, 44.7031] }},
{"zip_code":"5732","country":"US","city":"Bomoseen","state":"Vermont","state_ab":"VT","county":"Rutland","geo_location":{ "type": "Point", "coordinates": [-73.2094, 43.6437] }},
{"zip_code":"5745","country":"US","city":"Forest Dale","state":"Vermont","state_ab":"VT","county":"Rutland","geo_location":{ "type": "Point", "coordinates": [-72.8181, 43.592] }},
{"zip_code":"5758","country":"US","city":"Mount Holly","state":"Vermont","state_ab":"VT","county":"Rutland","geo_location":{ "type": "Point", "coordinates": [-72.7956, 43.4487] }},
{"zip_code":"5602","country":"US","city":"Montpelier","state":"Vermont","state_ab":"VT","county":"Washington","geo_location":{ "type": "Point", "coordinates": [-72.577, 44.2641] }},
{"zip_code":"5682","country":"US","city":"Worcester","state":"Vermont","state_ab":"VT","county":"Washington","geo_location":{ "type": "Point", "coordinates": [-72.5609, 44.3944] }},
{"zip_code":"5345","country":"US","city":"Newfane","state":"Vermont","state_ab":"VT","county":"Windham","geo_location":{ "type": "Point", "coordinates": [-72.6781, 42.9704] }},
{"zip_code":"5358","country":"US","city":"West Halifax","state":"Vermont","state_ab":"VT","county":"Windham","geo_location":{ "type": "Point", "coordinates": [-72.7501, 42.7761] }},
{"zip_code":"5035","country":"US","city":"Bridgewater Corners","state":"Vermont","state_ab":"VT","county":"Windsor","geo_location":{ "type": "Point", "coordinates": [-72.6752, 43.5998] }},
{"zip_code":"5048","country":"US","city":"Hartland","state":"Vermont","state_ab":"VT","county":"Windsor","geo_location":{ "type": "Point", "coordinates": [-72.4131, 43.5708] }},
{"zip_code":"5062","country":"US","city":"Reading","state":"Vermont","state_ab":"VT","county":"Windsor","geo_location":{ "type": "Point", "coordinates": [-72.5704, 43.4793] }},
{"zip_code":"5088","country":"US","city":"Wilder","state":"Vermont","state_ab":"VT","county":"Windsor","geo_location":{ "type": "Point", "coordinates": [-72.312, 43.6735] }},
{"zip_code":"5772","country":"US","city":"Stockbridge","state":"Vermont","state_ab":"VT","county":"Windsor","geo_location":{ "type": "Point", "coordinates": [-72.7814, 43.7738] }},
{"zip_code":"98822","country":"US","city":"Entiat","state":"Washington","state_ab":"WA","county":"Chelan","geo_location":{ "type": "Point", "coordinates": [-120.276, 47.7057] }},
{"zip_code":"98305","country":"US","city":"Beaver","state":"Washington","state_ab":"WA","county":"Clallam","geo_location":{ "type": "Point", "coordinates": [-124.3054, 48.0673] }},
{"zip_code":"98642","country":"US","city":"Ridgefield","state":"Washington","state_ab":"WA","county":"Clark","geo_location":{ "type": "Point", "coordinates": [-122.6934, 45.7846] }},
{"zip_code":"98668","country":"US","city":"Vancouver","state":"Washington","state_ab":"WA","county":"Clark","geo_location":{ "type": "Point", "coordinates": [-122.5203, 45.8016] }},
{"zip_code":"98682","country":"US","city":"Vancouver","state":"Washington","state_ab":"WA","county":"Clark","geo_location":{ "type": "Point", "coordinates": [-122.5212, 45.6644] }},
{"zip_code":"99335","country":"US","city":"Kahlotus","state":"Washington","state_ab":"WA","county":"Franklin","geo_location":{ "type": "Point", "coordinates": [-118.5337, 46.6779] }},
{"zip_code":"98848","country":"US","city":"Quincy","state":"Washington","state_ab":"WA","county":"Grant","geo_location":{ "type": "Point", "coordinates": [-119.8459, 47.1976] }},
{"zip_code":"99115","country":"US","city":"Coulee City","state":"Washington","state_ab":"WA","county":"Grant","geo_location":{ "type": "Point", "coordinates": [-119.2758, 47.5966] }},
{"zip_code":"98552","country":"US","city":"Humptulips","state":"Washington","state_ab":"WA","county":"Grays Harbor","geo_location":{ "type": "Point", "coordinates": [-123.9291, 47.3429] }},
{"zip_code":"98358","country":"US","city":"Nordland","state":"Washington","state_ab":"WA","county":"Jefferson","geo_location":{ "type": "Point", "coordinates": [-122.6926, 48.0432] }},
{"zip_code":"98008","country":"US","city":"Bellevue","state":"Washington","state_ab":"WA","county":"King","geo_location":{ "type": "Point", "coordinates": [-122.1162, 47.6115] }},
{"zip_code":"98022","country":"US","city":"Enumclaw","state":"Washington","state_ab":"WA","county":"King","geo_location":{ "type": "Point", "coordinates": [-122.0314, 47.2665] }},
{"zip_code":"98035","country":"US","city":"Kent","state":"Washington","state_ab":"WA","county":"King","geo_location":{ "type": "Point", "coordinates": [-121.8034, 47.4323] }},
{"zip_code":"98062","country":"US","city":"Seahurst","state":"Washington","state_ab":"WA","county":"King","geo_location":{ "type": "Point", "coordinates": [-121.8034, 47.4323] }},
{"zip_code":"98075","country":"US","city":"Sammamish","state":"Washington","state_ab":"WA","county":"King County","geo_location":{ "type": "Point", "coordinates": [-122.0345, 47.5857] }},
{"zip_code":"98112","country":"US","city":"Seattle","state":"Washington","state_ab":"WA","county":"King","geo_location":{ "type": "Point", "coordinates": [-122.2972, 47.6301] }},
{"zip_code":"98125","country":"US","city":"Seattle","state":"Washington","state_ab":"WA","county":"King","geo_location":{ "type": "Point", "coordinates": [-122.3015, 47.717] }},
{"zip_code":"98138","country":"US","city":"Seattle","state":"Washington","state_ab":"WA","county":"King","geo_location":{ "type": "Point", "coordinates": [-121.8034, 47.4323] }},
{"zip_code":"98165","country":"US","city":"Seattle","state":"Washington","state_ab":"WA","county":"King County","geo_location":{ "type": "Point", "coordinates": [-122.3004, 47.7161] }},
{"zip_code":"98178","country":"US","city":"Seattle","state":"Washington","state_ab":"WA","county":"King","geo_location":{ "type": "Point", "coordinates": [-122.2359, 47.4924] }},
{"zip_code":"98345","country":"US","city":"Keyport","state":"Washington","state_ab":"WA","county":"Kitsap","geo_location":{ "type": "Point", "coordinates": [-122.6255, 47.698] }},
{"zip_code":"98925","country":"US","city":"Easton","state":"Washington","state_ab":"WA","county":"Kittitas","geo_location":{ "type": "Point", "coordinates": [-121.1772, 47.233] }},
{"zip_code":"98602","country":"US","city":"Appleton","state":"Washington","state_ab":"WA","county":"Klickitat","geo_location":{ "type": "Point", "coordinates": [-121.3129, 45.8504] }},
{"zip_code":"98628","country":"US","city":"Klickitat","state":"Washington","state_ab":"WA","county":"Klickitat","geo_location":{ "type": "Point", "coordinates": [-121.0443, 45.8562] }},
{"zip_code":"99322","country":"US","city":"Bickleton","state":"Washington","state_ab":"WA","county":"Klickitat","geo_location":{ "type": "Point", "coordinates": [-120.1042, 45.9597] }},
{"zip_code":"98538","country":"US","city":"Curtis","state":"Washington","state_ab":"WA","county":"Lewis","geo_location":{ "type": "Point", "coordinates": [-123.1468, 46.4956] }},
{"zip_code":"98565","country":"US","city":"Napavine","state":"Washington","state_ab":"WA","county":"Lewis","geo_location":{ "type": "Point", "coordinates": [-122.9097, 46.5793] }},
{"zip_code":"98592","country":"US","city":"Union","state":"Washington","state_ab":"WA","county":"Mason","geo_location":{ "type": "Point", "coordinates": [-123.075, 47.3368] }},
{"zip_code":"98862","country":"US","city":"Winthrop","state":"Washington","state_ab":"WA","county":"Okanogan","geo_location":{ "type": "Point", "coordinates": [-120.1805, 48.4756] }},
{"zip_code":"99155","country":"US","city":"Nespelem","state":"Washington","state_ab":"WA","county":"Okanogan","geo_location":{ "type": "Point", "coordinates": [-119.0094, 48.1434] }},
{"zip_code":"98332","country":"US","city":"Gig Harbor","state":"Washington","state_ab":"WA","county":"Pierce","geo_location":{ "type": "Point", "coordinates": [-122.6001, 47.3607] }},
{"zip_code":"98372","country":"US","city":"Puyallup","state":"Washington","state_ab":"WA","county":"Pierce","geo_location":{ "type": "Point", "coordinates": [-122.2734, 47.2042] }},
{"zip_code":"98385","country":"US","city":"South Prairie","state":"Washington","state_ab":"WA","county":"Pierce","geo_location":{ "type": "Point", "coordinates": [-122.0968, 47.1383] }},
{"zip_code":"98398","country":"US","city":"Paradise Inn","state":"Washington","state_ab":"WA","county":"Pierce","geo_location":{ "type": "Point", "coordinates": [-122.1132, 47.0662] }},
{"zip_code":"98408","country":"US","city":"Tacoma","state":"Washington","state_ab":"WA","county":"Pierce","geo_location":{ "type": "Point", "coordinates": [-122.4444, 47.2073] }},
{"zip_code":"98422","country":"US","city":"Tacoma","state":"Washington","state_ab":"WA","county":"Pierce","geo_location":{ "type": "Point", "coordinates": [-122.3983, 47.2948] }},
{"zip_code":"98448","country":"US","city":"Tacoma","state":"Washington","state_ab":"WA","county":"Pierce County","geo_location":{ "type": "Point", "coordinates": [-122.4822, 47.2061] }},
{"zip_code":"98255","country":"US","city":"Hamilton","state":"Washington","state_ab":"WA","county":"Skagit","geo_location":{ "type": "Point", "coordinates": [-121.9887, 48.5255] }},
{"zip_code":"98282","country":"US","city":"Camano Island","state":"Washington","state_ab":"WA","county":"Snohomish County","geo_location":{ "type": "Point", "coordinates": [-122.521, 48.1761] }},
{"zip_code":"99012","country":"US","city":"Fairfield","state":"Washington","state_ab":"WA","county":"Spokane","geo_location":{ "type": "Point", "coordinates": [-117.1921, 47.3987] }},
{"zip_code":"99025","country":"US","city":"Newman Lake","state":"Washington","state_ab":"WA","county":"Spokane","geo_location":{ "type": "Point", "coordinates": [-117.064, 47.7274] }},
{"zip_code":"99205","country":"US","city":"Spokane","state":"Washington","state_ab":"WA","county":"Spokane","geo_location":{ "type": "Point", "coordinates": [-117.4399, 47.6964] }},
{"zip_code":"99218","country":"US","city":"Spokane","state":"Washington","state_ab":"WA","county":"Spokane","geo_location":{ "type": "Point", "coordinates": [-117.4146, 47.7556] }},
{"zip_code":"99258","country":"US","city":"Spokane","state":"Washington","state_ab":"WA","county":"Spokane","geo_location":{ "type": "Point", "coordinates": [-117.4317, 47.6536] }},
{"zip_code":"98512","country":"US","city":"Olympia","state":"Washington","state_ab":"WA","county":"Thurston","geo_location":{ "type": "Point", "coordinates": [-123.0212, 46.9498] }},
{"zip_code":"99348","country":"US","city":"Prescott","state":"Washington","state_ab":"WA","county":"Walla Walla","geo_location":{ "type": "Point", "coordinates": [-118.4097, 46.3539] }},
{"zip_code":"99362","country":"US","city":"Walla Walla","state":"Washington","state_ab":"WA","county":"Walla Walla","geo_location":{ "type": "Point", "coordinates": [-118.3315, 46.0614] }},
{"zip_code":"98228","country":"US","city":"Bellingham","state":"Washington","state_ab":"WA","county":"Whatcom","geo_location":{ "type": "Point", "coordinates": [-121.9885, 48.8148] }},
{"zip_code":"98295","country":"US","city":"Sumas","state":"Washington","state_ab":"WA","county":"Whatcom","geo_location":{ "type": "Point", "coordinates": [-122.2074, 48.9708] }},
{"zip_code":"99102","country":"US","city":"Albion","state":"Washington","state_ab":"WA","county":"Whitman","geo_location":{ "type": "Point", "coordinates": [-117.2503, 46.792] }},
{"zip_code":"99128","country":"US","city":"Farmington","state":"Washington","state_ab":"WA","county":"Whitman","geo_location":{ "type": "Point", "coordinates": [-117.0763, 47.0847] }},
{"zip_code":"98938","country":"US","city":"Outlook","state":"Washington","state_ab":"WA","county":"Yakima","geo_location":{ "type": "Point", "coordinates": [-120.097, 46.3525] }},
{"zip_code":"98952","country":"US","city":"White Swan","state":"Washington","state_ab":"WA","county":"Yakima","geo_location":{ "type": "Point", "coordinates": [-120.7453, 46.3716] }},
{"zip_code":"54822","country":"US","city":"Cameron","state":"Wisconsin","state_ab":"WI","county":"Barron","geo_location":{ "type": "Point", "coordinates": [-91.731, 45.4038] }},
{"zip_code":"54305","country":"US","city":"Green Bay","state":"Wisconsin","state_ab":"WI","county":"Brown","geo_location":{ "type": "Point", "coordinates": [-88.0074, 44.4601] }},
{"zip_code":"54732","country":"US","city":"Cornell","state":"Wisconsin","state_ab":"WI","county":"Chippewa","geo_location":{ "type": "Point", "coordinates": [-91.1733, 45.1619] }},
{"zip_code":"54745","country":"US","city":"Holcombe","state":"Wisconsin","state_ab":"WI","county":"Chippewa","geo_location":{ "type": "Point", "coordinates": [-91.133, 45.2513] }},
{"zip_code":"54422","country":"US","city":"Curtiss","state":"Wisconsin","state_ab":"WI","county":"Clark","geo_location":{ "type": "Point", "coordinates": [-90.4592, 44.9602] }},
{"zip_code":"53935","country":"US","city":"Friesland","state":"Wisconsin","state_ab":"WI","county":"Columbia","geo_location":{ "type": "Point", "coordinates": [-89.0593, 43.5901] }},
{"zip_code":"54628","country":"US","city":"Ferryville","state":"Wisconsin","state_ab":"WI","county":"Crawford","geo_location":{ "type": "Point", "coordinates": [-91.0446, 43.3959] }},
{"zip_code":"54655","country":"US","city":"Soldiers Grove","state":"Wisconsin","state_ab":"WI","county":"Crawford","geo_location":{ "type": "Point", "coordinates": [-90.7663, 43.3919] }},
{"zip_code":"53508","country":"US","city":"Belleville","state":"Wisconsin","state_ab":"WI","county":"Dane","geo_location":{ "type": "Point", "coordinates": [-89.5377, 42.8669] }},
{"zip_code":"53562","country":"US","city":"Middleton","state":"Wisconsin","state_ab":"WI","county":"Dane","geo_location":{ "type": "Point", "coordinates": [-89.5073, 43.1052] }},
{"zip_code":"53575","country":"US","city":"Oregon","state":"Wisconsin","state_ab":"WI","county":"Dane","geo_location":{ "type": "Point", "coordinates": [-89.387, 42.9295] }},
{"zip_code":"53702","country":"US","city":"Madison","state":"Wisconsin","state_ab":"WI","county":"Dane","geo_location":{ "type": "Point", "coordinates": [-89.4239, 43.0696] }},
{"zip_code":"53715","country":"US","city":"Madison","state":"Wisconsin","state_ab":"WI","county":"Dane","geo_location":{ "type": "Point", "coordinates": [-89.4, 43.0653] }},
{"zip_code":"53782","country":"US","city":"Madison","state":"Wisconsin","state_ab":"WI","county":"Dane","geo_location":{ "type": "Point", "coordinates": [-89.4239, 43.0696] }},
{"zip_code":"53032","country":"US","city":"Horicon","state":"Wisconsin","state_ab":"WI","county":"Dodge","geo_location":{ "type": "Point", "coordinates": [-88.631, 43.4469] }},
{"zip_code":"53098","country":"US","city":"Watertown","state":"Wisconsin","state_ab":"WI","county":"Dodge","geo_location":{ "type": "Point", "coordinates": [-88.7154, 43.2764] }},
{"zip_code":"53922","country":"US","city":"Burnett","state":"Wisconsin","state_ab":"WI","county":"Dodge","geo_location":{ "type": "Point", "coordinates": [-88.7176, 43.5116] }},
{"zip_code":"54202","country":"US","city":"Baileys Harbor","state":"Wisconsin","state_ab":"WI","county":"Door","geo_location":{ "type": "Point", "coordinates": [-87.1676, 45.0565] }},
{"zip_code":"54772","country":"US","city":"Wheeler","state":"Wisconsin","state_ab":"WI","county":"Dunn","geo_location":{ "type": "Point", "coordinates": [-91.8871, 45.0719] }},
{"zip_code":"53805","country":"US","city":"Boscobel","state":"Wisconsin","state_ab":"WI","county":"Grant","geo_location":{ "type": "Point", "coordinates": [-90.7061, 43.1393] }},
{"zip_code":"53818","country":"US","city":"Platteville","state":"Wisconsin","state_ab":"WI","county":"Grant","geo_location":{ "type": "Point", "coordinates": [-90.4854, 42.7393] }},
{"zip_code":"53522","country":"US","city":"Browntown","state":"Wisconsin","state_ab":"WI","county":"Green","geo_location":{ "type": "Point", "coordinates": [-89.7816, 42.5579] }},
{"zip_code":"53535","country":"US","city":"Edmund","state":"Wisconsin","state_ab":"WI","county":"Iowa","geo_location":{ "type": "Point", "coordinates": [-90.1339, 43.0113] }},
{"zip_code":"54525","country":"US","city":"Gile","state":"Wisconsin","state_ab":"WI","county":"Iron","geo_location":{ "type": "Point", "coordinates": [-90.1911, 46.3957] }},
{"zip_code":"54565","country":"US","city":"Upson","state":"Wisconsin","state_ab":"WI","county":"Iron","geo_location":{ "type": "Point", "coordinates": [-90.4051, 46.3761] }},
{"zip_code":"54615","country":"US","city":"Black River Falls","state":"Wisconsin","state_ab":"WI","county":"Jackson","geo_location":{ "type": "Point", "coordinates": [-90.8313, 44.2954] }},
{"zip_code":"54642","country":"US","city":"Melrose","state":"Wisconsin","state_ab":"WI","county":"Jackson","geo_location":{ "type": "Point", "coordinates": [-91.0445, 44.1382] }},
{"zip_code":"53948","country":"US","city":"Mauston","state":"Wisconsin","state_ab":"WI","county":"Juneau","geo_location":{ "type": "Point", "coordinates": [-90.0641, 43.7934] }},
{"zip_code":"53962","country":"US","city":"Union Center","state":"Wisconsin","state_ab":"WI","county":"Juneau","geo_location":{ "type": "Point", "coordinates": [-90.0495, 43.9452] }},
{"zip_code":"54602","country":"US","city":"La Crosse","state":"Wisconsin","state_ab":"WI","county":"La Crosse","geo_location":{ "type": "Point", "coordinates": [-91.1676, 43.9077] }},
{"zip_code":"54462","country":"US","city":"Pearson","state":"Wisconsin","state_ab":"WI","county":"Langlade","geo_location":{ "type": "Point", "coordinates": [-89.0758, 45.3881] }},
{"zip_code":"54435","country":"US","city":"Gleason","state":"Wisconsin","state_ab":"WI","county":"Lincoln","geo_location":{ "type": "Point", "coordinates": [-89.4753, 45.3384] }},
{"zip_code":"54215","country":"US","city":"Kellnersville","state":"Wisconsin","state_ab":"WI","county":"Manitowoc","geo_location":{ "type": "Point", "coordinates": [-87.8017, 44.2226] }},
{"zip_code":"54228","country":"US","city":"Mishicot","state":"Wisconsin","state_ab":"WI","county":"Manitowoc","geo_location":{ "type": "Point", "coordinates": [-87.6447, 44.2609] }},
{"zip_code":"54408","country":"US","city":"Aniwa","state":"Wisconsin","state_ab":"WI","county":"Marathon","geo_location":{ "type": "Point", "coordinates": [-89.3578, 45.0088] }},
{"zip_code":"54448","country":"US","city":"Marathon","state":"Wisconsin","state_ab":"WI","county":"Marathon","geo_location":{ "type": "Point", "coordinates": [-89.8299, 44.9657] }},
{"zip_code":"54488","country":"US","city":"Unity","state":"Wisconsin","state_ab":"WI","county":"Marathon","geo_location":{ "type": "Point", "coordinates": [-90.3221, 44.8227] }},
{"zip_code":"54112","country":"US","city":"Coleman","state":"Wisconsin","state_ab":"WI","county":"Marinette","geo_location":{ "type": "Point", "coordinates": [-88.0587, 45.0722] }},
{"zip_code":"54125","country":"US","city":"Goodman","state":"Wisconsin","state_ab":"WI","county":"Marinette","geo_location":{ "type": "Point", "coordinates": [-88.3629, 45.6469] }},
{"zip_code":"53212","country":"US","city":"Milwaukee","state":"Wisconsin","state_ab":"WI","county":"Milwaukee","geo_location":{ "type": "Point", "coordinates": [-87.9084, 43.0712] }},
{"zip_code":"53225","country":"US","city":"Milwaukee","state":"Wisconsin","state_ab":"WI","county":"Milwaukee","geo_location":{ "type": "Point", "coordinates": [-88.0346, 43.1154] }},
{"zip_code":"53278","country":"US","city":"Milwaukee","state":"Wisconsin","state_ab":"WI","county":"Milwaukee","geo_location":{ "type": "Point", "coordinates": [-87.9024, 43.0389] }},
{"zip_code":"54138","country":"US","city":"Lakewood","state":"Wisconsin","state_ab":"WI","county":"Oconto","geo_location":{ "type": "Point", "coordinates": [-88.5032, 45.3163] }},
{"zip_code":"54152","country":"US","city":"Nichols","state":"Wisconsin","state_ab":"WI","county":"Outagamie","geo_location":{ "type": "Point", "coordinates": [-88.4582, 44.5668] }},
{"zip_code":"54165","country":"US","city":"Seymour","state":"Wisconsin","state_ab":"WI","county":"Outagamie","geo_location":{ "type": "Point", "coordinates": [-88.3172, 44.5091] }},
{"zip_code":"54912","country":"US","city":"Appleton","state":"Wisconsin","state_ab":"WI","county":"Outagamie","geo_location":{ "type": "Point", "coordinates": [-88.4649, 44.4163] }},
{"zip_code":"54022","country":"US","city":"River Falls","state":"Wisconsin","state_ab":"WI","county":"Pierce","geo_location":{ "type": "Point", "coordinates": [-92.6313, 44.855] }},
{"zip_code":"54552","country":"US","city":"Park Falls","state":"Wisconsin","state_ab":"WI","county":"Price","geo_location":{ "type": "Point", "coordinates": [-90.4246, 45.9363] }},
{"zip_code":"53108","country":"US","city":"Caledonia","state":"Wisconsin","state_ab":"WI","county":"Racine","geo_location":{ "type": "Point", "coordinates": [-87.9228, 42.8295] }},
{"zip_code":"53405","country":"US","city":"Racine","state":"Wisconsin","state_ab":"WI","county":"Racine","geo_location":{ "type": "Point", "coordinates": [-87.8233, 42.7161] }},
{"zip_code":"53548","country":"US","city":"Janesville","state":"Wisconsin","state_ab":"WI","county":"Rock County","geo_location":{ "type": "Point", "coordinates": [-89.1287, 42.6854] }},
{"zip_code":"54848","country":"US","city":"Ladysmith","state":"Wisconsin","state_ab":"WI","county":"Rusk","geo_location":{ "type": "Point", "coordinates": [-91.1088, 45.4719] }},
{"zip_code":"53588","country":"US","city":"Spring Green","state":"Wisconsin","state_ab":"WI","county":"Sauk","geo_location":{ "type": "Point", "coordinates": [-90.0676, 43.1883] }},
{"zip_code":"54835","country":"US","city":"Exeland","state":"Wisconsin","state_ab":"WI","county":"Sawyer","geo_location":{ "type": "Point", "coordinates": [-91.2238, 45.6753] }},
{"zip_code":"54862","country":"US","city":"Ojibwa","state":"Wisconsin","state_ab":"WI","county":"Sawyer","geo_location":{ "type": "Point", "coordinates": [-91.1109, 45.7854] }},
{"zip_code":"54978","country":"US","city":"Tilleda","state":"Wisconsin","state_ab":"WI","county":"Shawano","geo_location":{ "type": "Point", "coordinates": [-88.8984, 44.796] }},
{"zip_code":"53085","country":"US","city":"Sheboygan Falls","state":"Wisconsin","state_ab":"WI","county":"Sheboygan","geo_location":{ "type": "Point", "coordinates": [-87.8242, 43.7266] }},
{"zip_code":"54758","country":"US","city":"Osseo","state":"Wisconsin","state_ab":"WI","county":"Trempealeau","geo_location":{ "type": "Point", "coordinates": [-91.2191, 44.5599] }},
{"zip_code":"54512","country":"US","city":"Boulder Junction","state":"Wisconsin","state_ab":"WI","county":"Vilas","geo_location":{ "type": "Point", "coordinates": [-89.6325, 46.1112] }},
{"zip_code":"54538","country":"US","city":"Lac Du Flambeau","state":"Wisconsin","state_ab":"WI","county":"Vilas","geo_location":{ "type": "Point", "coordinates": [-89.8901, 45.9718] }},
{"zip_code":"53148","country":"US","city":"Lyons","state":"Wisconsin","state_ab":"WI","county":"Walworth","geo_location":{ "type": "Point", "coordinates": [-88.359, 42.6487] }},
{"zip_code":"54875","country":"US","city":"Springbrook","state":"Wisconsin","state_ab":"WI","county":"Washburn","geo_location":{ "type": "Point", "coordinates": [-91.6754, 45.9452] }},
{"zip_code":"54888","country":"US","city":"Trego","state":"Wisconsin","state_ab":"WI","county":"Washburn","geo_location":{ "type": "Point", "coordinates": [-91.8581, 45.9516] }},
{"zip_code":"53005","country":"US","city":"Brookfield","state":"Wisconsin","state_ab":"WI","county":"Waukesha","geo_location":{ "type": "Point", "coordinates": [-88.098, 43.0622] }},
{"zip_code":"53018","country":"US","city":"Delafield","state":"Wisconsin","state_ab":"WI","county":"Waukesha","geo_location":{ "type": "Point", "coordinates": [-88.3972, 43.05] }},
{"zip_code":"53045","country":"US","city":"Brookfield","state":"Wisconsin","state_ab":"WI","county":"Waukesha","geo_location":{ "type": "Point", "coordinates": [-88.1469, 43.0668] }},
{"zip_code":"53058","country":"US","city":"Nashotah","state":"Wisconsin","state_ab":"WI","county":"Waukesha","geo_location":{ "type": "Point", "coordinates": [-88.4089, 43.1118] }},
{"zip_code":"53072","country":"US","city":"Pewaukee","state":"Wisconsin","state_ab":"WI","county":"Waukesha","geo_location":{ "type": "Point", "coordinates": [-88.2729, 43.0788] }},
{"zip_code":"53122","country":"US","city":"Elm Grove","state":"Wisconsin","state_ab":"WI","county":"Waukesha","geo_location":{ "type": "Point", "coordinates": [-88.0854, 43.0479] }},
{"zip_code":"53188","country":"US","city":"Waukesha","state":"Wisconsin","state_ab":"WI","county":"Waukesha","geo_location":{ "type": "Point", "coordinates": [-88.2705, 43.0128] }},
{"zip_code":"54965","country":"US","city":"Pine River","state":"Wisconsin","state_ab":"WI","county":"Waushara","geo_location":{ "type": "Point", "coordinates": [-89.0404, 44.1604] }},
{"zip_code":"54952","country":"US","city":"Menasha","state":"Wisconsin","state_ab":"WI","county":"Winnebago","geo_location":{ "type": "Point", "coordinates": [-88.4175, 44.2112] }},
{"zip_code":"54475","country":"US","city":"Rudolph","state":"Wisconsin","state_ab":"WI","county":"Wood","geo_location":{ "type": "Point", "coordinates": [-89.8003, 44.4741] }},
{"zip_code":"26238","country":"US","city":"Volga","state":"West Virginia","state_ab":"WV","county":"Barbour","geo_location":{ "type": "Point", "coordinates": [-80.018, 39.1251] }},
{"zip_code":"26405","country":"US","city":"Moatsville","state":"West Virginia","state_ab":"WV","county":"Barbour","geo_location":{ "type": "Point", "coordinates": [-79.9017, 39.2234] }},
{"zip_code":"25402","country":"US","city":"Martinsburg","state":"West Virginia","state_ab":"WV","county":"Berkeley","geo_location":{ "type": "Point", "coordinates": [-78.0115, 39.4617] }},
{"zip_code":"25428","country":"US","city":"Inwood","state":"West Virginia","state_ab":"WV","county":"Berkeley","geo_location":{ "type": "Point", "coordinates": [-78.0242, 39.3701] }},
{"zip_code":"25028","country":"US","city":"Bob White","state":"West Virginia","state_ab":"WV","county":"Boone","geo_location":{ "type": "Point", "coordinates": [-81.717, 37.9971] }},
{"zip_code":"25208","country":"US","city":"Wharton","state":"West Virginia","state_ab":"WV","county":"Boone","geo_location":{ "type": "Point", "coordinates": [-81.717, 37.9971] }},
{"zip_code":"26612","country":"US","city":"Centralia","state":"West Virginia","state_ab":"WV","county":"Braxton","geo_location":{ "type": "Point", "coordinates": [-80.5861, 38.6205] }},
{"zip_code":"26032","country":"US","city":"Bethany","state":"West Virginia","state_ab":"WV","county":"Brooke","geo_location":{ "type": "Point", "coordinates": [-80.5503, 40.2107] }},
{"zip_code":"26058","country":"US","city":"Short Creek","state":"West Virginia","state_ab":"WV","county":"Brooke","geo_location":{ "type": "Point", "coordinates": [-80.5999, 40.2793] }},
{"zip_code":"25545","country":"US","city":"Ona","state":"West Virginia","state_ab":"WV","county":"Cabell","geo_location":{ "type": "Point", "coordinates": [-82.2181, 38.4529] }},
{"zip_code":"25712","country":"US","city":"Huntington","state":"West Virginia","state_ab":"WV","county":"Cabell","geo_location":{ "type": "Point", "coordinates": [-82.2774, 38.4134] }},
{"zip_code":"25725","country":"US","city":"Huntington","state":"West Virginia","state_ab":"WV","county":"Cabell","geo_location":{ "type": "Point", "coordinates": [-82.2774, 38.4134] }},
{"zip_code":"25778","country":"US","city":"Huntington","state":"West Virginia","state_ab":"WV","county":"Cabell","geo_location":{ "type": "Point", "coordinates": [-82.2774, 38.4134] }},
{"zip_code":"25235","country":"US","city":"Chloe","state":"West Virginia","state_ab":"WV","county":"Calhoun","geo_location":{ "type": "Point", "coordinates": [-81.0944, 38.6686] }},
{"zip_code":"26328","country":"US","city":"Blandville","state":"West Virginia","state_ab":"WV","county":"Doddridge","geo_location":{ "type": "Point", "coordinates": [-80.7197, 39.2708] }},
{"zip_code":"25002","country":"US","city":"Alloy","state":"West Virginia","state_ab":"WV","county":"Fayette","geo_location":{ "type": "Point", "coordinates": [-81.0648, 38.0413] }},
{"zip_code":"25118","country":"US","city":"Kimberly","state":"West Virginia","state_ab":"WV","county":"Fayette","geo_location":{ "type": "Point", "coordinates": [-81.3217, 38.1249] }},
{"zip_code":"25185","country":"US","city":"Mount Olive","state":"West Virginia","state_ab":"WV","county":"Fayette","geo_location":{ "type": "Point", "coordinates": [-81.0648, 38.0413] }},
{"zip_code":"25855","country":"US","city":"Hilltop","state":"West Virginia","state_ab":"WV","county":"Fayette","geo_location":{ "type": "Point", "coordinates": [-81.0648, 38.0413] }},
{"zip_code":"25868","country":"US","city":"Lookout","state":"West Virginia","state_ab":"WV","county":"Fayette","geo_location":{ "type": "Point", "coordinates": [-81.0648, 38.0413] }},
{"zip_code":"26342","country":"US","city":"Coxs Mills","state":"West Virginia","state_ab":"WV","county":"Gilmer","geo_location":{ "type": "Point", "coordinates": [-80.8498, 39.0301] }},
{"zip_code":"26638","country":"US","city":"Shock","state":"West Virginia","state_ab":"WV","county":"Gilmer","geo_location":{ "type": "Point", "coordinates": [-81.0045, 38.7617] }},
{"zip_code":"24902","country":"US","city":"Fairlea","state":"West Virginia","state_ab":"WV","county":"Greenbrier","geo_location":{ "type": "Point", "coordinates": [-80.4615, 37.7747] }},
{"zip_code":"24928","country":"US","city":"Clintonville","state":"West Virginia","state_ab":"WV","county":"Greenbrier County","geo_location":{ "type": "Point", "coordinates": [-80.6262, 37.9061] }},
{"zip_code":"25958","country":"US","city":"Charmco","state":"West Virginia","state_ab":"WV","county":"Greenbrier","geo_location":{ "type": "Point", "coordinates": [-80.7077, 37.9895] }},
{"zip_code":"25972","country":"US","city":"Leslie","state":"West Virginia","state_ab":"WV","county":"Greenbrier","geo_location":{ "type": "Point", "coordinates": [-80.4269, 37.9756] }},
{"zip_code":"26755","country":"US","city":"Rio","state":"West Virginia","state_ab":"WV","county":"Hampshire","geo_location":{ "type": "Point", "coordinates": [-78.727, 39.1847] }},
{"zip_code":"26818","country":"US","city":"Fisher","state":"West Virginia","state_ab":"WV","county":"Hardy","geo_location":{ "type": "Point", "coordinates": [-79.0342, 39.075] }},
{"zip_code":"26845","country":"US","city":"Old Fields","state":"West Virginia","state_ab":"WV","county":"Hardy","geo_location":{ "type": "Point", "coordinates": [-78.9509, 39.1502] }},
{"zip_code":"26302","country":"US","city":"Clarksburg","state":"West Virginia","state_ab":"WV","county":"Harrison","geo_location":{ "type": "Point", "coordinates": [-80.3077, 39.2677] }},
{"zip_code":"25248","country":"US","city":"Kenna","state":"West Virginia","state_ab":"WV","county":"Jackson","geo_location":{ "type": "Point", "coordinates": [-81.6217, 38.6232] }},
{"zip_code":"25262","country":"US","city":"Millwood","state":"West Virginia","state_ab":"WV","county":"Jackson","geo_location":{ "type": "Point", "coordinates": [-81.8248, 38.8962] }},
{"zip_code":"25275","country":"US","city":"Sandyville","state":"West Virginia","state_ab":"WV","county":"Jackson","geo_location":{ "type": "Point", "coordinates": [-81.6543, 38.9093] }},
{"zip_code":"25442","country":"US","city":"Shenandoah Junction","state":"West Virginia","state_ab":"WV","county":"Jefferson","geo_location":{ "type": "Point", "coordinates": [-77.8229, 39.3716] }},
{"zip_code":"25015","country":"US","city":"Belle","state":"West Virginia","state_ab":"WV","county":"Kanawha","geo_location":{ "type": "Point", "coordinates": [-81.5024, 38.2324] }},
{"zip_code":"25105","country":"US","city":"Harrison","state":"West Virginia","state_ab":"WV","county":"Kanawha County","geo_location":{ "type": "Point", "coordinates": [-80.9141, 38.5012] }},
{"zip_code":"25132","country":"US","city":"Mammoth","state":"West Virginia","state_ab":"WV","county":"Kanawha","geo_location":{ "type": "Point", "coordinates": [-81.3509, 38.2583] }},
{"zip_code":"25312","country":"US","city":"Charleston","state":"West Virginia","state_ab":"WV","county":"Kanawha","geo_location":{ "type": "Point", "coordinates": [-81.6747, 38.4096] }},
{"zip_code":"25325","country":"US","city":"Charleston","state":"West Virginia","state_ab":"WV","county":"Kanawha","geo_location":{ "type": "Point", "coordinates": [-81.5547, 38.2968] }},
{"zip_code":"25338","country":"US","city":"Charleston","state":"West Virginia","state_ab":"WV","county":"Kanawha","geo_location":{ "type": "Point", "coordinates": [-81.5547, 38.2968] }},
{"zip_code":"25365","country":"US","city":"Charleston","state":"West Virginia","state_ab":"WV","county":"Kanawha","geo_location":{ "type": "Point", "coordinates": [-81.5547, 38.2968] }},
{"zip_code":"25392","country":"US","city":"Charleston","state":"West Virginia","state_ab":"WV","county":"Kanawha","geo_location":{ "type": "Point", "coordinates": [-81.5547, 38.2968] }},
{"zip_code":"25572","country":"US","city":"Woodville","state":"West Virginia","state_ab":"WV","county":"Lincoln","geo_location":{ "type": "Point", "coordinates": [-81.9012, 38.1875] }},
{"zip_code":"25505","country":"US","city":"Big Creek","state":"West Virginia","state_ab":"WV","county":"Logan","geo_location":{ "type": "Point", "coordinates": [-81.9024, 37.8332] }},
{"zip_code":"25635","country":"US","city":"Man","state":"West Virginia","state_ab":"WV","county":"Logan","geo_location":{ "type": "Point", "coordinates": [-81.8754, 37.7357] }},
{"zip_code":"25648","country":"US","city":"Taplin","state":"West Virginia","state_ab":"WV","county":"Logan County","geo_location":{ "type": "Point", "coordinates": [-81.8957, 37.7582] }},
{"zip_code":"24825","country":"US","city":"Crumpler","state":"West Virginia","state_ab":"WV","county":"McDowell","geo_location":{ "type": "Point", "coordinates": [-81.6539, 37.3752] }},
{"zip_code":"24852","country":"US","city":"Keystone","state":"West Virginia","state_ab":"WV","county":"McDowell","geo_location":{ "type": "Point", "coordinates": [-81.4318, 37.4144] }},
{"zip_code":"24878","country":"US","city":"Premier","state":"West Virginia","state_ab":"WV","county":"McDowell","geo_location":{ "type": "Point", "coordinates": [-81.6539, 37.3752] }},
{"zip_code":"24892","country":"US","city":"War","state":"West Virginia","state_ab":"WV","county":"McDowell","geo_location":{ "type": "Point", "coordinates": [-81.6539, 37.3752] }},
{"zip_code":"26588","country":"US","city":"Rivesville","state":"West Virginia","state_ab":"WV","county":"Marion","geo_location":{ "type": "Point", "coordinates": [-80.1417, 39.5568] }},
{"zip_code":"25095","country":"US","city":"Grimms Landing","state":"West Virginia","state_ab":"WV","county":"Mason","geo_location":{ "type": "Point", "coordinates": [-81.9973, 38.7523] }},
{"zip_code":"25608","country":"US","city":"Baisden","state":"West Virginia","state_ab":"WV","county":"Mingo","geo_location":{ "type": "Point", "coordinates": [-81.9328, 37.5715] }},
{"zip_code":"25688","country":"US","city":"North Matewan","state":"West Virginia","state_ab":"WV","county":"Mingo","geo_location":{ "type": "Point", "coordinates": [-82.108, 37.7431] }},
{"zip_code":"26508","country":"US","city":"Morgantown","state":"West Virginia","state_ab":"WV","county":"Monongalia","geo_location":{ "type": "Point", "coordinates": [-79.9229, 39.5953] }},
{"zip_code":"26522","country":"US","city":"Booth","state":"West Virginia","state_ab":"WV","county":"Monongalia","geo_location":{ "type": "Point", "coordinates": [-80.093, 39.5785] }},
{"zip_code":"24942","country":"US","city":"Glace","state":"West Virginia","state_ab":"WV","county":"Monroe","geo_location":{ "type": "Point", "coordinates": [-80.5397, 37.552] }},
{"zip_code":"26678","country":"US","city":"Mount Lookout","state":"West Virginia","state_ab":"WV","county":"Nicholas","geo_location":{ "type": "Point", "coordinates": [-80.9108, 38.1821] }},
{"zip_code":"24915","country":"US","city":"Arbovale","state":"West Virginia","state_ab":"WV","county":"Pocahontas","geo_location":{ "type": "Point", "coordinates": [-79.7934, 38.4546] }},
{"zip_code":"26535","country":"US","city":"Hazelton","state":"West Virginia","state_ab":"WV","county":"Preston","geo_location":{ "type": "Point", "coordinates": [-79.6882, 39.4581] }},
{"zip_code":"25082","country":"US","city":"Fraziers Bottom","state":"West Virginia","state_ab":"WV","county":"Putnam","geo_location":{ "type": "Point", "coordinates": [-82.0111, 38.5517] }},
{"zip_code":"25158","country":"US","city":"Pliny","state":"West Virginia","state_ab":"WV","county":"Putnam County","geo_location":{ "type": "Point", "coordinates": [-82.0045, 38.6185] }},
{"zip_code":"25172","country":"US","city":"Robertsburg","state":"West Virginia","state_ab":"WV","county":"Putnam County","geo_location":{ "type": "Point", "coordinates": [-81.9083, 38.6456] }},
{"zip_code":"25802","country":"US","city":"Beckley","state":"West Virginia","state_ab":"WV","county":"Raleigh","geo_location":{ "type": "Point", "coordinates": [-81.2245, 37.7489] }},
{"zip_code":"25828","country":"US","city":"Cranberry","state":"West Virginia","state_ab":"WV","county":"Raleigh County","geo_location":{ "type": "Point", "coordinates": [-81.1951, 37.8215] }},
{"zip_code":"25918","country":"US","city":"Shady Spring","state":"West Virginia","state_ab":"WV","county":"Raleigh","geo_location":{ "type": "Point", "coordinates": [-81.0149, 37.7416] }},
{"zip_code":"25932","country":"US","city":"Surveyor","state":"West Virginia","state_ab":"WV","county":"Raleigh","geo_location":{ "type": "Point", "coordinates": [-81.3092, 37.7565] }},
{"zip_code":"26278","country":"US","city":"Mabie","state":"West Virginia","state_ab":"WV","county":"Randolph","geo_location":{ "type": "Point", "coordinates": [-79.8147, 38.7534] }},
{"zip_code":"26148","country":"US","city":"Macfarlan","state":"West Virginia","state_ab":"WV","county":"Ritchie","geo_location":{ "type": "Point", "coordinates": [-81.1776, 39.0806] }},
{"zip_code":"25985","country":"US","city":"Sandstone","state":"West Virginia","state_ab":"WV","county":"Summers","geo_location":{ "type": "Point", "coordinates": [-80.8716, 37.7599] }},
{"zip_code":"26292","country":"US","city":"Thomas","state":"West Virginia","state_ab":"WV","county":"Tucker","geo_location":{ "type": "Point", "coordinates": [-79.503, 39.1505] }},
{"zip_code":"26135","country":"US","city":"Bens Run","state":"West Virginia","state_ab":"WV","county":"Tyler","geo_location":{ "type": "Point", "coordinates": [-80.8701, 39.4506] }},
{"zip_code":"26175","country":"US","city":"Sistersville","state":"West Virginia","state_ab":"WV","county":"Tyler","geo_location":{ "type": "Point", "coordinates": [-80.9818, 39.5584] }},
{"zip_code":"26162","country":"US","city":"Porters Falls","state":"West Virginia","state_ab":"WV","county":"Wetzel","geo_location":{ "type": "Point", "coordinates": [-80.6667, 39.5755] }},
{"zip_code":"26562","country":"US","city":"Burton","state":"West Virginia","state_ab":"WV","county":"Wetzel","geo_location":{ "type": "Point", "coordinates": [-80.4161, 39.6511] }},
{"zip_code":"26575","country":"US","city":"Hundred","state":"West Virginia","state_ab":"WV","county":"Wetzel","geo_location":{ "type": "Point", "coordinates": [-80.4746, 39.6917] }},
{"zip_code":"25882","country":"US","city":"Mullens","state":"West Virginia","state_ab":"WV","county":"Wyoming","geo_location":{ "type": "Point", "coordinates": [-81.389, 37.5842] }},
{"zip_code":"82052","country":"US","city":"Buford","state":"Wyoming","state_ab":"WY","county":"Albany","geo_location":{ "type": "Point", "coordinates": [-105.3257, 41.1101] }},
{"zip_code":"82412","country":"US","city":"Byron","state":"Wyoming","state_ab":"WY","county":"Big Horn","geo_location":{ "type": "Point", "coordinates": [-108.544, 44.7844] }},
{"zip_code":"82335","country":"US","city":"Walcott","state":"Wyoming","state_ab":"WY","county":"Carbon","geo_location":{ "type": "Point", "coordinates": [-106.9992, 41.7169] }},
{"zip_code":"82515","country":"US","city":"Hudson","state":"Wyoming","state_ab":"WY","county":"Fremont","geo_location":{ "type": "Point", "coordinates": [-108.5827, 42.9008] }},
{"zip_code":"82218","country":"US","city":"Huntley","state":"Wyoming","state_ab":"WY","county":"Goshen","geo_location":{ "type": "Point", "coordinates": [-104.354, 42.0881] }},
{"zip_code":"83118","country":"US","city":"Etna","state":"Wyoming","state_ab":"WY","county":"Lincoln","geo_location":{ "type": "Point", "coordinates": [-111.0085, 43.0443] }},
{"zip_code":"82605","country":"US","city":"Casper","state":"Wyoming","state_ab":"WY","county":"Natrona","geo_location":{ "type": "Point", "coordinates": [-106.807, 42.9662] }},
{"zip_code":"82838","country":"US","city":"Parkman","state":"Wyoming","state_ab":"WY","county":"Sheridan","geo_location":{ "type": "Point", "coordinates": [-107.3254, 44.965] }},
{"zip_code":"82322","country":"US","city":"Bairoil","state":"Wyoming","state_ab":"WY","county":"Sweetwater","geo_location":{ "type": "Point", "coordinates": [-107.5633, 42.2327] }},
{"zip_code":"82902","country":"US","city":"Rock Springs","state":"Wyoming","state_ab":"WY","county":"Sweetwater","geo_location":{ "type": "Point", "coordinates": [-108.9639, 41.6314] }},
{"zip_code":"82942","country":"US","city":"Point Of Rocks","state":"Wyoming","state_ab":"WY","county":"Sweetwater","geo_location":{ "type": "Point", "coordinates": [-108.5252, 41.653] }},
{"zip_code":"83002","country":"US","city":"Jackson","state":"Wyoming","state_ab":"WY","county":"Teton","geo_location":{ "type": "Point", "coordinates": [-110.7865, 43.5054] }},
{"zip_code":"47160","country":"US","city":"New Middletown","state":"Indiana","state_ab":"IN","county":"Harrison","geo_location":{ "type": "Point", "coordinates": [-86.051, 38.1645] }},
{"zip_code":"46103","country":"US","city":"Amo","state":"Indiana","state_ab":"IN","county":"Hendricks","geo_location":{ "type": "Point", "coordinates": [-86.6136, 39.6886] }},
{"zip_code":"47366","country":"US","city":"New Lisbon","state":"Indiana","state_ab":"IN","county":"Henry","geo_location":{ "type": "Point", "coordinates": [-85.3986, 39.9318] }},
{"zip_code":"46903","country":"US","city":"Kokomo","state":"Indiana","state_ab":"IN","county":"Howard","geo_location":{ "type": "Point", "coordinates": [-86.1189, 40.4696] }},
{"zip_code":"46750","country":"US","city":"Huntington","state":"Indiana","state_ab":"IN","county":"Huntington","geo_location":{ "type": "Point", "coordinates": [-85.5054, 40.8811] }},
{"zip_code":"47249","country":"US","city":"Kurtz","state":"Indiana","state_ab":"IN","county":"Jackson","geo_location":{ "type": "Point", "coordinates": [-86.0567, 38.898] }},
{"zip_code":"46310","country":"US","city":"Demotte","state":"Indiana","state_ab":"IN","county":"Jasper","geo_location":{ "type": "Point", "coordinates": [-87.2491, 41.1713] }},
{"zip_code":"47326","country":"US","city":"Bryant","state":"Indiana","state_ab":"IN","county":"Jay","geo_location":{ "type": "Point", "coordinates": [-84.9117, 40.5446] }},
{"zip_code":"47250","country":"US","city":"Madison","state":"Indiana","state_ab":"IN","county":"Jefferson","geo_location":{ "type": "Point", "coordinates": [-85.407, 38.7649] }},
{"zip_code":"47223","country":"US","city":"Butlerville","state":"Indiana","state_ab":"IN","county":"Jennings","geo_location":{ "type": "Point", "coordinates": [-85.4789, 39.0491] }},
{"zip_code":"46143","country":"US","city":"Greenwood","state":"Indiana","state_ab":"IN","county":"Johnson","geo_location":{ "type": "Point", "coordinates": [-86.1309, 39.596] }},
{"zip_code":"47573","country":"US","city":"Ragsdale","state":"Indiana","state_ab":"IN","county":"Knox","geo_location":{ "type": "Point", "coordinates": [-87.3214, 38.7441] }},
{"zip_code":"46789","country":"US","city":"Stroh","state":"Indiana","state_ab":"IN","county":"LaGrange","geo_location":{ "type": "Point", "coordinates": [-85.1992, 41.5835] }},
{"zip_code":"46323","country":"US","city":"Hammond","state":"Indiana","state_ab":"IN","county":"Lake","geo_location":{ "type": "Point", "coordinates": [-87.4532, 41.5878] }},
{"zip_code":"46376","country":"US","city":"Schneider","state":"Indiana","state_ab":"IN","county":"Lake","geo_location":{ "type": "Point", "coordinates": [-87.4779, 41.19] }},
{"zip_code":"46350","country":"US","city":"La Porte","state":"Indiana","state_ab":"IN","county":"LaPorte","geo_location":{ "type": "Point", "coordinates": [-86.7077, 41.5994] }},
{"zip_code":"46390","country":"US","city":"Wanatah","state":"Indiana","state_ab":"IN","county":"LaPorte","geo_location":{ "type": "Point", "coordinates": [-86.8764, 41.3845] }},
{"zip_code":"47430","country":"US","city":"Fort Ritner","state":"Indiana","state_ab":"IN","county":"Lawrence","geo_location":{ "type": "Point", "coordinates": [-86.4794, 38.8395] }},
{"zip_code":"47470","country":"US","city":"Williams","state":"Indiana","state_ab":"IN","county":"Lawrence","geo_location":{ "type": "Point", "coordinates": [-86.6285, 38.7735] }},
{"zip_code":"46013","country":"US","city":"Anderson","state":"Indiana","state_ab":"IN","county":"Madison","geo_location":{ "type": "Point", "coordinates": [-85.6801, 40.0619] }},
{"zip_code":"46183","country":"US","city":"West Newton","state":"Indiana","state_ab":"IN","county":"Marion","geo_location":{ "type": "Point", "coordinates": [-86.2851, 39.6483] }},
{"zip_code":"46206","country":"US","city":"Indianapolis","state":"Indiana","state_ab":"IN","county":"Marion","geo_location":{ "type": "Point", "coordinates": [-86.1613, 39.7613] }},
{"zip_code":"46219","country":"US","city":"Indianapolis","state":"Indiana","state_ab":"IN","county":"Marion","geo_location":{ "type": "Point", "coordinates": [-86.0495, 39.7821] }},
{"zip_code":"46220","country":"US","city":"Indianapolis","state":"Indiana","state_ab":"IN","county":"Marion","geo_location":{ "type": "Point", "coordinates": [-86.1181, 39.8647] }},
{"zip_code":"46259","country":"US","city":"Indianapolis","state":"Indiana","state_ab":"IN","county":"Marion","geo_location":{ "type": "Point", "coordinates": [-85.9981, 39.667] }},
{"zip_code":"46260","country":"US","city":"Indianapolis","state":"Indiana","state_ab":"IN","county":"Marion","geo_location":{ "type": "Point", "coordinates": [-86.1797, 39.8977] }},
{"zip_code":"46570","country":"US","city":"Tippecanoe","state":"Indiana","state_ab":"IN","county":"Marshall","geo_location":{ "type": "Point", "coordinates": [-86.1095, 41.2166] }},
{"zip_code":"46970","country":"US","city":"Peru","state":"Indiana","state_ab":"IN","county":"Miami","geo_location":{ "type": "Point", "coordinates": [-86.068, 40.7492] }},
{"zip_code":"47403","country":"US","city":"Bloomington","state":"Indiana","state_ab":"IN","county":"Monroe","geo_location":{ "type": "Point", "coordinates": [-86.5769, 39.1263] }},
{"zip_code":"47429","country":"US","city":"Ellettsville","state":"Indiana","state_ab":"IN","county":"Monroe","geo_location":{ "type": "Point", "coordinates": [-86.6196, 39.2545] }},
{"zip_code":"47933","country":"US","city":"Crawfordsville","state":"Indiana","state_ab":"IN","county":"Montgomery","geo_location":{ "type": "Point", "coordinates": [-86.9074, 40.0325] }},
{"zip_code":"46349","country":"US","city":"Lake Village","state":"Indiana","state_ab":"IN","county":"Newton","geo_location":{ "type": "Point", "coordinates": [-87.4454, 41.1387] }},
{"zip_code":"46710","country":"US","city":"Avilla","state":"Indiana","state_ab":"IN","county":"Noble","geo_location":{ "type": "Point", "coordinates": [-85.2414, 41.3689] }},
{"zip_code":"46763","country":"US","city":"Laotto","state":"Indiana","state_ab":"IN","county":"Noble","geo_location":{ "type": "Point", "coordinates": [-85.1901, 41.2991] }},
{"zip_code":"47469","country":"US","city":"West Baden Springs","state":"Indiana","state_ab":"IN","county":"Orange","geo_location":{ "type": "Point", "coordinates": [-86.5899, 38.6208] }},
{"zip_code":"47456","country":"US","city":"Quincy","state":"Indiana","state_ab":"IN","county":"Owen","geo_location":{ "type": "Point", "coordinates": [-86.6696, 39.4429] }},
{"zip_code":"47830","country":"US","city":"Bellmore","state":"Indiana","state_ab":"IN","county":"Parke","geo_location":{ "type": "Point", "coordinates": [-87.2218, 39.7791] }},
{"zip_code":"47856","country":"US","city":"Judson","state":"Indiana","state_ab":"IN","county":"Parke","geo_location":{ "type": "Point", "coordinates": [-87.2218, 39.7791] }},
{"zip_code":"47520","country":"US","city":"Cannelton","state":"Indiana","state_ab":"IN","county":"Perry","geo_location":{ "type": "Point", "coordinates": [-86.7156, 37.9495] }},
{"zip_code":"47586","country":"US","city":"Tell City","state":"Indiana","state_ab":"IN","county":"Perry","geo_location":{ "type": "Point", "coordinates": [-86.7457, 37.9655] }},
{"zip_code":"46996","country":"US","city":"Winamac","state":"Indiana","state_ab":"IN","county":"Pulaski","geo_location":{ "type": "Point", "coordinates": [-86.6307, 41.0562] }},
{"zip_code":"47946","country":"US","city":"Francesville","state":"Indiana","state_ab":"IN","county":"Pulaski","geo_location":{ "type": "Point", "coordinates": [-86.8553, 40.9709] }},
{"zip_code":"46170","country":"US","city":"Putnamville","state":"Indiana","state_ab":"IN","county":"Putnam","geo_location":{ "type": "Point", "coordinates": [-86.8284, 39.6684] }},
{"zip_code":"47340","country":"US","city":"Farmland","state":"Indiana","state_ab":"IN","county":"Randolph","geo_location":{ "type": "Point", "coordinates": [-85.1254, 40.1945] }},
{"zip_code":"47380","country":"US","city":"Ridgeville","state":"Indiana","state_ab":"IN","county":"Randolph","geo_location":{ "type": "Point", "coordinates": [-85.0371, 40.2804] }},
{"zip_code":"46156","country":"US","city":"Milroy","state":"Indiana","state_ab":"IN","county":"Rush","geo_location":{ "type": "Point", "coordinates": [-85.5044, 39.4955] }},
{"zip_code":"46530","country":"US","city":"Granger","state":"Indiana","state_ab":"IN","county":"St. Joseph","geo_location":{ "type": "Point", "coordinates": [-86.1411, 41.7427] }},
{"zip_code":"46556","country":"US","city":"Notre Dame","state":"Indiana","state_ab":"IN","county":"St. Joseph","geo_location":{ "type": "Point", "coordinates": [-86.293, 41.5968] }},
{"zip_code":"46619","country":"US","city":"South Bend","state":"Indiana","state_ab":"IN","county":"St. Joseph","geo_location":{ "type": "Point", "coordinates": [-86.3153, 41.6674] }},
{"zip_code":"46620","country":"US","city":"South Bend","state":"Indiana","state_ab":"IN","county":"St. Joseph","geo_location":{ "type": "Point", "coordinates": [-86.293, 41.5968] }},
{"zip_code":"46660","country":"US","city":"South Bend","state":"Indiana","state_ab":"IN","county":"St. Joseph","geo_location":{ "type": "Point", "coordinates": [-86.293, 41.5968] }},
{"zip_code":"46699","country":"US","city":"South Bend","state":"Indiana","state_ab":"IN","county":"St. Joseph","geo_location":{ "type": "Point", "coordinates": [-86.293, 41.5968] }},
{"zip_code":"46130","country":"US","city":"Fountaintown","state":"Indiana","state_ab":"IN","county":"Shelby","geo_location":{ "type": "Point", "coordinates": [-85.7848, 39.6751] }},
{"zip_code":"46776","country":"US","city":"Orland","state":"Indiana","state_ab":"IN","county":"Steuben","geo_location":{ "type": "Point", "coordinates": [-85.1465, 41.7309] }},
{"zip_code":"47043","country":"US","city":"Vevay","state":"Indiana","state_ab":"IN","county":"Switzerland","geo_location":{ "type": "Point", "coordinates": [-85.0852, 38.7724] }},
{"zip_code":"47906","country":"US","city":"West Lafayette","state":"Indiana","state_ab":"IN","county":"Tippecanoe","geo_location":{ "type": "Point", "coordinates": [-86.9237, 40.444] }},
{"zip_code":"47920","country":"US","city":"Battle Ground","state":"Indiana","state_ab":"IN","county":"Tippecanoe","geo_location":{ "type": "Point", "coordinates": [-86.8238, 40.5248] }},
{"zip_code":"47353","country":"US","city":"Liberty","state":"Indiana","state_ab":"IN","county":"Union","geo_location":{ "type": "Point", "coordinates": [-84.9089, 39.6126] }},
{"zip_code":"47713","country":"US","city":"Evansville","state":"Indiana","state_ab":"IN","county":"Vanderburgh","geo_location":{ "type": "Point", "coordinates": [-87.5577, 37.9623] }},
{"zip_code":"47739","country":"US","city":"Evansville","state":"Indiana","state_ab":"IN","county":"Vanderburgh","geo_location":{ "type": "Point", "coordinates": [-87.575, 37.9971] }},
{"zip_code":"47740","country":"US","city":"Evansville","state":"Indiana","state_ab":"IN","county":"Vanderburgh","geo_location":{ "type": "Point", "coordinates": [-87.575, 37.9971] }},
{"zip_code":"47803","country":"US","city":"Terre Haute","state":"Indiana","state_ab":"IN","county":"Vigo","geo_location":{ "type": "Point", "coordinates": [-87.354, 39.4657] }},
{"zip_code":"47869","country":"US","city":"Prairie Creek","state":"Indiana","state_ab":"IN","county":"Vigo","geo_location":{ "type": "Point", "coordinates": [-87.4101, 39.4336] }},
{"zip_code":"47870","country":"US","city":"Prairieton","state":"Indiana","state_ab":"IN","county":"Vigo","geo_location":{ "type": "Point", "coordinates": [-87.4759, 39.3712] }},
{"zip_code":"46943","country":"US","city":"Laketon","state":"Indiana","state_ab":"IN","county":"Wabash","geo_location":{ "type": "Point", "coordinates": [-85.8375, 40.9743] }},
{"zip_code":"47610","country":"US","city":"Chandler","state":"Indiana","state_ab":"IN","county":"Warrick","geo_location":{ "type": "Point", "coordinates": [-87.3756, 38.0423] }},
{"zip_code":"47120","country":"US","city":"Fredericksburg","state":"Indiana","state_ab":"IN","county":"Washington","geo_location":{ "type": "Point", "coordinates": [-86.1783, 38.4821] }},
{"zip_code":"47339","country":"US","city":"Economy","state":"Indiana","state_ab":"IN","county":"Wayne","geo_location":{ "type": "Point", "coordinates": [-85.1023, 39.961] }},
{"zip_code":"47393","country":"US","city":"Williamsburg","state":"Indiana","state_ab":"IN","county":"Wayne","geo_location":{ "type": "Point", "coordinates": [-84.9984, 39.958] }},
{"zip_code":"47959","country":"US","city":"Monon","state":"Indiana","state_ab":"IN","county":"White","geo_location":{ "type": "Point", "coordinates": [-86.8635, 40.8612] }},
{"zip_code":"47960","country":"US","city":"Monticello","state":"Indiana","state_ab":"IN","county":"White","geo_location":{ "type": "Point", "coordinates": [-86.755, 40.7626] }},
{"zip_code":"46723","country":"US","city":"Churubusco","state":"Indiana","state_ab":"IN","county":"Whitley","geo_location":{ "type": "Point", "coordinates": [-85.3244, 41.229] }},
{"zip_code":"66033","country":"US","city":"Greeley","state":"Kansas","state_ab":"KS","county":"Anderson","geo_location":{ "type": "Point", "coordinates": [-95.1188, 38.3524] }},
{"zip_code":"67526","country":"US","city":"Ellinwood","state":"Kansas","state_ab":"KS","county":"Barton","geo_location":{ "type": "Point", "coordinates": [-98.5849, 38.3565] }},
{"zip_code":"66716","country":"US","city":"Bronson","state":"Kansas","state_ab":"KS","county":"Bourbon","geo_location":{ "type": "Point", "coordinates": [-95.0303, 37.9214] }},
{"zip_code":"66769","country":"US","city":"Redfield","state":"Kansas","state_ab":"KS","county":"Bourbon","geo_location":{ "type": "Point", "coordinates": [-94.8805, 37.8367] }},
{"zip_code":"67010","country":"US","city":"Augusta","state":"Kansas","state_ab":"KS","county":"Butler","geo_location":{ "type": "Point", "coordinates": [-96.9648, 37.6836] }},
{"zip_code":"67360","country":"US","city":"Peru","state":"Kansas","state_ab":"KS","county":"Chautauqua","geo_location":{ "type": "Point", "coordinates": [-96.1404, 37.0568] }},
{"zip_code":"66770","country":"US","city":"Riverton","state":"Kansas","state_ab":"KS","county":"Cherokee","geo_location":{ "type": "Point", "coordinates": [-94.7175, 37.081] }},
{"zip_code":"67023","country":"US","city":"Cambridge","state":"Kansas","state_ab":"KS","county":"Cowley","geo_location":{ "type": "Point", "coordinates": [-96.717, 37.3094] }},
{"zip_code":"66743","country":"US","city":"Girard","state":"Kansas","state_ab":"KS","county":"Crawford","geo_location":{ "type": "Point", "coordinates": [-94.8569, 37.5091] }},
{"zip_code":"66756","country":"US","city":"Mulberry","state":"Kansas","state_ab":"KS","county":"Crawford","geo_location":{ "type": "Point", "coordinates": [-94.6839, 37.5442] }},
{"zip_code":"67643","country":"US","city":"Jennings","state":"Kansas","state_ab":"KS","county":"Decatur","geo_location":{ "type": "Point", "coordinates": [-100.2834, 39.6762] }},
{"zip_code":"67410","country":"US","city":"Abilene","state":"Kansas","state_ab":"KS","county":"Dickinson","geo_location":{ "type": "Point", "coordinates": [-97.2063, 38.9371] }},
{"zip_code":"67449","country":"US","city":"Herington","state":"Kansas","state_ab":"KS","county":"Dickinson","geo_location":{ "type": "Point", "coordinates": [-96.8941, 38.6767] }},
{"zip_code":"67463","country":"US","city":"Manchester","state":"Kansas","state_ab":"KS","county":"Dickinson County","geo_location":{ "type": "Point", "coordinates": [-97.3095, 39.0871] }},
{"zip_code":"66006","country":"US","city":"Baldwin City","state":"Kansas","state_ab":"KS","county":"Douglas","geo_location":{ "type": "Point", "coordinates": [-95.2276, 38.7953] }},
{"zip_code":"66046","country":"US","city":"Lawrence","state":"Kansas","state_ab":"KS","county":"Douglas","geo_location":{ "type": "Point", "coordinates": [-95.242, 38.9369] }},
{"zip_code":"67346","country":"US","city":"Grenola","state":"Kansas","state_ab":"KS","county":"Elk","geo_location":{ "type": "Point", "coordinates": [-96.4396, 37.3668] }},
{"zip_code":"67450","country":"US","city":"Holyrood","state":"Kansas","state_ab":"KS","county":"Ellsworth","geo_location":{ "type": "Point", "coordinates": [-98.4159, 38.59] }},
{"zip_code":"67490","country":"US","city":"Wilson","state":"Kansas","state_ab":"KS","county":"Ellsworth","geo_location":{ "type": "Point", "coordinates": [-98.4432, 38.8134] }},
{"zip_code":"67876","country":"US","city":"Spearville","state":"Kansas","state_ab":"KS","county":"Ford","geo_location":{ "type": "Point", "coordinates": [-99.737, 37.8235] }},
{"zip_code":"66860","country":"US","city":"Madison","state":"Kansas","state_ab":"KS","county":"Greenwood","geo_location":{ "type": "Point", "coordinates": [-96.1213, 38.1278] }},
{"zip_code":"67836","country":"US","city":"Coolidge","state":"Kansas","state_ab":"KS","county":"Hamilton","geo_location":{ "type": "Point", "coordinates": [-102.007, 38.0215] }},
{"zip_code":"67009","country":"US","city":"Attica","state":"Kansas","state_ab":"KS","county":"Harper","geo_location":{ "type": "Point", "coordinates": [-98.2264, 37.2528] }},
{"zip_code":"67036","country":"US","city":"Danville","state":"Kansas","state_ab":"KS","county":"Harper","geo_location":{ "type": "Point", "coordinates": [-97.8689, 37.2674] }},
{"zip_code":"67049","country":"US","city":"Freeport","state":"Kansas","state_ab":"KS","county":"Harper","geo_location":{ "type": "Point", "coordinates": [-97.8634, 37.1903] }},
{"zip_code":"67849","country":"US","city":"Hanston","state":"Kansas","state_ab":"KS","county":"Hodgeman","geo_location":{ "type": "Point", "coordinates": [-99.6928, 38.109] }},
{"zip_code":"66419","country":"US","city":"Denison","state":"Kansas","state_ab":"KS","county":"Jackson","geo_location":{ "type": "Point", "coordinates": [-95.6127, 39.354] }},
{"zip_code":"66509","country":"US","city":"Mayetta","state":"Kansas","state_ab":"KS","county":"Jackson","geo_location":{ "type": "Point", "coordinates": [-95.6928, 39.3489] }},
{"zip_code":"66060","country":"US","city":"Nortonville","state":"Kansas","state_ab":"KS","county":"Jefferson","geo_location":{ "type": "Point", "coordinates": [-95.3236, 39.4095] }},
{"zip_code":"66073","country":"US","city":"Perry","state":"Kansas","state_ab":"KS","county":"Jefferson","geo_location":{ "type": "Point", "coordinates": [-95.3731, 39.0875] }},
{"zip_code":"66936","country":"US","city":"Burr Oak","state":"Kansas","state_ab":"KS","county":"Jewell","geo_location":{ "type": "Point", "coordinates": [-98.3499, 39.8932] }},
{"zip_code":"66949","country":"US","city":"Jewell","state":"Kansas","state_ab":"KS","county":"Jewell","geo_location":{ "type": "Point", "coordinates": [-98.1472, 39.6719] }},
{"zip_code":"66963","country":"US","city":"Randall","state":"Kansas","state_ab":"KS","county":"Jewell","geo_location":{ "type": "Point", "coordinates": [-98.0661, 39.6286] }},
{"zip_code":"66019","country":"US","city":"Clearview City","state":"Kansas","state_ab":"KS","county":"Johnson","geo_location":{ "type": "Point", "coordinates": [-95.0037, 38.946] }},
{"zip_code":"66213","country":"US","city":"Shawnee Mission","state":"Kansas","state_ab":"KS","county":"Johnson","geo_location":{ "type": "Point", "coordinates": [-94.7049, 38.8982] }},
{"zip_code":"66226","country":"US","city":"Shawnee Mission","state":"Kansas","state_ab":"KS","county":"Johnson","geo_location":{ "type": "Point", "coordinates": [-94.8627, 39.0178] }},
{"zip_code":"66279","country":"US","city":"Shawnee Mission","state":"Kansas","state_ab":"KS","county":"Johnson","geo_location":{ "type": "Point", "coordinates": [-94.832, 38.8999] }},
{"zip_code":"67850","country":"US","city":"Healy","state":"Kansas","state_ab":"KS","county":"Lane","geo_location":{ "type": "Point", "coordinates": [-100.6159, 38.5664] }},
{"zip_code":"66020","country":"US","city":"Easton","state":"Kansas","state_ab":"KS","county":"Leavenworth","geo_location":{ "type": "Point", "coordinates": [-95.0999, 39.3391] }},
{"zip_code":"66086","country":"US","city":"Tonganoxie","state":"Kansas","state_ab":"KS","county":"Leavenworth","geo_location":{ "type": "Point", "coordinates": [-95.1051, 39.1026] }},
{"zip_code":"67423","country":"US","city":"Beverly","state":"Kansas","state_ab":"KS","county":"Lincoln","geo_location":{ "type": "Point", "coordinates": [-97.9818, 38.9844] }},
{"zip_code":"66833","country":"US","city":"Allen","state":"Kansas","state_ab":"KS","county":"Lyon","geo_location":{ "type": "Point", "coordinates": [-96.1735, 38.652] }},
{"zip_code":"67476","country":"US","city":"Roxbury","state":"Kansas","state_ab":"KS","county":"McPherson","geo_location":{ "type": "Point", "coordinates": [-97.6484, 38.3917] }},
{"zip_code":"66859","country":"US","city":"Lost Springs","state":"Kansas","state_ab":"KS","county":"Marion","geo_location":{ "type": "Point", "coordinates": [-96.9799, 38.5657] }},
{"zip_code":"67063","country":"US","city":"Hillsboro","state":"Kansas","state_ab":"KS","county":"Marion","geo_location":{ "type": "Point", "coordinates": [-97.2122, 38.3449] }},
{"zip_code":"66406","country":"US","city":"Beattie","state":"Kansas","state_ab":"KS","county":"Marshall","geo_location":{ "type": "Point", "coordinates": [-96.4286, 39.8988] }},
{"zip_code":"66433","country":"US","city":"Marysville","state":"Kansas","state_ab":"KS","county":"Marshall County","geo_location":{ "type": "Point", "coordinates": [-96.7469, 39.9563] }},
{"zip_code":"67333","country":"US","city":"Caney","state":"Kansas","state_ab":"KS","county":"Montgomery","geo_location":{ "type": "Point", "coordinates": [-95.9091, 37.0224] }},
{"zip_code":"66846","country":"US","city":"Council Grove","state":"Kansas","state_ab":"KS","county":"Morris","geo_location":{ "type": "Point", "coordinates": [-96.5469, 38.6959] }},
{"zip_code":"66873","country":"US","city":"Wilsey","state":"Kansas","state_ab":"KS","county":"Morris","geo_location":{ "type": "Point", "coordinates": [-96.6639, 38.6821] }},
{"zip_code":"67953","country":"US","city":"Richfield","state":"Kansas","state_ab":"KS","county":"Morton","geo_location":{ "type": "Point", "coordinates": [-101.7004, 37.2834] }},
{"zip_code":"66550","country":"US","city":"Wetmore","state":"Kansas","state_ab":"KS","county":"Nemaha","geo_location":{ "type": "Point", "coordinates": [-95.8231, 39.6428] }},
{"zip_code":"67629","country":"US","city":"Clayton","state":"Kansas","state_ab":"KS","county":"Norton","geo_location":{ "type": "Point", "coordinates": [-99.903, 39.7843] }},
{"zip_code":"66510","country":"US","city":"Melvern","state":"Kansas","state_ab":"KS","county":"Osage","geo_location":{ "type": "Point", "coordinates": [-95.629, 38.5027] }},
{"zip_code":"66523","country":"US","city":"Osage City","state":"Kansas","state_ab":"KS","county":"Osage","geo_location":{ "type": "Point", "coordinates": [-95.8303, 38.6269] }},
{"zip_code":"67436","country":"US","city":"Delphos","state":"Kansas","state_ab":"KS","county":"Ottawa","geo_location":{ "type": "Point", "coordinates": [-97.7717, 39.2731] }},
{"zip_code":"67670","country":"US","city":"Stuttgart","state":"Kansas","state_ab":"KS","county":"Phillips","geo_location":{ "type": "Point", "coordinates": [-99.3471, 39.7847] }},
{"zip_code":"66536","country":"US","city":"Saint Marys","state":"Kansas","state_ab":"KS","county":"Pottawatomie","geo_location":{ "type": "Point", "coordinates": [-96.0683, 39.1987] }},
{"zip_code":"66549","country":"US","city":"Westmoreland","state":"Kansas","state_ab":"KS","county":"Pottawatomie","geo_location":{ "type": "Point", "coordinates": [-96.4374, 39.4138] }},
{"zip_code":"67566","country":"US","city":"Partridge","state":"Kansas","state_ab":"KS","county":"Reno","geo_location":{ "type": "Point", "coordinates": [-98.0798, 37.9671] }},
{"zip_code":"67579","country":"US","city":"Sterling","state":"Kansas","state_ab":"KS","county":"Rice","geo_location":{ "type": "Point", "coordinates": [-98.2055, 38.2126] }},
{"zip_code":"67630","country":"US","city":"Codell","state":"Kansas","state_ab":"KS","county":"Rooks County","geo_location":{ "type": "Point", "coordinates": [-99.135, 39.2277] }},
{"zip_code":"67669","country":"US","city":"Stockton","state":"Kansas","state_ab":"KS","county":"Rooks","geo_location":{ "type": "Point", "coordinates": [-99.2871, 39.4376] }},
{"zip_code":"67513","country":"US","city":"Alexander","state":"Kansas","state_ab":"KS","county":"Rush","geo_location":{ "type": "Point", "coordinates": [-99.5378, 38.457] }},
{"zip_code":"67553","country":"US","city":"Liebenthal","state":"Kansas","state_ab":"KS","county":"Rush","geo_location":{ "type": "Point", "coordinates": [-99.3203, 38.6557] }},
{"zip_code":"67050","country":"US","city":"Garden Plain","state":"Kansas","state_ab":"KS","county":"Sedgwick","geo_location":{ "type": "Point", "coordinates": [-97.66, 37.6767] }},
{"zip_code":"67203","country":"US","city":"Wichita","state":"Kansas","state_ab":"KS","county":"Sedgwick","geo_location":{ "type": "Point", "coordinates": [-97.3638, 37.7048] }},
{"zip_code":"67216","country":"US","city":"Wichita","state":"Kansas","state_ab":"KS","county":"Sedgwick","geo_location":{ "type": "Point", "coordinates": [-97.3136, 37.6223] }},
{"zip_code":"67230","country":"US","city":"Wichita","state":"Kansas","state_ab":"KS","county":"Sedgwick","geo_location":{ "type": "Point", "coordinates": [-97.1558, 37.6808] }},
{"zip_code":"67256","country":"US","city":"Wichita","state":"Kansas","state_ab":"KS","county":"Sedgwick","geo_location":{ "type": "Point", "coordinates": [-97.4804, 37.6936] }},
{"zip_code":"67759","country":"US","city":"Studley","state":"Kansas","state_ab":"KS","county":"Seward County","geo_location":{ "type": "Point", "coordinates": [-100.2814, 39.2616] }},
{"zip_code":"66420","country":"US","city":"Dover","state":"Kansas","state_ab":"KS","county":"Shawnee","geo_location":{ "type": "Point", "coordinates": [-95.9172, 38.9645] }},
{"zip_code":"66626","country":"US","city":"Topeka","state":"Kansas","state_ab":"KS","county":"Shawnee","geo_location":{ "type": "Point", "coordinates": [-95.7697, 39.0429] }},
{"zip_code":"66653","country":"US","city":"Topeka","state":"Kansas","state_ab":"KS","county":"Shawnee","geo_location":{ "type": "Point", "coordinates": [-95.7697, 39.0429] }},
{"zip_code":"67733","country":"US","city":"Edson","state":"Kansas","state_ab":"KS","county":"Sherman","geo_location":{ "type": "Point", "coordinates": [-101.521, 39.3579] }},
{"zip_code":"67140","country":"US","city":"South Haven","state":"Kansas","state_ab":"KS","county":"Sumner","geo_location":{ "type": "Point", "coordinates": [-97.4042, 37.05] }},
{"zip_code":"67656","country":"US","city":"Ogallah","state":"Kansas","state_ab":"KS","county":"Trego","geo_location":{ "type": "Point", "coordinates": [-99.8729, 38.9144] }},
{"zip_code":"67863","country":"US","city":"Marienthal","state":"Kansas","state_ab":"KS","county":"Wichita","geo_location":{ "type": "Point", "coordinates": [-101.2839, 38.4837] }},
{"zip_code":"66783","country":"US","city":"Yates Center","state":"Kansas","state_ab":"KS","county":"Woodson","geo_location":{ "type": "Point", "coordinates": [-95.7289, 37.8801] }},
{"zip_code":"66109","country":"US","city":"Kansas City","state":"Kansas","state_ab":"KS","county":"Wyandotte","geo_location":{ "type": "Point", "coordinates": [-94.7856, 39.1434] }},
{"zip_code":"66110","country":"US","city":"Kansas City","state":"Kansas","state_ab":"KS","county":"Wyandotte","geo_location":{ "type": "Point", "coordinates": [-94.7495, 39.0966] }},
{"zip_code":"42723","country":"US","city":"Casey Creek","state":"Kentucky","state_ab":"KY","county":"Adair County","geo_location":{ "type": "Point", "coordinates": [-85.203, 37.2719] }},
{"zip_code":"42763","country":"US","city":"Montpelier","state":"Kentucky","state_ab":"KY","county":"Adair County","geo_location":{ "type": "Point", "coordinates": [-85.2374, 37.1367] }},
{"zip_code":"42026","country":"US","city":"Blandville","state":"Kentucky","state_ab":"KY","county":"Ballard County","geo_location":{ "type": "Point", "coordinates": [-88.9637, 36.9435] }},
{"zip_code":"42130","country":"US","city":"Eighty Eight","state":"Kentucky","state_ab":"KY","county":"Barren","geo_location":{ "type": "Point", "coordinates": [-85.7753, 36.913] }},
{"zip_code":"42156","country":"US","city":"Lucas","state":"Kentucky","state_ab":"KY","county":"Barren","geo_location":{ "type": "Point", "coordinates": [-86.0523, 36.8516] }},
{"zip_code":"41346","country":"US","city":"Little","state":"Kentucky","state_ab":"KY","county":"Breathitt County","geo_location":{ "type": "Point", "coordinates": [-83.3824, 37.4322] }},
{"zip_code":"40176","country":"US","city":"Webster","state":"Kentucky","state_ab":"KY","county":"Breckinridge","geo_location":{ "type": "Point", "coordinates": [-86.3441, 37.9237] }},
{"zip_code":"40109","country":"US","city":"Brooks","state":"Kentucky","state_ab":"KY","county":"Bullitt","geo_location":{ "type": "Point", "coordinates": [-85.7713, 38.0546] }},
{"zip_code":"40110","country":"US","city":"Clermont","state":"Kentucky","state_ab":"KY","county":"Bullitt","geo_location":{ "type": "Point", "coordinates": [-85.6555, 37.9346] }},
{"zip_code":"40150","country":"US","city":"Lebanon Junction","state":"Kentucky","state_ab":"KY","county":"Bullitt","geo_location":{ "type": "Point", "coordinates": [-85.7246, 37.8511] }},
{"zip_code":"41009","country":"US","city":"Constance","state":"Kentucky","state_ab":"KY","county":"Bullitt County","geo_location":{ "type": "Point", "coordinates": [-84.6374, 39.0738] }},
{"zip_code":"42219","country":"US","city":"Dunbar","state":"Kentucky","state_ab":"KY","county":"Butler","geo_location":{ "type": "Point", "coordinates": [-86.7678, 37.1709] }},
{"zip_code":"42273","country":"US","city":"Rochester","state":"Kentucky","state_ab":"KY","county":"Butler","geo_location":{ "type": "Point", "coordinates": [-86.8592, 37.2048] }},
{"zip_code":"41076","country":"US","city":"Newport","state":"Kentucky","state_ab":"KY","county":"Campbell","geo_location":{ "type": "Point", "coordinates": [-84.4408, 39.0262] }},
{"zip_code":"42516","country":"US","city":"Bethelridge","state":"Kentucky","state_ab":"KY","county":"Casey","geo_location":{ "type": "Point", "coordinates": [-84.8999, 37.2425] }},
{"zip_code":"42376","country":"US","city":"Utica","state":"Kentucky","state_ab":"KY","county":"Daviess","geo_location":{ "type": "Point", "coordinates": [-87.0591, 37.6206] }},
{"zip_code":"42259","country":"US","city":"Mammoth Cave","state":"Kentucky","state_ab":"KY","county":"Edmonson","geo_location":{ "type": "Point", "coordinates": [-86.1688, 37.2802] }},
{"zip_code":"40509","country":"US","city":"Lexington","state":"Kentucky","state_ab":"KY","county":"Fayette","geo_location":{ "type": "Point", "coordinates": [-84.4274, 38.0102] }},
{"zip_code":"40510","country":"US","city":"Lexington","state":"Kentucky","state_ab":"KY","county":"Fayette","geo_location":{ "type": "Point", "coordinates": [-84.591, 38.0702] }},
{"zip_code":"40523","country":"US","city":"Lexington","state":"Kentucky","state_ab":"KY","county":"Fayette","geo_location":{ "type": "Point", "coordinates": [-84.4715, 38.0283] }},
{"zip_code":"40536","country":"US","city":"Lexington","state":"Kentucky","state_ab":"KY","county":"Fayette","geo_location":{ "type": "Point", "coordinates": [-84.5084, 38.0321] }},
{"zip_code":"40550","country":"US","city":"Lexington","state":"Kentucky","state_ab":"KY","county":"Fayette","geo_location":{ "type": "Point", "coordinates": [-84.4715, 38.0283] }},
{"zip_code":"40576","country":"US","city":"Lexington","state":"Kentucky","state_ab":"KY","county":"Fayette","geo_location":{ "type": "Point", "coordinates": [-84.4715, 38.0283] }},
{"zip_code":"40589","country":"US","city":"Lexington","state":"Kentucky","state_ab":"KY","county":"Fayette","geo_location":{ "type": "Point", "coordinates": [-84.4715, 38.0283] }},
{"zip_code":"40590","country":"US","city":"Lexington","state":"Kentucky","state_ab":"KY","county":"Fayette","geo_location":{ "type": "Point", "coordinates": [-84.4715, 38.0283] }},
{"zip_code":"41049","country":"US","city":"Hillsboro","state":"Kentucky","state_ab":"KY","county":"Fleming","geo_location":{ "type": "Point", "coordinates": [-83.6697, 38.2929] }},
{"zip_code":"41603","country":"US","city":"Banner","state":"Kentucky","state_ab":"KY","county":"Floyd","geo_location":{ "type": "Point", "coordinates": [-82.6806, 37.5707] }},
{"zip_code":"41616","country":"US","city":"David","state":"Kentucky","state_ab":"KY","county":"Floyd","geo_location":{ "type": "Point", "coordinates": [-82.8708, 37.5767] }}]}