{"value": [{"zip_code":"16870","country":"US","city":"Port Matilda","state":"Pennsylvania","state_ab":"PA","county":"Centre","geo_location":{ "type": "Point", "coordinates": [-78.0788, 40.8018] }},
{"zip_code":"19310","country":"US","city":"Atglen","state":"Pennsylvania","state_ab":"PA","county":"Chester","geo_location":{ "type": "Point", "coordinates": [-75.9703, 39.9458] }},
{"zip_code":"19350","country":"US","city":"Landenberg","state":"Pennsylvania","state_ab":"PA","county":"Chester","geo_location":{ "type": "Point", "coordinates": [-75.7807, 39.7696] }},
{"zip_code":"19363","country":"US","city":"Oxford","state":"Pennsylvania","state_ab":"PA","county":"Chester","geo_location":{ "type": "Point", "coordinates": [-75.9815, 39.7827] }},
{"zip_code":"19376","country":"US","city":"Wagontown","state":"Pennsylvania","state_ab":"PA","county":"Chester","geo_location":{ "type": "Point", "coordinates": [-75.7481, 39.9832] }},
{"zip_code":"19390","country":"US","city":"West Grove","state":"Pennsylvania","state_ab":"PA","county":"Chester","geo_location":{ "type": "Point", "coordinates": [-75.8374, 39.8253] }},
{"zip_code":"19480","country":"US","city":"Uwchland","state":"Pennsylvania","state_ab":"PA","county":"Chester","geo_location":{ "type": "Point", "coordinates": [-75.688, 40.098] }},
{"zip_code":"19493","country":"US","city":"Valley Forge","state":"Pennsylvania","state_ab":"PA","county":"Chester","geo_location":{ "type": "Point", "coordinates": [-75.7481, 39.9832] }},
{"zip_code":"16326","country":"US","city":"Fryburg","state":"Pennsylvania","state_ab":"PA","county":"Clarion","geo_location":{ "type": "Point", "coordinates": [-79.4134, 41.3717] }},
{"zip_code":"15866","country":"US","city":"Troutville","state":"Pennsylvania","state_ab":"PA","county":"Clearfield","geo_location":{ "type": "Point", "coordinates": [-78.7857, 41.0117] }},
{"zip_code":"16663","country":"US","city":"Morann","state":"Pennsylvania","state_ab":"PA","county":"Clearfield","geo_location":{ "type": "Point", "coordinates": [-78.4224, 40.9891] }},
{"zip_code":"16830","country":"US","city":"Clearfield","state":"Pennsylvania","state_ab":"PA","county":"Clearfield","geo_location":{ "type": "Point", "coordinates": [-78.4435, 41.021] }},
{"zip_code":"16843","country":"US","city":"Hyde","state":"Pennsylvania","state_ab":"PA","county":"Clearfield","geo_location":{ "type": "Point", "coordinates": [-78.4642, 41.003] }},
{"zip_code":"17820","country":"US","city":"Catawissa","state":"Pennsylvania","state_ab":"PA","county":"Columbia","geo_location":{ "type": "Point", "coordinates": [-76.4416, 40.918] }},
{"zip_code":"17846","country":"US","city":"Millville","state":"Pennsylvania","state_ab":"PA","county":"Columbia","geo_location":{ "type": "Point", "coordinates": [-76.5208, 41.1261] }},
{"zip_code":"17859","country":"US","city":"Orangeville","state":"Pennsylvania","state_ab":"PA","county":"Columbia","geo_location":{ "type": "Point", "coordinates": [-76.381, 41.1016] }},
{"zip_code":"18603","country":"US","city":"Berwick","state":"Pennsylvania","state_ab":"PA","county":"Columbia","geo_location":{ "type": "Point", "coordinates": [-76.2443, 41.0665] }},
{"zip_code":"16403","country":"US","city":"Cambridge Springs","state":"Pennsylvania","state_ab":"PA","county":"Crawford","geo_location":{ "type": "Point", "coordinates": [-80.0594, 41.8034] }},
{"zip_code":"17240","country":"US","city":"Newburg","state":"Pennsylvania","state_ab":"PA","county":"Cumberland","geo_location":{ "type": "Point", "coordinates": [-77.5669, 40.1333] }},
{"zip_code":"17266","country":"US","city":"Walnut Bottom","state":"Pennsylvania","state_ab":"PA","county":"Cumberland","geo_location":{ "type": "Point", "coordinates": [-77.409, 40.086] }},
{"zip_code":"17033","country":"US","city":"Hershey","state":"Pennsylvania","state_ab":"PA","county":"Dauphin","geo_location":{ "type": "Point", "coordinates": [-76.6545, 40.2638] }},
{"zip_code":"17109","country":"US","city":"Harrisburg","state":"Pennsylvania","state_ab":"PA","county":"Dauphin","geo_location":{ "type": "Point", "coordinates": [-76.8203, 40.291] }},
{"zip_code":"17110","country":"US","city":"Harrisburg","state":"Pennsylvania","state_ab":"PA","county":"Dauphin","geo_location":{ "type": "Point", "coordinates": [-76.8862, 40.303] }},
{"zip_code":"17123","country":"US","city":"Harrisburg","state":"Pennsylvania","state_ab":"PA","county":"Dauphin","geo_location":{ "type": "Point", "coordinates": [-76.8837, 40.2675] }},
{"zip_code":"19013","country":"US","city":"Chester","state":"Pennsylvania","state_ab":"PA","county":"Delaware","geo_location":{ "type": "Point", "coordinates": [-75.3747, 39.8498] }},
{"zip_code":"19026","country":"US","city":"Drexel Hill","state":"Pennsylvania","state_ab":"PA","county":"Delaware","geo_location":{ "type": "Point", "coordinates": [-75.304, 39.9503] }},
{"zip_code":"19039","country":"US","city":"Gradyville","state":"Pennsylvania","state_ab":"PA","county":"Delaware","geo_location":{ "type": "Point", "coordinates": [-75.3372, 39.8821] }},
{"zip_code":"19079","country":"US","city":"Sharon Hill","state":"Pennsylvania","state_ab":"PA","county":"Delaware","geo_location":{ "type": "Point", "coordinates": [-75.2695, 39.9035] }},
{"zip_code":"19080","country":"US","city":"Wayne","state":"Pennsylvania","state_ab":"PA","county":"Delaware","geo_location":{ "type": "Point", "coordinates": [-75.3577, 40.0432] }},
{"zip_code":"15853","country":"US","city":"Ridgway","state":"Pennsylvania","state_ab":"PA","county":"Elk","geo_location":{ "type": "Point", "coordinates": [-78.7262, 41.3621] }},
{"zip_code":"16430","country":"US","city":"North Springfield","state":"Pennsylvania","state_ab":"PA","county":"Erie","geo_location":{ "type": "Point", "coordinates": [-80.4258, 41.9999] }},
{"zip_code":"16443","country":"US","city":"West Springfield","state":"Pennsylvania","state_ab":"PA","county":"Erie","geo_location":{ "type": "Point", "coordinates": [-80.465, 41.9465] }},
{"zip_code":"16506","country":"US","city":"Erie","state":"Pennsylvania","state_ab":"PA","county":"Erie","geo_location":{ "type": "Point", "coordinates": [-80.1484, 42.0738] }},
{"zip_code":"16533","country":"US","city":"Erie","state":"Pennsylvania","state_ab":"PA","county":"Erie","geo_location":{ "type": "Point", "coordinates": [-80.0649, 42.1827] }},
{"zip_code":"16546","country":"US","city":"Erie","state":"Pennsylvania","state_ab":"PA","county":"Erie","geo_location":{ "type": "Point", "coordinates": [-80.0649, 42.1827] }},
{"zip_code":"15413","country":"US","city":"Allison","state":"Pennsylvania","state_ab":"PA","county":"Fayette","geo_location":{ "type": "Point", "coordinates": [-79.8637, 39.9868] }},
{"zip_code":"15439","country":"US","city":"Gans","state":"Pennsylvania","state_ab":"PA","county":"Fayette","geo_location":{ "type": "Point", "coordinates": [-79.6358, 39.7713] }},
{"zip_code":"15440","country":"US","city":"Gibbon Glade","state":"Pennsylvania","state_ab":"PA","county":"Fayette","geo_location":{ "type": "Point", "coordinates": [-79.5736, 39.7364] }},
{"zip_code":"15466","country":"US","city":"Newell","state":"Pennsylvania","state_ab":"PA","county":"Fayette","geo_location":{ "type": "Point", "coordinates": [-79.8943, 40.0751] }},
{"zip_code":"15480","country":"US","city":"Smock","state":"Pennsylvania","state_ab":"PA","county":"Fayette","geo_location":{ "type": "Point", "coordinates": [-79.7678, 39.9961] }},
{"zip_code":"16353","country":"US","city":"Tionesta","state":"Pennsylvania","state_ab":"PA","county":"Forest","geo_location":{ "type": "Point", "coordinates": [-79.3663, 41.5116] }},
{"zip_code":"16689","country":"US","city":"Waterfall","state":"Pennsylvania","state_ab":"PA","county":"Fulton","geo_location":{ "type": "Point", "coordinates": [-78.1223, 39.9438] }},
{"zip_code":"15310","country":"US","city":"Aleppo","state":"Pennsylvania","state_ab":"PA","county":"Greene","geo_location":{ "type": "Point", "coordinates": [-80.4579, 39.8246] }},
{"zip_code":"15349","country":"US","city":"Mount Morris","state":"Pennsylvania","state_ab":"PA","county":"Greene","geo_location":{ "type": "Point", "coordinates": [-80.0246, 39.774] }},
{"zip_code":"16623","country":"US","city":"Cassville","state":"Pennsylvania","state_ab":"PA","county":"Huntingdon","geo_location":{ "type": "Point", "coordinates": [-78.0272, 40.294] }},
{"zip_code":"17060","country":"US","city":"Mill Creek","state":"Pennsylvania","state_ab":"PA","county":"Huntingdon","geo_location":{ "type": "Point", "coordinates": [-77.8967, 40.4679] }},
{"zip_code":"17213","country":"US","city":"Blairs Mills","state":"Pennsylvania","state_ab":"PA","county":"Huntingdon","geo_location":{ "type": "Point", "coordinates": [-77.7695, 40.2548] }},
{"zip_code":"17239","country":"US","city":"Neelyton","state":"Pennsylvania","state_ab":"PA","county":"Huntingdon","geo_location":{ "type": "Point", "coordinates": [-77.858, 40.1371] }},
{"zip_code":"17253","country":"US","city":"Saltillo","state":"Pennsylvania","state_ab":"PA","county":"Huntingdon","geo_location":{ "type": "Point", "coordinates": [-78.0069, 40.2133] }},
{"zip_code":"15710","country":"US","city":"Alverda","state":"Pennsylvania","state_ab":"PA","county":"Indiana","geo_location":{ "type": "Point", "coordinates": [-78.8723, 40.6333] }},
{"zip_code":"15723","country":"US","city":"Chambersville","state":"Pennsylvania","state_ab":"PA","county":"Indiana","geo_location":{ "type": "Point", "coordinates": [-79.1615, 40.7056] }},
{"zip_code":"15750","country":"US","city":"Josephine","state":"Pennsylvania","state_ab":"PA","county":"Indiana","geo_location":{ "type": "Point", "coordinates": [-79.185, 40.4828] }},
{"zip_code":"15763","country":"US","city":"Northpoint","state":"Pennsylvania","state_ab":"PA","county":"Indiana","geo_location":{ "type": "Point", "coordinates": [-79.1257, 40.9037] }},
{"zip_code":"15929","country":"US","city":"Dilltown","state":"Pennsylvania","state_ab":"PA","county":"Indiana","geo_location":{ "type": "Point", "coordinates": [-79.0128, 40.4625] }},
{"zip_code":"15776","country":"US","city":"Sprankle Mills","state":"Pennsylvania","state_ab":"PA","county":"Jefferson","geo_location":{ "type": "Point", "coordinates": [-79.114, 41.0133] }},
{"zip_code":"15840","country":"US","city":"Falls Creek","state":"Pennsylvania","state_ab":"PA","county":"Jefferson","geo_location":{ "type": "Point", "coordinates": [-78.8128, 41.1455] }},
{"zip_code":"17059","country":"US","city":"Mifflintown","state":"Pennsylvania","state_ab":"PA","county":"Juniata","geo_location":{ "type": "Point", "coordinates": [-77.3761, 40.5727] }},
{"zip_code":"17086","country":"US","city":"Richfield","state":"Pennsylvania","state_ab":"PA","county":"Juniata","geo_location":{ "type": "Point", "coordinates": [-77.1223, 40.6884] }},
{"zip_code":"18410","country":"US","city":"Chinchilla","state":"Pennsylvania","state_ab":"PA","county":"Lackawanna","geo_location":{ "type": "Point", "coordinates": [-75.6933, 41.4865] }},
{"zip_code":"18540","country":"US","city":"Scranton","state":"Pennsylvania","state_ab":"PA","county":"Lackawanna","geo_location":{ "type": "Point", "coordinates": [-75.6376, 41.4019] }},
{"zip_code":"17509","country":"US","city":"Christiana","state":"Pennsylvania","state_ab":"PA","county":"Lancaster","geo_location":{ "type": "Point", "coordinates": [-76.0401, 39.904] }},
{"zip_code":"17536","country":"US","city":"Kirkwood","state":"Pennsylvania","state_ab":"PA","county":"Lancaster","geo_location":{ "type": "Point", "coordinates": [-76.0933, 39.8257] }},
{"zip_code":"17549","country":"US","city":"Martindale","state":"Pennsylvania","state_ab":"PA","county":"Lancaster","geo_location":{ "type": "Point", "coordinates": [-76.0876, 40.1545] }},
{"zip_code":"17550","country":"US","city":"Maytown","state":"Pennsylvania","state_ab":"PA","county":"Lancaster","geo_location":{ "type": "Point", "coordinates": [-76.5778, 40.0721] }},
{"zip_code":"17563","country":"US","city":"Peach Bottom","state":"Pennsylvania","state_ab":"PA","county":"Lancaster","geo_location":{ "type": "Point", "coordinates": [-76.1791, 39.7705] }},
{"zip_code":"17576","country":"US","city":"Smoketown","state":"Pennsylvania","state_ab":"PA","county":"Lancaster","geo_location":{ "type": "Point", "coordinates": [-76.1969, 40.0376] }},
{"zip_code":"16120","country":"US","city":"Enon Valley","state":"Pennsylvania","state_ab":"PA","county":"Lawrence","geo_location":{ "type": "Point", "coordinates": [-80.4612, 40.8721] }},
{"zip_code":"16160","country":"US","city":"West Pittsburg","state":"Pennsylvania","state_ab":"PA","county":"Lawrence","geo_location":{ "type": "Point", "coordinates": [-80.3611, 40.9301] }},
{"zip_code":"17046","country":"US","city":"Lebanon","state":"Pennsylvania","state_ab":"PA","county":"Lebanon","geo_location":{ "type": "Point", "coordinates": [-76.4368, 40.3812] }},
{"zip_code":"17073","country":"US","city":"Newmanstown","state":"Pennsylvania","state_ab":"PA","county":"Lebanon","geo_location":{ "type": "Point", "coordinates": [-76.2605, 40.3141] }},
{"zip_code":"18036","country":"US","city":"Coopersburg","state":"Pennsylvania","state_ab":"PA","county":"Lehigh","geo_location":{ "type": "Point", "coordinates": [-75.3888, 40.5076] }},
{"zip_code":"18049","country":"US","city":"Emmaus","state":"Pennsylvania","state_ab":"PA","county":"Lehigh","geo_location":{ "type": "Point", "coordinates": [-75.501, 40.5293] }},
{"zip_code":"18243","country":"US","city":"Pardeesville","state":"Pennsylvania","state_ab":"PA","county":"Luzerne","geo_location":{ "type": "Point", "coordinates": [-75.9661, 41.0017] }},
{"zip_code":"18256","country":"US","city":"Weston","state":"Pennsylvania","state_ab":"PA","county":"Luzerne","geo_location":{ "type": "Point", "coordinates": [-76.1452, 40.9448] }},
{"zip_code":"18643","country":"US","city":"Pittston","state":"Pennsylvania","state_ab":"PA","county":"Luzerne","geo_location":{ "type": "Point", "coordinates": [-75.8362, 41.3665] }},
{"zip_code":"18656","country":"US","city":"Sweet Valley","state":"Pennsylvania","state_ab":"PA","county":"Luzerne","geo_location":{ "type": "Point", "coordinates": [-76.1339, 41.3066] }},
{"zip_code":"18706","country":"US","city":"Wilkes Barre","state":"Pennsylvania","state_ab":"PA","county":"Luzerne","geo_location":{ "type": "Point", "coordinates": [-75.9113, 41.2044] }},
{"zip_code":"18773","country":"US","city":"Wilkes Barre","state":"Pennsylvania","state_ab":"PA","county":"Luzerne","geo_location":{ "type": "Point", "coordinates": [-75.8801, 41.2722] }},
{"zip_code":"17703","country":"US","city":"Williamsport","state":"Pennsylvania","state_ab":"PA","county":"Lycoming","geo_location":{ "type": "Point", "coordinates": [-77.0236, 41.3327] }},
{"zip_code":"17756","country":"US","city":"Muncy","state":"Pennsylvania","state_ab":"PA","county":"Lycoming","geo_location":{ "type": "Point", "coordinates": [-76.7633, 41.2137] }},
{"zip_code":"17769","country":"US","city":"Slate Run","state":"Pennsylvania","state_ab":"PA","county":"Lycoming","geo_location":{ "type": "Point", "coordinates": [-77.0236, 41.3327] }},
{"zip_code":"16726","country":"US","city":"Cyclone","state":"Pennsylvania","state_ab":"PA","county":"McKean","geo_location":{ "type": "Point", "coordinates": [-78.5957, 41.8186] }},
{"zip_code":"16740","country":"US","city":"Mount Jewett","state":"Pennsylvania","state_ab":"PA","county":"McKean","geo_location":{ "type": "Point", "coordinates": [-78.6446, 41.7247] }},
{"zip_code":"16133","country":"US","city":"Jackson Center","state":"Pennsylvania","state_ab":"PA","county":"Mercer","geo_location":{ "type": "Point", "coordinates": [-80.1037, 41.2801] }},
{"zip_code":"16146","country":"US","city":"Sharon","state":"Pennsylvania","state_ab":"PA","county":"Mercer","geo_location":{ "type": "Point", "coordinates": [-80.4993, 41.2316] }},
{"zip_code":"16159","country":"US","city":"West Middlesex","state":"Pennsylvania","state_ab":"PA","county":"Mercer","geo_location":{ "type": "Point", "coordinates": [-80.4528, 41.1741] }},
{"zip_code":"17099","country":"US","city":"Yeagertown","state":"Pennsylvania","state_ab":"PA","county":"Mifflin","geo_location":{ "type": "Point", "coordinates": [-77.5757, 40.6452] }},
{"zip_code":"18320","country":"US","city":"Analomink","state":"Pennsylvania","state_ab":"PA","county":"Monroe","geo_location":{ "type": "Point", "coordinates": [-75.2364, 41.0712] }},
{"zip_code":"18333","country":"US","city":"Kresgeville","state":"Pennsylvania","state_ab":"PA","county":"Monroe","geo_location":{ "type": "Point", "coordinates": [-75.5074, 40.8982] }},
{"zip_code":"18346","country":"US","city":"Pocono Summit","state":"Pennsylvania","state_ab":"PA","county":"Monroe","geo_location":{ "type": "Point", "coordinates": [-75.4079, 41.1353] }},
{"zip_code":"18360","country":"US","city":"Stroudsburg","state":"Pennsylvania","state_ab":"PA","county":"Monroe","geo_location":{ "type": "Point", "coordinates": [-75.2485, 40.9877] }},
{"zip_code":"18076","country":"US","city":"Red Hill","state":"Pennsylvania","state_ab":"PA","county":"Montgomery","geo_location":{ "type": "Point", "coordinates": [-75.4846, 40.3758] }},
{"zip_code":"18979","country":"US","city":"Woxall","state":"Pennsylvania","state_ab":"PA","county":"Montgomery","geo_location":{ "type": "Point", "coordinates": [-75.3559, 40.2119] }},
{"zip_code":"19040","country":"US","city":"Hatboro","state":"Pennsylvania","state_ab":"PA","county":"Montgomery","geo_location":{ "type": "Point", "coordinates": [-75.1072, 40.1785] }},
{"zip_code":"19066","country":"US","city":"Merion Station","state":"Pennsylvania","state_ab":"PA","county":"Montgomery","geo_location":{ "type": "Point", "coordinates": [-75.2503, 40.003] }},
{"zip_code":"19426","country":"US","city":"Collegeville","state":"Pennsylvania","state_ab":"PA","county":"Montgomery","geo_location":{ "type": "Point", "coordinates": [-75.4373, 40.1913] }},
{"zip_code":"19440","country":"US","city":"Hatfield","state":"Pennsylvania","state_ab":"PA","county":"Montgomery","geo_location":{ "type": "Point", "coordinates": [-75.2975, 40.2778] }},
{"zip_code":"19453","country":"US","city":"Mont Clare","state":"Pennsylvania","state_ab":"PA","county":"Montgomery","geo_location":{ "type": "Point", "coordinates": [-75.4999, 40.1364] }},
{"zip_code":"18010","country":"US","city":"Ackermanville","state":"Pennsylvania","state_ab":"PA","county":"Northampton","geo_location":{ "type": "Point", "coordinates": [-75.4712, 40.6934] }},
{"zip_code":"18050","country":"US","city":"Flicksville","state":"Pennsylvania","state_ab":"PA","county":"Northampton","geo_location":{ "type": "Point", "coordinates": [-75.4712, 40.6934] }},
{"zip_code":"18063","country":"US","city":"Martins Creek","state":"Pennsylvania","state_ab":"PA","county":"Northampton","geo_location":{ "type": "Point", "coordinates": [-75.1735, 40.7825] }},
{"zip_code":"17730","country":"US","city":"Dewart","state":"Pennsylvania","state_ab":"PA","county":"Northumberland","geo_location":{ "type": "Point", "coordinates": [-76.8775, 41.1089] }},
{"zip_code":"17860","country":"US","city":"Paxinos","state":"Pennsylvania","state_ab":"PA","county":"Northumberland","geo_location":{ "type": "Point", "coordinates": [-76.635, 40.8448] }},
{"zip_code":"17006","country":"US","city":"Blain","state":"Pennsylvania","state_ab":"PA","county":"Perry","geo_location":{ "type": "Point", "coordinates": [-77.5117, 40.3293] }},
{"zip_code":"17020","country":"US","city":"Duncannon","state":"Pennsylvania","state_ab":"PA","county":"Perry","geo_location":{ "type": "Point", "coordinates": [-77.0473, 40.4087] }},
{"zip_code":"19093","country":"US","city":"Philadelphia","state":"Pennsylvania","state_ab":"PA","county":"Philadelphia","geo_location":{ "type": "Point", "coordinates": [-75.1179, 40.0018] }},
{"zip_code":"19103","country":"US","city":"Philadelphia","state":"Pennsylvania","state_ab":"PA","county":"Philadelphia","geo_location":{ "type": "Point", "coordinates": [-75.1741, 39.9513] }},
{"zip_code":"19116","country":"US","city":"Philadelphia","state":"Pennsylvania","state_ab":"PA","county":"Philadelphia","geo_location":{ "type": "Point", "coordinates": [-75.0198, 40.1166] }},
{"zip_code":"19129","country":"US","city":"Philadelphia","state":"Pennsylvania","state_ab":"PA","county":"Philadelphia","geo_location":{ "type": "Point", "coordinates": [-75.1861, 40.0118] }},
{"zip_code":"19130","country":"US","city":"Philadelphia","state":"Pennsylvania","state_ab":"PA","county":"Philadelphia","geo_location":{ "type": "Point", "coordinates": [-75.1735, 39.9677] }},
{"zip_code":"19143","country":"US","city":"Philadelphia","state":"Pennsylvania","state_ab":"PA","county":"Philadelphia","geo_location":{ "type": "Point", "coordinates": [-75.2288, 39.9448] }},
{"zip_code":"19170","country":"US","city":"Philadelphia","state":"Pennsylvania","state_ab":"PA","county":"Philadelphia","geo_location":{ "type": "Point", "coordinates": [-75.1179, 40.0018] }},
{"zip_code":"19183","country":"US","city":"Philadelphia","state":"Pennsylvania","state_ab":"PA","county":"Philadelphia","geo_location":{ "type": "Point", "coordinates": [-75.1179, 40.0018] }},
{"zip_code":"19196","country":"US","city":"Philadelphia","state":"Pennsylvania","state_ab":"PA","county":"Philadelphia","geo_location":{ "type": "Point", "coordinates": [-75.1179, 40.0018] }},
{"zip_code":"18373","country":"US","city":"Unity House","state":"Pennsylvania","state_ab":"PA","county":"Pike","geo_location":{ "type": "Point", "coordinates": [-75.0241, 41.3409] }},
{"zip_code":"17729","country":"US","city":"Cross Fork","state":"Pennsylvania","state_ab":"PA","county":"Potter","geo_location":{ "type": "Point", "coordinates": [-77.8095, 41.4737] }},
{"zip_code":"17923","country":"US","city":"Branchdale","state":"Pennsylvania","state_ab":"PA","county":"Schuylkill","geo_location":{ "type": "Point", "coordinates": [-76.3328, 40.6643] }},
{"zip_code":"17936","country":"US","city":"Gordon","state":"Pennsylvania","state_ab":"PA","county":"Schuylkill","geo_location":{ "type": "Point", "coordinates": [-76.3355, 40.7489] }},
{"zip_code":"17949","country":"US","city":"Mahanoy Plane","state":"Pennsylvania","state_ab":"PA","county":"Schuylkill","geo_location":{ "type": "Point", "coordinates": [-76.2433, 40.794] }},
{"zip_code":"17963","country":"US","city":"Pine Grove","state":"Pennsylvania","state_ab":"PA","county":"Schuylkill","geo_location":{ "type": "Point", "coordinates": [-76.3269, 40.5671] }},
{"zip_code":"17976","country":"US","city":"Shenandoah","state":"Pennsylvania","state_ab":"PA","county":"Schuylkill","geo_location":{ "type": "Point", "coordinates": [-76.2035, 40.8167] }},
{"zip_code":"17833","country":"US","city":"Kreamer","state":"Pennsylvania","state_ab":"PA","county":"Snyder","geo_location":{ "type": "Point", "coordinates": [-77.0775, 40.7627] }},
{"zip_code":"15530","country":"US","city":"Berlin","state":"Pennsylvania","state_ab":"PA","county":"Somerset","geo_location":{ "type": "Point", "coordinates": [-78.9637, 39.9188] }},
{"zip_code":"17770","country":"US","city":"Sonestown","state":"Pennsylvania","state_ab":"PA","county":"Sullivan County","geo_location":{ "type": "Point", "coordinates": [-76.5543, 41.3536] }},
{"zip_code":"18616","country":"US","city":"Forksville","state":"Pennsylvania","state_ab":"PA","county":"Sullivan","geo_location":{ "type": "Point", "coordinates": [-76.6008, 41.5269] }},
{"zip_code":"18823","country":"US","city":"Harford","state":"Pennsylvania","state_ab":"PA","county":"Susquehanna","geo_location":{ "type": "Point", "coordinates": [-75.6935, 41.7761] }},
{"zip_code":"16920","country":"US","city":"Elkland","state":"Pennsylvania","state_ab":"PA","county":"Tioga","geo_location":{ "type": "Point", "coordinates": [-77.3134, 41.9882] }},
{"zip_code":"16933","country":"US","city":"Mansfield","state":"Pennsylvania","state_ab":"PA","county":"Tioga","geo_location":{ "type": "Point", "coordinates": [-77.0716, 41.8123] }},
{"zip_code":"16946","country":"US","city":"Tioga","state":"Pennsylvania","state_ab":"PA","county":"Tioga","geo_location":{ "type": "Point", "coordinates": [-77.1393, 41.9125] }},
{"zip_code":"17886","country":"US","city":"West Milton","state":"Pennsylvania","state_ab":"PA","county":"Union","geo_location":{ "type": "Point", "coordinates": [-76.8708, 41.0179] }},
{"zip_code":"16313","country":"US","city":"Clarendon","state":"Pennsylvania","state_ab":"PA","county":"Warren","geo_location":{ "type": "Point", "coordinates": [-79.1719, 41.7302] }},
{"zip_code":"16340","country":"US","city":"Pittsfield","state":"Pennsylvania","state_ab":"PA","county":"Warren","geo_location":{ "type": "Point", "coordinates": [-79.4196, 41.8366] }},
{"zip_code":"16366","country":"US","city":"Warren","state":"Pennsylvania","state_ab":"PA","county":"Warren","geo_location":{ "type": "Point", "coordinates": [-79.2643, 41.8117] }},
{"zip_code":"16416","country":"US","city":"Garland","state":"Pennsylvania","state_ab":"PA","county":"Warren","geo_location":{ "type": "Point", "coordinates": [-79.4463, 41.8188] }},
{"zip_code":"15053","country":"US","city":"Joffre","state":"Pennsylvania","state_ab":"PA","county":"Washington","geo_location":{ "type": "Point", "coordinates": [-80.3605, 40.38] }},
{"zip_code":"15323","country":"US","city":"Claysville","state":"Pennsylvania","state_ab":"PA","county":"Washington","geo_location":{ "type": "Point", "coordinates": [-80.3859, 40.1376] }},
{"zip_code":"15336","country":"US","city":"Gastonville","state":"Pennsylvania","state_ab":"PA","county":"Washington","geo_location":{ "type": "Point", "coordinates": [-79.9927, 40.2601] }},
{"zip_code":"15350","country":"US","city":"Muse","state":"Pennsylvania","state_ab":"PA","county":"Washington","geo_location":{ "type": "Point", "coordinates": [-80.2005, 40.2937] }},
{"zip_code":"15363","country":"US","city":"Strabane","state":"Pennsylvania","state_ab":"PA","county":"Washington","geo_location":{ "type": "Point", "coordinates": [-80.1984, 40.2505] }},
{"zip_code":"15376","country":"US","city":"West Alexander","state":"Pennsylvania","state_ab":"PA","county":"Washington","geo_location":{ "type": "Point", "coordinates": [-80.4978, 40.1065] }},
{"zip_code":"18436","country":"US","city":"Lake Ariel","state":"Pennsylvania","state_ab":"PA","county":"Wayne","geo_location":{ "type": "Point", "coordinates": [-75.4313, 41.4395] }},
{"zip_code":"18449","country":"US","city":"Orson","state":"Pennsylvania","state_ab":"PA","county":"Wayne","geo_location":{ "type": "Point", "coordinates": [-75.2747, 41.616] }},
{"zip_code":"18463","country":"US","city":"Sterling","state":"Pennsylvania","state_ab":"PA","county":"Wayne","geo_location":{ "type": "Point", "coordinates": [-75.316, 41.377] }},
{"zip_code":"15479","country":"US","city":"Smithton","state":"Pennsylvania","state_ab":"PA","county":"Westmoreland","geo_location":{ "type": "Point", "coordinates": [-79.7381, 40.1553] }},
{"zip_code":"15606","country":"US","city":"Greensburg","state":"Pennsylvania","state_ab":"PA","county":"Westmoreland","geo_location":{ "type": "Point", "coordinates": [-79.4398, 40.3602] }},
{"zip_code":"15619","country":"US","city":"Bovard","state":"Pennsylvania","state_ab":"PA","county":"Westmoreland","geo_location":{ "type": "Point", "coordinates": [-79.4398, 40.3602] }},
{"zip_code":"15620","country":"US","city":"Bradenville","state":"Pennsylvania","state_ab":"PA","county":"Westmoreland","geo_location":{ "type": "Point", "coordinates": [-79.3434, 40.3238] }},
{"zip_code":"15633","country":"US","city":"Forbes Road","state":"Pennsylvania","state_ab":"PA","county":"Westmoreland","geo_location":{ "type": "Point", "coordinates": [-79.5225, 40.3575] }},
{"zip_code":"15646","country":"US","city":"Jones Mills","state":"Pennsylvania","state_ab":"PA","county":"Westmoreland","geo_location":{ "type": "Point", "coordinates": [-79.4398, 40.3602] }},
{"zip_code":"15660","country":"US","city":"Lowber","state":"Pennsylvania","state_ab":"PA","county":"Westmoreland","geo_location":{ "type": "Point", "coordinates": [-79.7646, 40.2488] }},
{"zip_code":"18629","country":"US","city":"Mehoopany","state":"Pennsylvania","state_ab":"PA","county":"Wyoming","geo_location":{ "type": "Point", "coordinates": [-76.1035, 41.5587] }},
{"zip_code":"18630","country":"US","city":"Meshoppen","state":"Pennsylvania","state_ab":"PA","county":"Wyoming","geo_location":{ "type": "Point", "coordinates": [-76.0155, 41.6392] }},
{"zip_code":"17019","country":"US","city":"Dillsburg","state":"Pennsylvania","state_ab":"PA","county":"York","geo_location":{ "type": "Point", "coordinates": [-77.0339, 40.0964] }},
{"zip_code":"17329","country":"US","city":"Glenville","state":"Pennsylvania","state_ab":"PA","county":"York","geo_location":{ "type": "Point", "coordinates": [-76.8777, 39.7669] }},
{"zip_code":"17356","country":"US","city":"Red Lion","state":"Pennsylvania","state_ab":"PA","county":"York","geo_location":{ "type": "Point", "coordinates": [-76.6081, 39.9026] }},
{"zip_code":"17370","country":"US","city":"York Haven","state":"Pennsylvania","state_ab":"PA","county":"York","geo_location":{ "type": "Point", "coordinates": [-76.7737, 40.1222] }},
{"zip_code":"17406","country":"US","city":"York","state":"Pennsylvania","state_ab":"PA","county":"York","geo_location":{ "type": "Point", "coordinates": [-76.5947, 40.0046] }},
{"zip_code":"2893","country":"US","city":"West Warwick","state":"Rhode Island","state_ab":"RI","county":"Kent","geo_location":{ "type": "Point", "coordinates": [-71.5183, 41.7004] }},
{"zip_code":"2840","country":"US","city":"Newport","state":"Rhode Island","state_ab":"RI","county":"Newport","geo_location":{ "type": "Point", "coordinates": [-71.3271, 41.4876] }},
{"zip_code":"2826","country":"US","city":"Glendale","state":"Rhode Island","state_ab":"RI","county":"Providence","geo_location":{ "type": "Point", "coordinates": [-71.6008, 41.9824] }},
{"zip_code":"2839","country":"US","city":"Mapleville","state":"Rhode Island","state_ab":"RI","county":"Providence","geo_location":{ "type": "Point", "coordinates": [-71.6376, 41.9417] }},
{"zip_code":"2903","country":"US","city":"Providence","state":"Rhode Island","state_ab":"RI","county":"Providence","geo_location":{ "type": "Point", "coordinates": [-71.4158, 41.82] }},
{"zip_code":"2916","country":"US","city":"Rumford","state":"Rhode Island","state_ab":"RI","county":"Providence","geo_location":{ "type": "Point", "coordinates": [-71.3559, 41.8425] }},
{"zip_code":"2813","country":"US","city":"Charlestown","state":"Rhode Island","state_ab":"RI","county":"Washington","geo_location":{ "type": "Point", "coordinates": [-71.6615, 41.4007] }},
{"zip_code":"2879","country":"US","city":"Wakefield","state":"Rhode Island","state_ab":"RI","county":"Washington","geo_location":{ "type": "Point", "coordinates": [-71.5342, 41.4437] }},
{"zip_code":"2880","country":"US","city":"Wakefield","state":"Rhode Island","state_ab":"RI","county":"Washington","geo_location":{ "type": "Point", "coordinates": [-71.6439, 41.3753] }},
{"zip_code":"29803","country":"US","city":"Aiken","state":"South Carolina","state_ab":"SC","county":"Aiken","geo_location":{ "type": "Point", "coordinates": [-81.6951, 33.5059] }},
{"zip_code":"29816","country":"US","city":"Bath","state":"South Carolina","state_ab":"SC","county":"Aiken","geo_location":{ "type": "Point", "coordinates": [-81.8509, 33.497] }},
{"zip_code":"29829","country":"US","city":"Graniteville","state":"South Carolina","state_ab":"SC","county":"Aiken","geo_location":{ "type": "Point", "coordinates": [-81.8147, 33.563] }},
{"zip_code":"29856","country":"US","city":"Windsor","state":"South Carolina","state_ab":"SC","county":"Aiken","geo_location":{ "type": "Point", "coordinates": [-81.5136, 33.4674] }},
{"zip_code":"29623","country":"US","city":"Anderson","state":"South Carolina","state_ab":"SC","county":"Anderson","geo_location":{ "type": "Point", "coordinates": [-82.8354, 34.4381] }},
{"zip_code":"29689","country":"US","city":"Townville","state":"South Carolina","state_ab":"SC","county":"Anderson","geo_location":{ "type": "Point", "coordinates": [-82.8963, 34.5226] }},
{"zip_code":"29003","country":"US","city":"Bamberg","state":"South Carolina","state_ab":"SC","county":"Bamberg","geo_location":{ "type": "Point", "coordinates": [-81.0177, 33.2779] }},
{"zip_code":"29843","country":"US","city":"Olar","state":"South Carolina","state_ab":"SC","county":"Bamberg","geo_location":{ "type": "Point", "coordinates": [-81.164, 33.1836] }},
{"zip_code":"29906","country":"US","city":"Beaufort","state":"South Carolina","state_ab":"SC","county":"Beaufort","geo_location":{ "type": "Point", "coordinates": [-80.7603, 32.3823] }},
{"zip_code":"29920","country":"US","city":"Saint Helena Island","state":"South Carolina","state_ab":"SC","county":"Beaufort","geo_location":{ "type": "Point", "coordinates": [-80.5383, 32.3716] }},
{"zip_code":"29430","country":"US","city":"Bethera","state":"South Carolina","state_ab":"SC","county":"Berkeley","geo_location":{ "type": "Point", "coordinates": [-79.8169, 33.2146] }},
{"zip_code":"29456","country":"US","city":"Ladson","state":"South Carolina","state_ab":"SC","county":"Berkeley","geo_location":{ "type": "Point", "coordinates": [-80.1257, 32.993] }},
{"zip_code":"29469","country":"US","city":"Pinopolis","state":"South Carolina","state_ab":"SC","county":"Berkeley","geo_location":{ "type": "Point", "coordinates": [-80.0398, 33.2241] }},
{"zip_code":"29030","country":"US","city":"Cameron","state":"South Carolina","state_ab":"SC","county":"Calhoun","geo_location":{ "type": "Point", "coordinates": [-80.7081, 33.5703] }},
{"zip_code":"29403","country":"US","city":"Charleston","state":"South Carolina","state_ab":"SC","county":"Charleston","geo_location":{ "type": "Point", "coordinates": [-79.9493, 32.7976] }},
{"zip_code":"29416","country":"US","city":"Charleston","state":"South Carolina","state_ab":"SC","county":"Charleston","geo_location":{ "type": "Point", "coordinates": [-79.8577, 32.8488] }},
{"zip_code":"29429","country":"US","city":"Awendaw","state":"South Carolina","state_ab":"SC","county":"Charleston","geo_location":{ "type": "Point", "coordinates": [-79.6561, 33.0063] }},
{"zip_code":"29470","country":"US","city":"Ravenel","state":"South Carolina","state_ab":"SC","county":"Charleston","geo_location":{ "type": "Point", "coordinates": [-80.2223, 32.7881] }},
{"zip_code":"29340","country":"US","city":"Gaffney","state":"South Carolina","state_ab":"SC","county":"Cherokee","geo_location":{ "type": "Point", "coordinates": [-81.6491, 35.0615] }},
{"zip_code":"29520","country":"US","city":"Cheraw","state":"South Carolina","state_ab":"SC","county":"Chesterfield","geo_location":{ "type": "Point", "coordinates": [-79.9174, 34.6863] }},
{"zip_code":"29069","country":"US","city":"Lamar","state":"South Carolina","state_ab":"SC","county":"Darlington","geo_location":{ "type": "Point", "coordinates": [-80.0963, 34.1862] }},
{"zip_code":"29573","country":"US","city":"Minturn","state":"South Carolina","state_ab":"SC","county":"Dillon","geo_location":{ "type": "Point", "coordinates": [-79.4769, 34.4883] }},
{"zip_code":"29483","country":"US","city":"Summerville","state":"South Carolina","state_ab":"SC","county":"Dorchester","geo_location":{ "type": "Point", "coordinates": [-80.1739, 33.028] }},
{"zip_code":"29106","country":"US","city":"Monticello","state":"South Carolina","state_ab":"SC","county":"Fairfield","geo_location":{ "type": "Point", "coordinates": [-81.0987, 34.3736] }},
{"zip_code":"29506","country":"US","city":"Florence","state":"South Carolina","state_ab":"SC","county":"Florence","geo_location":{ "type": "Point", "coordinates": [-79.6468, 34.2153] }},
{"zip_code":"29560","country":"US","city":"Lake City","state":"South Carolina","state_ab":"SC","county":"Florence","geo_location":{ "type": "Point", "coordinates": [-79.7418, 33.8655] }},
{"zip_code":"29609","country":"US","city":"Greenville","state":"South Carolina","state_ab":"SC","county":"Greenville","geo_location":{ "type": "Point", "coordinates": [-82.4002, 34.8921] }},
{"zip_code":"29610","country":"US","city":"Greenville","state":"South Carolina","state_ab":"SC","county":"Greenville","geo_location":{ "type": "Point", "coordinates": [-82.4538, 34.8497] }},
{"zip_code":"29636","country":"US","city":"Conestee","state":"South Carolina","state_ab":"SC","county":"Greenville","geo_location":{ "type": "Point", "coordinates": [-82.4538, 34.8497] }},
{"zip_code":"29650","country":"US","city":"Greer","state":"South Carolina","state_ab":"SC","county":"Greenville","geo_location":{ "type": "Point", "coordinates": [-82.2674, 34.8968] }},
{"zip_code":"29690","country":"US","city":"Travelers Rest","state":"South Carolina","state_ab":"SC","county":"Greenville","geo_location":{ "type": "Point", "coordinates": [-82.4272, 35.0039] }},
{"zip_code":"29649","country":"US","city":"Greenwood","state":"South Carolina","state_ab":"SC","county":"Greenwood","geo_location":{ "type": "Point", "coordinates": [-82.1582, 34.223] }},
{"zip_code":"29933","country":"US","city":"Miley","state":"South Carolina","state_ab":"SC","county":"Hampton","geo_location":{ "type": "Point", "coordinates": [-81.1269, 32.7888] }},
{"zip_code":"29070","country":"US","city":"Leesville","state":"South Carolina","state_ab":"SC","county":"Lexington","geo_location":{ "type": "Point", "coordinates": [-81.4598, 33.9132] }},
{"zip_code":"29160","country":"US","city":"Swansea","state":"South Carolina","state_ab":"SC","county":"Lexington","geo_location":{ "type": "Point", "coordinates": [-81.0933, 33.7339] }},
{"zip_code":"29519","country":"US","city":"Centenary","state":"South Carolina","state_ab":"SC","county":"Marion","geo_location":{ "type": "Point", "coordinates": [-79.3537, 34.027] }},
{"zip_code":"29546","country":"US","city":"Gresham","state":"South Carolina","state_ab":"SC","county":"Marion","geo_location":{ "type": "Point", "coordinates": [-79.3564, 33.9069] }},
{"zip_code":"29676","country":"US","city":"Salem","state":"South Carolina","state_ab":"SC","county":"Oconee","geo_location":{ "type": "Point", "coordinates": [-82.9607, 34.8728] }},
{"zip_code":"29133","country":"US","city":"Rowesville","state":"South Carolina","state_ab":"SC","county":"Orangeburg","geo_location":{ "type": "Point", "coordinates": [-80.8331, 33.3703] }},
{"zip_code":"29146","country":"US","city":"Springfield","state":"South Carolina","state_ab":"SC","county":"Orangeburg","geo_location":{ "type": "Point", "coordinates": [-81.2499, 33.5343] }},
{"zip_code":"29016","country":"US","city":"Blythewood","state":"South Carolina","state_ab":"SC","county":"Richland","geo_location":{ "type": "Point", "coordinates": [-80.9758, 34.1911] }},
{"zip_code":"29209","country":"US","city":"Columbia","state":"South Carolina","state_ab":"SC","county":"Richland","geo_location":{ "type": "Point", "coordinates": [-80.9355, 33.9659] }},
{"zip_code":"29210","country":"US","city":"Columbia","state":"South Carolina","state_ab":"SC","county":"Richland","geo_location":{ "type": "Point", "coordinates": [-81.1101, 34.0479] }},
{"zip_code":"29223","country":"US","city":"Columbia","state":"South Carolina","state_ab":"SC","county":"Richland","geo_location":{ "type": "Point", "coordinates": [-80.9167, 34.0853] }},
{"zip_code":"29250","country":"US","city":"Columbia","state":"South Carolina","state_ab":"SC","county":"Richland","geo_location":{ "type": "Point", "coordinates": [-80.9708, 34.006] }},
{"zip_code":"29290","country":"US","city":"Columbia","state":"South Carolina","state_ab":"SC","county":"Richland","geo_location":{ "type": "Point", "coordinates": [-80.9708, 34.006] }},
{"zip_code":"29353","country":"US","city":"Jonesville","state":"South Carolina","state_ab":"SC","county":"Union","geo_location":{ "type": "Point", "coordinates": [-81.6431, 34.8125] }},
{"zip_code":"29379","country":"US","city":"Union","state":"South Carolina","state_ab":"SC","county":"Union","geo_location":{ "type": "Point", "coordinates": [-81.6202, 34.7269] }},
{"zip_code":"29056","country":"US","city":"Greeleyville","state":"South Carolina","state_ab":"SC","county":"Williamsburg","geo_location":{ "type": "Point", "coordinates": [-79.9802, 33.5966] }},
{"zip_code":"29726","country":"US","city":"Mc Connells","state":"South Carolina","state_ab":"SC","county":"York","geo_location":{ "type": "Point", "coordinates": [-81.2368, 34.8677] }},
{"zip_code":"57383","country":"US","city":"White Lake","state":"South Dakota","state_ab":"SD","county":"Aurora","geo_location":{ "type": "Point", "coordinates": [-98.7076, 43.7564] }},
{"zip_code":"57059","country":"US","city":"Scotland","state":"South Dakota","state_ab":"SD","county":"Bon Homme","geo_location":{ "type": "Point", "coordinates": [-97.7296, 43.1212] }},
{"zip_code":"57006","country":"US","city":"Brookings","state":"South Dakota","state_ab":"SD","county":"Brookings","geo_location":{ "type": "Point", "coordinates": [-96.7914, 44.3056] }},
{"zip_code":"57433","country":"US","city":"Columbia","state":"South Dakota","state_ab":"SD","county":"Brown","geo_location":{ "type": "Point", "coordinates": [-98.3158, 45.6512] }},
{"zip_code":"57446","country":"US","city":"Hecla","state":"South Dakota","state_ab":"SD","county":"Brown","geo_location":{ "type": "Point", "coordinates": [-98.1918, 45.8725] }},
{"zip_code":"57370","country":"US","city":"Pukwana","state":"South Dakota","state_ab":"SD","county":"Brule","geo_location":{ "type": "Point", "coordinates": [-99.1779, 43.7783] }},
{"zip_code":"57329","country":"US","city":"Dante","state":"South Dakota","state_ab":"SD","county":"Charles Mix","geo_location":{ "type": "Point", "coordinates": [-98.1746, 42.9967] }},
{"zip_code":"57356","country":"US","city":"Lake Andes","state":"South Dakota","state_ab":"SD","county":"Charles Mix","geo_location":{ "type": "Point", "coordinates": [-98.4964, 43.1303] }},
{"zip_code":"57369","country":"US","city":"Platte","state":"South Dakota","state_ab":"SD","county":"Charles Mix","geo_location":{ "type": "Point", "coordinates": [-98.9479, 43.4251] }},
{"zip_code":"57073","country":"US","city":"Wakonda","state":"South Dakota","state_ab":"SD","county":"Clay","geo_location":{ "type": "Point", "coordinates": [-97.0694, 42.996] }},
{"zip_code":"57639","country":"US","city":"Little Eagle","state":"South Dakota","state_ab":"SD","county":"Corson","geo_location":{ "type": "Point", "coordinates": [-101.1546, 45.7084] }},
{"zip_code":"57730","country":"US","city":"Custer","state":"South Dakota","state_ab":"SD","county":"Custer","geo_location":{ "type": "Point", "coordinates": [-103.4258, 43.6573] }},
{"zip_code":"57239","country":"US","city":"Grenville","state":"South Dakota","state_ab":"SD","county":"Day","geo_location":{ "type": "Point", "coordinates": [-97.3092, 45.5097] }},
{"zip_code":"57213","country":"US","city":"Astoria","state":"South Dakota","state_ab":"SD","county":"Deuel","geo_location":{ "type": "Point", "coordinates": [-96.5416, 44.5735] }},
{"zip_code":"57226","country":"US","city":"Clear Lake","state":"South Dakota","state_ab":"SD","county":"Deuel","geo_location":{ "type": "Point", "coordinates": [-96.6907, 44.7612] }},
{"zip_code":"57330","country":"US","city":"Delmont","state":"South Dakota","state_ab":"SD","county":"Douglas","geo_location":{ "type": "Point", "coordinates": [-98.1596, 43.2573] }},
{"zip_code":"57473","country":"US","city":"Seneca","state":"South Dakota","state_ab":"SD","county":"Faulk","geo_location":{ "type": "Point", "coordinates": [-99.461, 45.0262] }},
{"zip_code":"57253","country":"US","city":"Milbank","state":"South Dakota","state_ab":"SD","county":"Grant","geo_location":{ "type": "Point", "coordinates": [-96.8392, 45.1515] }},
{"zip_code":"57523","country":"US","city":"Burke","state":"South Dakota","state_ab":"SD","county":"Gregory","geo_location":{ "type": "Point", "coordinates": [-99.2937, 43.1825] }},
{"zip_code":"57536","country":"US","city":"Harrold","state":"South Dakota","state_ab":"SD","county":"Hughes","geo_location":{ "type": "Point", "coordinates": [-99.7382, 44.5215] }},
{"zip_code":"57316","country":"US","city":"Bancroft","state":"South Dakota","state_ab":"SD","county":"Kingsbury County","geo_location":{ "type": "Point", "coordinates": [-97.76, 44.4922] }},
{"zip_code":"57783","country":"US","city":"Spearfish","state":"South Dakota","state_ab":"SD","county":"Lawrence","geo_location":{ "type": "Point", "coordinates": [-103.865, 44.4946] }},
{"zip_code":"57576","country":"US","city":"Vivian","state":"South Dakota","state_ab":"SD","county":"Lyman","geo_location":{ "type": "Point", "coordinates": [-100.286, 43.9535] }},
{"zip_code":"57626","country":"US","city":"Faith","state":"South Dakota","state_ab":"SD","county":"Meade","geo_location":{ "type": "Point", "coordinates": [-102.0541, 44.9926] }},
{"zip_code":"57769","country":"US","city":"Piedmont","state":"South Dakota","state_ab":"SD","county":"Meade","geo_location":{ "type": "Point", "coordinates": [-103.3688, 44.2287] }},
{"zip_code":"57020","country":"US","city":"Crooks","state":"South Dakota","state_ab":"SD","county":"Minnehaha","geo_location":{ "type": "Point", "coordinates": [-96.8221, 43.6669] }},
{"zip_code":"57033","country":"US","city":"Hartford","state":"South Dakota","state_ab":"SD","county":"Minnehaha","geo_location":{ "type": "Point", "coordinates": [-96.9501, 43.6155] }},
{"zip_code":"57060","country":"US","city":"Sherman","state":"South Dakota","state_ab":"SD","county":"Minnehaha County","geo_location":{ "type": "Point", "coordinates": [-96.5444, 43.7987] }},
{"zip_code":"57109","country":"US","city":"Sioux Falls","state":"South Dakota","state_ab":"SD","county":"Minnehaha","geo_location":{ "type": "Point", "coordinates": [-96.7913, 43.6746] }},
{"zip_code":"57110","country":"US","city":"Sioux Falls","state":"South Dakota","state_ab":"SD","county":"Minnehaha","geo_location":{ "type": "Point", "coordinates": [-96.6332, 43.5486] }},
{"zip_code":"57189","country":"US","city":"Sioux Falls","state":"South Dakota","state_ab":"SD","county":"Minnehaha","geo_location":{ "type": "Point", "coordinates": [-96.7913, 43.6746] }},
{"zip_code":"57190","country":"US","city":"Sioux Falls","state":"South Dakota","state_ab":"SD","county":"Minnehaha County","geo_location":{ "type": "Point", "coordinates": [-96.7231, 43.5444] }},
{"zip_code":"57703","country":"US","city":"Rapid City","state":"South Dakota","state_ab":"SD","county":"Pennington","geo_location":{ "type": "Point", "coordinates": [-103.1763, 44.048] }},
{"zip_code":"57729","country":"US","city":"Creighton","state":"South Dakota","state_ab":"SD","county":"Pennington","geo_location":{ "type": "Point", "coordinates": [-102.177, 44.2831] }},
{"zip_code":"57640","country":"US","city":"Lodgepole","state":"South Dakota","state_ab":"SD","county":"Perkins","geo_location":{ "type": "Point", "coordinates": [-102.7599, 45.8232] }},
{"zip_code":"57653","country":"US","city":"Shadehill","state":"South Dakota","state_ab":"SD","county":"Perkins","geo_location":{ "type": "Point", "coordinates": [-102.1891, 45.6699] }},
{"zip_code":"57266","country":"US","city":"Summit","state":"South Dakota","state_ab":"SD","county":"Roberts","geo_location":{ "type": "Point", "coordinates": [-97.0427, 45.3521] }},
{"zip_code":"57279","country":"US","city":"Wilmot","state":"South Dakota","state_ab":"SD","county":"Roberts","geo_location":{ "type": "Point", "coordinates": [-96.856, 45.4125] }},
{"zip_code":"57716","country":"US","city":"Batesland","state":"South Dakota","state_ab":"SD","county":"Shannon","geo_location":{ "type": "Point", "coordinates": [-102.2006, 43.1085] }},
{"zip_code":"57756","country":"US","city":"Manderson","state":"South Dakota","state_ab":"SD","county":"Shannon","geo_location":{ "type": "Point", "coordinates": [-102.5411, 43.3526] }},
{"zip_code":"57770","country":"US","city":"Pine Ridge","state":"South Dakota","state_ab":"SD","county":"Shannon","geo_location":{ "type": "Point", "coordinates": [-102.5984, 43.1124] }},
{"zip_code":"57460","country":"US","city":"Mansfield","state":"South Dakota","state_ab":"SD","county":"Spink","geo_location":{ "type": "Point", "coordinates": [-98.6066, 45.2267] }},
{"zip_code":"57563","country":"US","city":"Okreek","state":"South Dakota","state_ab":"SD","county":"Todd","geo_location":{ "type": "Point", "coordinates": [-100.3809, 43.3633] }},
{"zip_code":"57420","country":"US","city":"Akaska","state":"South Dakota","state_ab":"SD","county":"Walworth","geo_location":{ "type": "Point", "coordinates": [-100.1186, 45.3324] }},
{"zip_code":"57046","country":"US","city":"Mission Hill","state":"South Dakota","state_ab":"SD","county":"Yankton","geo_location":{ "type": "Point", "coordinates": [-97.3349, 42.9836] }},
{"zip_code":"37710","country":"US","city":"Briceville","state":"Tennessee","state_ab":"TN","county":"Anderson","geo_location":{ "type": "Point", "coordinates": [-84.2992, 36.1626] }},
{"zip_code":"37183","country":"US","city":"Wartrace","state":"Tennessee","state_ab":"TN","county":"Bedford","geo_location":{ "type": "Point", "coordinates": [-86.3277, 35.5123] }},
{"zip_code":"37853","country":"US","city":"Rockford","state":"Tennessee","state_ab":"TN","county":"Blount","geo_location":{ "type": "Point", "coordinates": [-83.9412, 35.8305] }},
{"zip_code":"37310","country":"US","city":"Charleston","state":"Tennessee","state_ab":"TN","county":"Bradley","geo_location":{ "type": "Point", "coordinates": [-84.7666, 35.2556] }},
{"zip_code":"37323","country":"US","city":"Cleveland","state":"Tennessee","state_ab":"TN","county":"Bradley","geo_location":{ "type": "Point", "coordinates": [-84.8457, 35.1361] }},
{"zip_code":"37026","country":"US","city":"Bradyville","state":"Tennessee","state_ab":"TN","county":"Cannon","geo_location":{ "type": "Point", "coordinates": [-86.0912, 35.7053] }},
{"zip_code":"37143","country":"US","city":"Pegram","state":"Tennessee","state_ab":"TN","county":"Cheatham","geo_location":{ "type": "Point", "coordinates": [-87.0316, 36.1129] }},
{"zip_code":"38340","country":"US","city":"Henderson","state":"Tennessee","state_ab":"TN","county":"Chester","geo_location":{ "type": "Point", "coordinates": [-88.6398, 35.4269] }},
{"zip_code":"37879","country":"US","city":"Tazewell","state":"Tennessee","state_ab":"TN","county":"Claiborne","geo_location":{ "type": "Point", "coordinates": [-83.5552, 36.471] }},
{"zip_code":"37349","country":"US","city":"Manchester","state":"Tennessee","state_ab":"TN","county":"Coffee","geo_location":{ "type": "Point", "coordinates": [-86.0748, 35.4976] }},
{"zip_code":"37389","country":"US","city":"Arnold Afb","state":"Tennessee","state_ab":"TN","county":"Coffee","geo_location":{ "type": "Point", "coordinates": [-86.0748, 35.4976] }},
{"zip_code":"37723","country":"US","city":"Crab Orchard","state":"Tennessee","state_ab":"TN","county":"Cumberland","geo_location":{ "type": "Point", "coordinates": [-84.8205, 35.9537] }},
{"zip_code":"37013","country":"US","city":"Antioch","state":"Tennessee","state_ab":"TN","county":"Davidson","geo_location":{ "type": "Point", "coordinates": [-86.6592, 36.0595] }},
{"zip_code":"37080","country":"US","city":"Joelton","state":"Tennessee","state_ab":"TN","county":"Davidson","geo_location":{ "type": "Point", "coordinates": [-86.9163, 36.329] }},
{"zip_code":"37116","country":"US","city":"Madison","state":"Tennessee","state_ab":"TN","county":"Davidson","geo_location":{ "type": "Point", "coordinates": [-86.7852, 36.1866] }},
{"zip_code":"37206","country":"US","city":"Nashville","state":"Tennessee","state_ab":"TN","county":"Davidson","geo_location":{ "type": "Point", "coordinates": [-86.7411, 36.1798] }},
{"zip_code":"37219","country":"US","city":"Nashville","state":"Tennessee","state_ab":"TN","county":"Davidson","geo_location":{ "type": "Point", "coordinates": [-86.7837, 36.1678] }},
{"zip_code":"37220","country":"US","city":"Nashville","state":"Tennessee","state_ab":"TN","county":"Davidson","geo_location":{ "type": "Point", "coordinates": [-86.7697, 36.0641] }},
{"zip_code":"37246","country":"US","city":"Nashville","state":"Tennessee","state_ab":"TN","county":"Davidson","geo_location":{ "type": "Point", "coordinates": [-86.79, 36.1586] }},
{"zip_code":"38380","country":"US","city":"Sugar Tree","state":"Tennessee","state_ab":"TN","county":"Decatur","geo_location":{ "type": "Point", "coordinates": [-88.0322, 35.792] }},
{"zip_code":"38030","country":"US","city":"Finley","state":"Tennessee","state_ab":"TN","county":"Dyer","geo_location":{ "type": "Point", "coordinates": [-89.5134, 36.0169] }},
{"zip_code":"38056","country":"US","city":"Miston","state":"Tennessee","state_ab":"TN","county":"Dyer","geo_location":{ "type": "Point", "coordinates": [-89.4438, 36.0469] }},
{"zip_code":"38070","country":"US","city":"Tigrett","state":"Tennessee","state_ab":"TN","county":"Dyer","geo_location":{ "type": "Point", "coordinates": [-89.2434, 35.942] }},
{"zip_code":"38043","country":"US","city":"Hickory Withe","state":"Tennessee","state_ab":"TN","county":"Fayette","geo_location":{ "type": "Point", "coordinates": [-89.4141, 35.1993] }},
{"zip_code":"37376","country":"US","city":"Sherwood","state":"Tennessee","state_ab":"TN","county":"Franklin","geo_location":{ "type": "Point", "coordinates": [-85.9302, 35.0452] }},
{"zip_code":"37709","country":"US","city":"Blaine","state":"Tennessee","state_ab":"TN","county":"Grainger","geo_location":{ "type": "Point", "coordinates": [-83.6783, 36.1583] }},
{"zip_code":"37813","country":"US","city":"Morristown","state":"Tennessee","state_ab":"TN","county":"Hamblen","geo_location":{ "type": "Point", "coordinates": [-83.2755, 36.1957] }},
{"zip_code":"37350","country":"US","city":"Lookout Mountain","state":"Tennessee","state_ab":"TN","county":"Hamilton","geo_location":{ "type": "Point", "coordinates": [-85.3506, 34.9948] }},
{"zip_code":"37363","country":"US","city":"Ooltewah","state":"Tennessee","state_ab":"TN","county":"Hamilton","geo_location":{ "type": "Point", "coordinates": [-85.0635, 35.0781] }},
{"zip_code":"38326","country":"US","city":"Counce","state":"Tennessee","state_ab":"TN","county":"Hardin","geo_location":{ "type": "Point", "coordinates": [-88.2936, 35.0394] }},
{"zip_code":"38069","country":"US","city":"Stanton","state":"Tennessee","state_ab":"TN","county":"Haywood","geo_location":{ "type": "Point", "coordinates": [-89.3326, 35.4482] }},
{"zip_code":"38223","country":"US","city":"Como","state":"Tennessee","state_ab":"TN","county":"Henry","geo_location":{ "type": "Point", "coordinates": [-88.2604, 36.311] }},
{"zip_code":"38236","country":"US","city":"Mansfield","state":"Tennessee","state_ab":"TN","county":"Henry","geo_location":{ "type": "Point", "coordinates": [-88.2859, 36.1847] }},
{"zip_code":"37916","country":"US","city":"Knoxville","state":"Tennessee","state_ab":"TN","county":"Knox","geo_location":{ "type": "Point", "coordinates": [-83.9336, 35.9556] }},
{"zip_code":"37929","country":"US","city":"Knoxville","state":"Tennessee","state_ab":"TN","county":"Knox","geo_location":{ "type": "Point", "coordinates": [-83.7955, 35.9224] }},
{"zip_code":"37930","country":"US","city":"Knoxville","state":"Tennessee","state_ab":"TN","county":"Knox","geo_location":{ "type": "Point", "coordinates": [-83.9536, 35.9029] }},
{"zip_code":"37996","country":"US","city":"Knoxville","state":"Tennessee","state_ab":"TN","county":"Knox","geo_location":{ "type": "Point", "coordinates": [-83.9622, 35.9901] }},
{"zip_code":"38456","country":"US","city":"Ethridge","state":"Tennessee","state_ab":"TN","county":"Lawrence","geo_location":{ "type": "Point", "coordinates": [-87.3039, 35.3326] }},
{"zip_code":"38469","country":"US","city":"Loretto","state":"Tennessee","state_ab":"TN","county":"Lawrence","geo_location":{ "type": "Point", "coordinates": [-87.427, 35.0728] }},
{"zip_code":"38483","country":"US","city":"Summertown","state":"Tennessee","state_ab":"TN","county":"Lawrence","geo_location":{ "type": "Point", "coordinates": [-87.3198, 35.4307] }},
{"zip_code":"37309","country":"US","city":"Calhoun","state":"Tennessee","state_ab":"TN","county":"McMinn","geo_location":{ "type": "Point", "coordinates": [-84.7364, 35.3228] }},
{"zip_code":"37826","country":"US","city":"Niota","state":"Tennessee","state_ab":"TN","county":"McMinn","geo_location":{ "type": "Point", "coordinates": [-84.5721, 35.5819] }},
{"zip_code":"38339","country":"US","city":"Guys","state":"Tennessee","state_ab":"TN","county":"McNairy","geo_location":{ "type": "Point", "coordinates": [-88.5208, 35.0142] }},
{"zip_code":"38379","country":"US","city":"Stantonville","state":"Tennessee","state_ab":"TN","county":"McNairy","geo_location":{ "type": "Point", "coordinates": [-88.4364, 35.1809] }},
{"zip_code":"38393","country":"US","city":"Chewalla","state":"Tennessee","state_ab":"TN","county":"McNairy","geo_location":{ "type": "Point", "coordinates": [-88.6456, 34.9969] }},
{"zip_code":"38313","country":"US","city":"Beech Bluff","state":"Tennessee","state_ab":"TN","county":"Madison","geo_location":{ "type": "Point", "coordinates": [-88.6396, 35.5922] }},
{"zip_code":"38366","country":"US","city":"Pinson","state":"Tennessee","state_ab":"TN","county":"Madison","geo_location":{ "type": "Point", "coordinates": [-88.7304, 35.4781] }},
{"zip_code":"37336","country":"US","city":"Georgetown","state":"Tennessee","state_ab":"TN","county":"Meigs","geo_location":{ "type": "Point", "coordinates": [-84.9127, 35.2932] }},
{"zip_code":"37880","country":"US","city":"Ten Mile","state":"Tennessee","state_ab":"TN","county":"Meigs","geo_location":{ "type": "Point", "coordinates": [-84.6548, 35.6862] }},
{"zip_code":"37040","country":"US","city":"Clarksville","state":"Tennessee","state_ab":"TN","county":"Montgomery","geo_location":{ "type": "Point", "coordinates": [-87.349, 36.522] }},
{"zip_code":"37840","country":"US","city":"Oliver Springs","state":"Tennessee","state_ab":"TN","county":"Morgan","geo_location":{ "type": "Point", "coordinates": [-84.3486, 36.0366] }},
{"zip_code":"38573","country":"US","city":"Monroe","state":"Tennessee","state_ab":"TN","county":"Overton","geo_location":{ "type": "Point", "coordinates": [-85.2164, 36.4642] }},
{"zip_code":"38506","country":"US","city":"Cookeville","state":"Tennessee","state_ab":"TN","county":"Putnam","geo_location":{ "type": "Point", "coordinates": [-85.4408, 36.1819] }},
{"zip_code":"37763","country":"US","city":"Kingston","state":"Tennessee","state_ab":"TN","county":"Roane","geo_location":{ "type": "Point", "coordinates": [-84.4971, 35.8528] }},
{"zip_code":"37129","country":"US","city":"Murfreesboro","state":"Tennessee","state_ab":"TN","county":"Rutherford","geo_location":{ "type": "Point", "coordinates": [-86.4181, 35.871] }},
{"zip_code":"37130","country":"US","city":"Murfreesboro","state":"Tennessee","state_ab":"TN","county":"Rutherford","geo_location":{ "type": "Point", "coordinates": [-86.3647, 35.8478] }},
{"zip_code":"37893","country":"US","city":"Winona","state":"Tennessee","state_ab":"TN","county":"Scott","geo_location":{ "type": "Point", "coordinates": [-84.5173, 36.3834] }},
{"zip_code":"38016","country":"US","city":"Cordova","state":"Tennessee","state_ab":"TN","county":"Shelby","geo_location":{ "type": "Point", "coordinates": [-89.7816, 35.1602] }},
{"zip_code":"38029","country":"US","city":"Ellendale","state":"Tennessee","state_ab":"TN","county":"Shelby","geo_location":{ "type": "Point", "coordinates": [-89.9715, 35.2017] }},
{"zip_code":"38083","country":"US","city":"Millington","state":"Tennessee","state_ab":"TN","county":"Shelby","geo_location":{ "type": "Point", "coordinates": [-89.9715, 35.2017] }},
{"zip_code":"38106","country":"US","city":"Memphis","state":"Tennessee","state_ab":"TN","county":"Shelby","geo_location":{ "type": "Point", "coordinates": [-90.033, 35.1021] }},
{"zip_code":"38119","country":"US","city":"Memphis","state":"Tennessee","state_ab":"TN","county":"Shelby","geo_location":{ "type": "Point", "coordinates": [-89.8501, 35.0821] }},
{"zip_code":"38120","country":"US","city":"Memphis","state":"Tennessee","state_ab":"TN","county":"Shelby","geo_location":{ "type": "Point", "coordinates": [-89.8651, 35.1207] }},
{"zip_code":"38133","country":"US","city":"Memphis","state":"Tennessee","state_ab":"TN","county":"Shelby","geo_location":{ "type": "Point", "coordinates": [-89.8036, 35.2054] }},
{"zip_code":"38146","country":"US","city":"Memphis","state":"Tennessee","state_ab":"TN","county":"Shelby","geo_location":{ "type": "Point", "coordinates": [-89.9715, 35.2017] }},
{"zip_code":"38159","country":"US","city":"Memphis","state":"Tennessee","state_ab":"TN","county":"Shelby","geo_location":{ "type": "Point", "coordinates": [-89.9715, 35.2017] }},
{"zip_code":"38173","country":"US","city":"Memphis","state":"Tennessee","state_ab":"TN","county":"Shelby","geo_location":{ "type": "Point", "coordinates": [-89.9715, 35.2017] }},
{"zip_code":"38186","country":"US","city":"Memphis","state":"Tennessee","state_ab":"TN","county":"Shelby","geo_location":{ "type": "Point", "coordinates": [-89.9715, 35.2017] }},
{"zip_code":"38560","country":"US","city":"Elmwood","state":"Tennessee","state_ab":"TN","county":"Smith","geo_location":{ "type": "Point", "coordinates": [-85.8808, 36.2355] }},
{"zip_code":"37079","country":"US","city":"Indian Mound","state":"Tennessee","state_ab":"TN","county":"Stewart","geo_location":{ "type": "Point", "coordinates": [-87.6804, 36.4946] }},
{"zip_code":"37620","country":"US","city":"Bristol","state":"Tennessee","state_ab":"TN","county":"Sullivan","geo_location":{ "type": "Point", "coordinates": [-82.1819, 36.5686] }},
{"zip_code":"37660","country":"US","city":"Kingsport","state":"Tennessee","state_ab":"TN","county":"Sullivan","geo_location":{ "type": "Point", "coordinates": [-82.5476, 36.5144] }},
{"zip_code":"37686","country":"US","city":"Piney Flats","state":"Tennessee","state_ab":"TN","county":"Sullivan","geo_location":{ "type": "Point", "coordinates": [-82.334, 36.4461] }},
{"zip_code":"37699","country":"US","city":"Piney Flats","state":"Tennessee","state_ab":"TN","county":"Sullivan","geo_location":{ "type": "Point", "coordinates": [-82.2645, 36.5042] }},
{"zip_code":"37066","country":"US","city":"Gallatin","state":"Tennessee","state_ab":"TN","county":"Sumner","geo_location":{ "type": "Point", "coordinates": [-86.4512, 36.3834] }},
{"zip_code":"37866","country":"US","city":"Sharps Chapel","state":"Tennessee","state_ab":"TN","county":"Union","geo_location":{ "type": "Point", "coordinates": [-83.8127, 36.3685] }},
{"zip_code":"37659","country":"US","city":"Jonesborough","state":"Tennessee","state_ab":"TN","county":"Washington","geo_location":{ "type": "Point", "coordinates": [-82.4902, 36.2954] }},
{"zip_code":"38559","country":"US","city":"Doyle","state":"Tennessee","state_ab":"TN","county":"White","geo_location":{ "type": "Point", "coordinates": [-85.5191, 35.8356] }},
{"zip_code":"75886","country":"US","city":"Tennessee Colony","state":"Texas","state_ab":"TX","county":"Anderson","geo_location":{ "type": "Point", "coordinates": [-95.662, 31.7942] }},
{"zip_code":"75949","country":"US","city":"Huntington","state":"Texas","state_ab":"TX","county":"Angelina","geo_location":{ "type": "Point", "coordinates": [-94.5662, 31.2837] }},
{"zip_code":"79019","country":"US","city":"Claude","state":"Texas","state_ab":"TX","county":"Armstrong","geo_location":{ "type": "Point", "coordinates": [-101.3813, 35.0967] }},
{"zip_code":"78933","country":"US","city":"Cat Spring","state":"Texas","state_ab":"TX","county":"Austin","geo_location":{ "type": "Point", "coordinates": [-96.39, 29.7512] }},
{"zip_code":"78003","country":"US","city":"Bandera","state":"Texas","state_ab":"TX","county":"Bandera","geo_location":{ "type": "Point", "coordinates": [-99.0453, 29.7276] }},
{"zip_code":"78883","country":"US","city":"Tarpley","state":"Texas","state_ab":"TX","county":"Bandera","geo_location":{ "type": "Point", "coordinates": [-99.2469, 29.6455] }},
{"zip_code":"78650","country":"US","city":"Mc Dade","state":"Texas","state_ab":"TX","county":"Bastrop","geo_location":{ "type": "Point", "coordinates": [-97.2386, 30.2968] }},
{"zip_code":"78146","country":"US","city":"Pettus","state":"Texas","state_ab":"TX","county":"Bee","geo_location":{ "type": "Point", "coordinates": [-97.8082, 28.6164] }},
{"zip_code":"76513","country":"US","city":"Belton","state":"Texas","state_ab":"TX","county":"Bell","geo_location":{ "type": "Point", "coordinates": [-97.472, 31.0723] }},
{"zip_code":"76540","country":"US","city":"Killeen","state":"Texas","state_ab":"TX","county":"Bell","geo_location":{ "type": "Point", "coordinates": [-97.7278, 31.1171] }},
{"zip_code":"76579","country":"US","city":"Troy","state":"Texas","state_ab":"TX","county":"Bell","geo_location":{ "type": "Point", "coordinates": [-97.2852, 31.1759] }},
{"zip_code":"78069","country":"US","city":"Somerset","state":"Texas","state_ab":"TX","county":"Bexar","geo_location":{ "type": "Point", "coordinates": [-98.6678, 29.2205] }},
{"zip_code":"78209","country":"US","city":"San Antonio","state":"Texas","state_ab":"TX","county":"Bexar","geo_location":{ "type": "Point", "coordinates": [-98.4554, 29.4821] }},
{"zip_code":"78210","country":"US","city":"San Antonio","state":"Texas","state_ab":"TX","county":"Bexar","geo_location":{ "type": "Point", "coordinates": [-98.4658, 29.3977] }},
{"zip_code":"78223","country":"US","city":"San Antonio","state":"Texas","state_ab":"TX","county":"Bexar","geo_location":{ "type": "Point", "coordinates": [-98.4356, 29.3579] }},
{"zip_code":"78236","country":"US","city":"San Antonio","state":"Texas","state_ab":"TX","county":"Bexar","geo_location":{ "type": "Point", "coordinates": [-98.6112, 29.3887] }},
{"zip_code":"78249","country":"US","city":"San Antonio","state":"Texas","state_ab":"TX","county":"Bexar","geo_location":{ "type": "Point", "coordinates": [-98.6117, 29.5612] }},
{"zip_code":"78250","country":"US","city":"San Antonio","state":"Texas","state_ab":"TX","county":"Bexar","geo_location":{ "type": "Point", "coordinates": [-98.6688, 29.5054] }},
{"zip_code":"78263","country":"US","city":"San Antonio","state":"Texas","state_ab":"TX","county":"Bexar","geo_location":{ "type": "Point", "coordinates": [-98.3174, 29.3614] }},
{"zip_code":"78289","country":"US","city":"San Antonio","state":"Texas","state_ab":"TX","county":"Bexar","geo_location":{ "type": "Point", "coordinates": [-98.4616, 29.4375] }},
{"zip_code":"78636","country":"US","city":"Johnson City","state":"Texas","state_ab":"TX","county":"Blanco","geo_location":{ "type": "Point", "coordinates": [-98.3691, 30.2948] }},
{"zip_code":"78663","country":"US","city":"Round Mountain","state":"Texas","state_ab":"TX","county":"Blanco","geo_location":{ "type": "Point", "coordinates": [-98.4365, 30.4429] }},
{"zip_code":"77480","country":"US","city":"Sweeny","state":"Texas","state_ab":"TX","county":"Brazoria","geo_location":{ "type": "Point", "coordinates": [-95.7004, 29.0415] }},
{"zip_code":"77516","country":"US","city":"Angleton","state":"Texas","state_ab":"TX","county":"Brazoria","geo_location":{ "type": "Point", "coordinates": [-95.4651, 29.184] }},
{"zip_code":"77583","country":"US","city":"Rosharon","state":"Texas","state_ab":"TX","county":"Brazoria","geo_location":{ "type": "Point", "coordinates": [-95.4537, 29.4203] }},
{"zip_code":"77840","country":"US","city":"College Station","state":"Texas","state_ab":"TX","county":"Brazos","geo_location":{ "type": "Point", "coordinates": [-96.3123, 30.6045] }},
{"zip_code":"77866","country":"US","city":"Millican","state":"Texas","state_ab":"TX","county":"Brazos","geo_location":{ "type": "Point", "coordinates": [-96.217, 30.4491] }},
{"zip_code":"78353","country":"US","city":"Encino","state":"Texas","state_ab":"TX","county":"Brooks","geo_location":{ "type": "Point", "coordinates": [-98.1922, 26.9249] }},
{"zip_code":"76823","country":"US","city":"Bangs","state":"Texas","state_ab":"TX","county":"Brown","geo_location":{ "type": "Point", "coordinates": [-99.1568, 31.7503] }},
{"zip_code":"76890","country":"US","city":"Zephyr","state":"Texas","state_ab":"TX","county":"Brown","geo_location":{ "type": "Point", "coordinates": [-98.8182, 31.6694] }},
{"zip_code":"77839","country":"US","city":"Clay","state":"Texas","state_ab":"TX","county":"Burleson","geo_location":{ "type": "Point", "coordinates": [-96.5267, 30.3414] }},
{"zip_code":"77879","country":"US","city":"Somerville","state":"Texas","state_ab":"TX","county":"Burleson","geo_location":{ "type": "Point", "coordinates": [-96.5358, 30.4076] }},
{"zip_code":"77983","country":"US","city":"Seadrift","state":"Texas","state_ab":"TX","county":"Calhoun","geo_location":{ "type": "Point", "coordinates": [-96.7023, 28.4101] }},
{"zip_code":"79510","country":"US","city":"Clyde","state":"Texas","state_ab":"TX","county":"Callahan","geo_location":{ "type": "Point", "coordinates": [-99.5184, 32.3803] }},
{"zip_code":"78520","country":"US","city":"Brownsville","state":"Texas","state_ab":"TX","county":"Cameron","geo_location":{ "type": "Point", "coordinates": [-97.5174, 25.9337] }},
{"zip_code":"78559","country":"US","city":"La Feria","state":"Texas","state_ab":"TX","county":"Cameron","geo_location":{ "type": "Point", "coordinates": [-97.8261, 26.1666] }},
{"zip_code":"78586","country":"US","city":"San Benito","state":"Texas","state_ab":"TX","county":"Cameron","geo_location":{ "type": "Point", "coordinates": [-97.6447, 26.1337] }},
{"zip_code":"75563","country":"US","city":"Linden","state":"Texas","state_ab":"TX","county":"Cass","geo_location":{ "type": "Point", "coordinates": [-94.3605, 33.0048] }},
{"zip_code":"75976","country":"US","city":"Wells","state":"Texas","state_ab":"TX","county":"Cherokee","geo_location":{ "type": "Point", "coordinates": [-94.9694, 31.4998] }},
{"zip_code":"76953","country":"US","city":"Tennyson","state":"Texas","state_ab":"TX","county":"Coke","geo_location":{ "type": "Point", "coordinates": [-100.2884, 31.7397] }},
{"zip_code":"76889","country":"US","city":"Whon","state":"Texas","state_ab":"TX","county":"Coleman County","geo_location":{ "type": "Point", "coordinates": [-99.3112, 31.6446] }},
{"zip_code":"75033","country":"US","city":"Frisco","state":"Texas","state_ab":"TX","county":"Collin","geo_location":{ "type": "Point", "coordinates": [-96.8853, 33.2559] }},
{"zip_code":"75086","country":"US","city":"Plano","state":"Texas","state_ab":"TX","county":"Collin","geo_location":{ "type": "Point", "coordinates": [-96.6158, 33.0024] }},
{"zip_code":"78070","country":"US","city":"Spring Branch","state":"Texas","state_ab":"TX","county":"Comal","geo_location":{ "type": "Point", "coordinates": [-98.3788, 29.9238] }},
{"zip_code":"78133","country":"US","city":"Canyon Lake","state":"Texas","state_ab":"TX","county":"Comal","geo_location":{ "type": "Point", "coordinates": [-98.2374, 29.9112] }},
{"zip_code":"78623","country":"US","city":"Fischer","state":"Texas","state_ab":"TX","county":"Comal","geo_location":{ "type": "Point", "coordinates": [-98.2088, 29.9627] }},
{"zip_code":"76526","country":"US","city":"Flat","state":"Texas","state_ab":"TX","county":"Coryell","geo_location":{ "type": "Point", "coordinates": [-97.5822, 31.2956] }},
{"zip_code":"76566","country":"US","city":"Purmela","state":"Texas","state_ab":"TX","county":"Coryell","geo_location":{ "type": "Point", "coordinates": [-97.9903, 31.4841] }},
{"zip_code":"79343","country":"US","city":"Lorenzo","state":"Texas","state_ab":"TX","county":"Crosby","geo_location":{ "type": "Point", "coordinates": [-101.5277, 33.6666] }},
{"zip_code":"75006","country":"US","city":"Carrollton","state":"Texas","state_ab":"TX","county":"Dallas","geo_location":{ "type": "Point", "coordinates": [-96.8825, 32.9657] }},
{"zip_code":"75019","country":"US","city":"Coppell","state":"Texas","state_ab":"TX","county":"Dallas","geo_location":{ "type": "Point", "coordinates": [-96.9805, 32.9673] }},
{"zip_code":"75046","country":"US","city":"Garland","state":"Texas","state_ab":"TX","county":"Dallas","geo_location":{ "type": "Point", "coordinates": [-96.7776, 32.7673] }},
{"zip_code":"75060","country":"US","city":"Irving","state":"Texas","state_ab":"TX","county":"Dallas","geo_location":{ "type": "Point", "coordinates": [-96.9597, 32.8023] }},
{"zip_code":"75099","country":"US","city":"Coppell","state":"Texas","state_ab":"TX","county":"Dallas","geo_location":{ "type": "Point", "coordinates": [-96.7996, 32.771] }},
{"zip_code":"75123","country":"US","city":"Desoto","state":"Texas","state_ab":"TX","county":"Dallas","geo_location":{ "type": "Point", "coordinates": [-96.7776, 32.7673] }},
{"zip_code":"75149","country":"US","city":"Mesquite","state":"Texas","state_ab":"TX","county":"Dallas","geo_location":{ "type": "Point", "coordinates": [-96.6082, 32.7678] }},
{"zip_code":"75150","country":"US","city":"Mesquite","state":"Texas","state_ab":"TX","county":"Dallas","geo_location":{ "type": "Point", "coordinates": [-96.6307, 32.8154] }},
{"zip_code":"75226","country":"US","city":"Dallas","state":"Texas","state_ab":"TX","county":"Dallas","geo_location":{ "type": "Point", "coordinates": [-96.7676, 32.7887] }},
{"zip_code":"75239","country":"US","city":"Dallas","state":"Texas","state_ab":"TX","county":"Dallas","geo_location":{ "type": "Point", "coordinates": [-96.7776, 32.7673] }},
{"zip_code":"75240","country":"US","city":"Dallas","state":"Texas","state_ab":"TX","county":"Dallas","geo_location":{ "type": "Point", "coordinates": [-96.7872, 32.9374] }},
{"zip_code":"75253","country":"US","city":"Dallas","state":"Texas","state_ab":"TX","county":"Dallas","geo_location":{ "type": "Point", "coordinates": [-96.5964, 32.6833] }},
{"zip_code":"75266","country":"US","city":"Dallas","state":"Texas","state_ab":"TX","county":"Dallas","geo_location":{ "type": "Point", "coordinates": [-96.7776, 32.7673] }},
{"zip_code":"75303","country":"US","city":"Dallas","state":"Texas","state_ab":"TX","county":"Dallas","geo_location":{ "type": "Point", "coordinates": [-96.7776, 32.7673] }},
{"zip_code":"75343","country":"US","city":"Dallas","state":"Texas","state_ab":"TX","county":"Dallas County","geo_location":{ "type": "Point", "coordinates": [-96.8641, 32.7699] }},
{"zip_code":"75356","country":"US","city":"Dallas","state":"Texas","state_ab":"TX","county":"Dallas","geo_location":{ "type": "Point", "coordinates": [-96.7776, 32.7673] }},
{"zip_code":"75369","country":"US","city":"Dallas","state":"Texas","state_ab":"TX","county":"Dallas County","geo_location":{ "type": "Point", "coordinates": [-96.8001, 32.7835] }},
{"zip_code":"75370","country":"US","city":"Dallas","state":"Texas","state_ab":"TX","county":"Dallas","geo_location":{ "type": "Point", "coordinates": [-96.7776, 32.7673] }},
{"zip_code":"75396","country":"US","city":"Dallas","state":"Texas","state_ab":"TX","county":"Dallas","geo_location":{ "type": "Point", "coordinates": [-96.7776, 32.7673] }},
{"zip_code":"76203","country":"US","city":"Denton","state":"Texas","state_ab":"TX","county":"Denton","geo_location":{ "type": "Point", "coordinates": [-97.127, 33.2465] }},
{"zip_code":"79370","country":"US","city":"Spur","state":"Texas","state_ab":"TX","county":"Dickens","geo_location":{ "type": "Point", "coordinates": [-100.8571, 33.479] }},
{"zip_code":"78830","country":"US","city":"Big Wells","state":"Texas","state_ab":"TX","county":"Dimmit","geo_location":{ "type": "Point", "coordinates": [-99.5781, 28.5693] }},
{"zip_code":"79226","country":"US","city":"Clarendon","state":"Texas","state_ab":"TX","county":"Donley","geo_location":{ "type": "Point", "coordinates": [-100.8952, 34.9529] }},
{"zip_code":"79240","country":"US","city":"Lelia Lake","state":"Texas","state_ab":"TX","county":"Donley","geo_location":{ "type": "Point", "coordinates": [-100.7674, 34.8843] }},
{"zip_code":"79769","country":"US","city":"Odessa","state":"Texas","state_ab":"TX","county":"Ector","geo_location":{ "type": "Point", "coordinates": [-102.567, 31.7466] }},
{"zip_code":"76670","country":"US","city":"Milford","state":"Texas","state_ab":"TX","county":"Ellis","geo_location":{ "type": "Point", "coordinates": [-96.9612, 32.1482] }},
{"zip_code":"79910","country":"US","city":"El Paso","state":"Texas","state_ab":"TX","county":"El Paso","geo_location":{ "type": "Point", "coordinates": [-106.3, 31.6948] }},
{"zip_code":"79923","country":"US","city":"El Paso","state":"Texas","state_ab":"TX","county":"El Paso","geo_location":{ "type": "Point", "coordinates": [-106.3, 31.6948] }},
{"zip_code":"79936","country":"US","city":"El Paso","state":"Texas","state_ab":"TX","county":"El Paso","geo_location":{ "type": "Point", "coordinates": [-106.3016, 31.7677] }},
{"zip_code":"79949","country":"US","city":"El Paso","state":"Texas","state_ab":"TX","county":"El Paso","geo_location":{ "type": "Point", "coordinates": [-106.3, 31.6948] }},
{"zip_code":"79950","country":"US","city":"El Paso","state":"Texas","state_ab":"TX","county":"El Paso","geo_location":{ "type": "Point", "coordinates": [-106.3, 31.6948] }},
{"zip_code":"79976","country":"US","city":"El Paso","state":"Texas","state_ab":"TX","county":"El Paso","geo_location":{ "type": "Point", "coordinates": [-106.3, 31.6948] }},
{"zip_code":"79989","country":"US","city":"El Paso","state":"Texas","state_ab":"TX","county":"El Paso","geo_location":{ "type": "Point", "coordinates": [-106.3, 31.6948] }},
{"zip_code":"79990","country":"US","city":"El Paso","state":"Texas","state_ab":"TX","county":"El Paso","geo_location":{ "type": "Point", "coordinates": [-106.3, 31.6948] }},
{"zip_code":"88510","country":"US","city":"El Paso","state":"Texas","state_ab":"TX","county":"El Paso","geo_location":{ "type": "Point", "coordinates": [-106.3, 31.6948] }},
{"zip_code":"88523","country":"US","city":"El Paso","state":"Texas","state_ab":"TX","county":"El Paso","geo_location":{ "type": "Point", "coordinates": [-106.3, 31.6948] }},
{"zip_code":"88536","country":"US","city":"El Paso","state":"Texas","state_ab":"TX","county":"El Paso","geo_location":{ "type": "Point", "coordinates": [-106.3, 31.6948] }},
{"zip_code":"88549","country":"US","city":"El Paso","state":"Texas","state_ab":"TX","county":"El Paso","geo_location":{ "type": "Point", "coordinates": [-106.3, 31.6948] }},
{"zip_code":"88550","country":"US","city":"El Paso","state":"Texas","state_ab":"TX","county":"El Paso","geo_location":{ "type": "Point", "coordinates": [-106.3, 31.6948] }},
{"zip_code":"88563","country":"US","city":"El Paso","state":"Texas","state_ab":"TX","county":"El Paso","geo_location":{ "type": "Point", "coordinates": [-106.3, 31.6948] }},
{"zip_code":"88576","country":"US","city":"El Paso","state":"Texas","state_ab":"TX","county":"El Paso","geo_location":{ "type": "Point", "coordinates": [-106.3, 31.6948] }},
{"zip_code":"88589","country":"US","city":"El Paso","state":"Texas","state_ab":"TX","county":"El Paso","geo_location":{ "type": "Point", "coordinates": [-106.3, 31.6948] }},
{"zip_code":"88590","country":"US","city":"El Paso","state":"Texas","state_ab":"TX","county":"El Paso","geo_location":{ "type": "Point", "coordinates": [-106.3, 31.6948] }},
{"zip_code":"76656","country":"US","city":"Lott","state":"Texas","state_ab":"TX","county":"Falls","geo_location":{ "type": "Point", "coordinates": [-97.0581, 31.1925] }},
{"zip_code":"75446","country":"US","city":"Honey Grove","state":"Texas","state_ab":"TX","county":"Fannin","geo_location":{ "type": "Point", "coordinates": [-95.9109, 33.5985] }},
{"zip_code":"78946","country":"US","city":"Ledbetter","state":"Texas","state_ab":"TX","county":"Fayette","geo_location":{ "type": "Point", "coordinates": [-96.7613, 30.2383] }},
{"zip_code":"78960","country":"US","city":"Warda","state":"Texas","state_ab":"TX","county":"Fayette","geo_location":{ "type": "Point", "coordinates": [-96.902, 30.0702] }},
{"zip_code":"77479","country":"US","city":"Sugar Land","state":"Texas","state_ab":"TX","county":"Fort Bend","geo_location":{ "type": "Point", "coordinates": [-95.6066, 29.5785] }},
{"zip_code":"75859","country":"US","city":"Streetman","state":"Texas","state_ab":"TX","county":"Freestone","geo_location":{ "type": "Point", "coordinates": [-96.2988, 31.8885] }},
{"zip_code":"75860","country":"US","city":"Teague","state":"Texas","state_ab":"TX","county":"Freestone","geo_location":{ "type": "Point", "coordinates": [-96.2778, 31.6328] }},
{"zip_code":"79330","country":"US","city":"Justiceburg","state":"Texas","state_ab":"TX","county":"Garza","geo_location":{ "type": "Point", "coordinates": [-101.1881, 33.0594] }},
{"zip_code":"79356","country":"US","city":"Post","state":"Texas","state_ab":"TX","county":"Garza","geo_location":{ "type": "Point", "coordinates": [-101.3922, 33.2017] }},
{"zip_code":"78159","country":"US","city":"Smiley","state":"Texas","state_ab":"TX","county":"Gonzales","geo_location":{ "type": "Point", "coordinates": [-97.6227, 29.2655] }},
{"zip_code":"78959","country":"US","city":"Waelder","state":"Texas","state_ab":"TX","county":"Gonzales","geo_location":{ "type": "Point", "coordinates": [-97.2958, 29.6868] }},
{"zip_code":"75020","country":"US","city":"Denison","state":"Texas","state_ab":"TX","county":"Grayson","geo_location":{ "type": "Point", "coordinates": [-96.5496, 33.745] }},
{"zip_code":"75459","country":"US","city":"Howe","state":"Texas","state_ab":"TX","county":"Grayson","geo_location":{ "type": "Point", "coordinates": [-96.6777, 33.5311] }},
{"zip_code":"75693","country":"US","city":"White Oak","state":"Texas","state_ab":"TX","county":"Gregg","geo_location":{ "type": "Point", "coordinates": [-94.8622, 32.5383] }},
{"zip_code":"77363","country":"US","city":"Plantersville","state":"Texas","state_ab":"TX","county":"Grimes","geo_location":{ "type": "Point", "coordinates": [-95.8498, 30.2969] }},
{"zip_code":"79073","country":"US","city":"Plainview","state":"Texas","state_ab":"TX","county":"Hale","geo_location":{ "type": "Point", "coordinates": [-101.827, 34.0689] }},
{"zip_code":"79239","country":"US","city":"Lakeview","state":"Texas","state_ab":"TX","county":"Hall","geo_location":{ "type": "Point", "coordinates": [-100.7259, 34.6724] }},
{"zip_code":"76436","country":"US","city":"Carlton","state":"Texas","state_ab":"TX","county":"Hamilton","geo_location":{ "type": "Point", "coordinates": [-98.1842, 31.8949] }},
{"zip_code":"77376","country":"US","city":"Votaw","state":"Texas","state_ab":"TX","county":"Hardin","geo_location":{ "type": "Point", "coordinates": [-94.6804, 30.4334] }},
{"zip_code":"77659","country":"US","city":"Sour Lake","state":"Texas","state_ab":"TX","county":"Hardin","geo_location":{ "type": "Point", "coordinates": [-94.3733, 30.1491] }},
{"zip_code":"77013","country":"US","city":"Houston","state":"Texas","state_ab":"TX","county":"Harris","geo_location":{ "type": "Point", "coordinates": [-95.2301, 29.7842] }},
{"zip_code":"77026","country":"US","city":"Houston","state":"Texas","state_ab":"TX","county":"Harris","geo_location":{ "type": "Point", "coordinates": [-95.3288, 29.7972] }},
{"zip_code":"77039","country":"US","city":"Houston","state":"Texas","state_ab":"TX","county":"Harris","geo_location":{ "type": "Point", "coordinates": [-95.3334, 29.9067] }},
{"zip_code":"77040","country":"US","city":"Houston","state":"Texas","state_ab":"TX","county":"Harris","geo_location":{ "type": "Point", "coordinates": [-95.5278, 29.8744] }},
{"zip_code":"77053","country":"US","city":"Houston","state":"Texas","state_ab":"TX","county":"Harris","geo_location":{ "type": "Point", "coordinates": [-95.4587, 29.5962] }},
{"zip_code":"77066","country":"US","city":"Houston","state":"Texas","state_ab":"TX","county":"Harris","geo_location":{ "type": "Point", "coordinates": [-95.4947, 29.961] }},
{"zip_code":"77079","country":"US","city":"Houston","state":"Texas","state_ab":"TX","county":"Harris","geo_location":{ "type": "Point", "coordinates": [-95.598, 29.7738] }},
{"zip_code":"77080","country":"US","city":"Houston","state":"Texas","state_ab":"TX","county":"Harris","geo_location":{ "type": "Point", "coordinates": [-95.523, 29.8159] }},
{"zip_code":"77093","country":"US","city":"Houston","state":"Texas","state_ab":"TX","county":"Harris","geo_location":{ "type": "Point", "coordinates": [-95.3403, 29.8617] }},
{"zip_code":"77206","country":"US","city":"Houston","state":"Texas","state_ab":"TX","county":"Harris","geo_location":{ "type": "Point", "coordinates": [-95.4342, 29.834] }},
{"zip_code":"77219","country":"US","city":"Houston","state":"Texas","state_ab":"TX","county":"Harris","geo_location":{ "type": "Point", "coordinates": [-95.4342, 29.834] }},
{"zip_code":"77220","country":"US","city":"Houston","state":"Texas","state_ab":"TX","county":"Harris","geo_location":{ "type": "Point", "coordinates": [-95.4342, 29.834] }},
{"zip_code":"77233","country":"US","city":"Houston","state":"Texas","state_ab":"TX","county":"Harris","geo_location":{ "type": "Point", "coordinates": [-95.4342, 29.834] }},
{"zip_code":"77246","country":"US","city":"Houston","state":"Texas","state_ab":"TX","county":"Harris County","geo_location":{ "type": "Point", "coordinates": [-95.4359, 29.6403] }},
{"zip_code":"77259","country":"US","city":"Houston","state":"Texas","state_ab":"TX","county":"Harris","geo_location":{ "type": "Point", "coordinates": [-95.4342, 29.834] }},
{"zip_code":"77260","country":"US","city":"Houston","state":"Texas","state_ab":"TX","county":"Harris County","geo_location":{ "type": "Point", "coordinates": [-95.3867, 29.7687] }},
{"zip_code":"77273","country":"US","city":"Houston","state":"Texas","state_ab":"TX","county":"Harris","geo_location":{ "type": "Point", "coordinates": [-95.4342, 29.834] }},
{"zip_code":"77299","country":"US","city":"Houston","state":"Texas","state_ab":"TX","county":"Harris","geo_location":{ "type": "Point", "coordinates": [-95.4342, 29.834] }},
{"zip_code":"77336","country":"US","city":"Huffman","state":"Texas","state_ab":"TX","county":"Harris","geo_location":{ "type": "Point", "coordinates": [-95.1051, 30.0565] }},
{"zip_code":"77389","country":"US","city":"Spring","state":"Texas","state_ab":"TX","county":"Harris","geo_location":{ "type": "Point", "coordinates": [-95.5066, 30.1044] }},
{"zip_code":"77413","country":"US","city":"Barker","state":"Texas","state_ab":"TX","county":"Harris","geo_location":{ "type": "Point", "coordinates": [-95.4342, 29.834] }},
{"zip_code":"77493","country":"US","city":"Katy","state":"Texas","state_ab":"TX","county":"Harris","geo_location":{ "type": "Point", "coordinates": [-95.8298, 29.8678] }},
{"zip_code":"77503","country":"US","city":"Pasadena","state":"Texas","state_ab":"TX","county":"Harris","geo_location":{ "type": "Point", "coordinates": [-95.1572, 29.6877] }},
{"zip_code":"77530","country":"US","city":"Channelview","state":"Texas","state_ab":"TX","county":"Harris","geo_location":{ "type": "Point", "coordinates": [-95.1317, 29.7914] }},
{"zip_code":"78610","country":"US","city":"Buda","state":"Texas","state_ab":"TX","county":"Hays","geo_location":{ "type": "Point", "coordinates": [-97.8534, 30.0918] }},
{"zip_code":"78676","country":"US","city":"Wimberley","state":"Texas","state_ab":"TX","county":"Hays","geo_location":{ "type": "Point", "coordinates": [-98.1123, 30.0265] }},
{"zip_code":"75163","country":"US","city":"Trinidad","state":"Texas","state_ab":"TX","county":"Henderson","geo_location":{ "type": "Point", "coordinates": [-96.0831, 32.1383] }},
{"zip_code":"75756","country":"US","city":"Brownsboro","state":"Texas","state_ab":"TX","county":"Henderson","geo_location":{ "type": "Point", "coordinates": [-95.6, 32.304] }},
{"zip_code":"75770","country":"US","city":"Larue","state":"Texas","state_ab":"TX","county":"Henderson","geo_location":{ "type": "Point", "coordinates": [-95.5927, 32.1608] }},
{"zip_code":"78560","country":"US","city":"La Joya","state":"Texas","state_ab":"TX","county":"Hidalgo","geo_location":{ "type": "Point", "coordinates": [-98.4747, 26.2426] }},
{"zip_code":"78573","country":"US","city":"Mission","state":"Texas","state_ab":"TX","county":"Hidalgo","geo_location":{ "type": "Point", "coordinates": [-98.3008, 26.2937] }},
{"zip_code":"78599","country":"US","city":"Weslaco","state":"Texas","state_ab":"TX","county":"Hidalgo","geo_location":{ "type": "Point", "coordinates": [-98.2242, 26.4097] }},
{"zip_code":"76049","country":"US","city":"Granbury","state":"Texas","state_ab":"TX","county":"Hood","geo_location":{ "type": "Point", "coordinates": [-97.7285, 32.4488] }},
{"zip_code":"76476","country":"US","city":"Tolar","state":"Texas","state_ab":"TX","county":"Hood","geo_location":{ "type": "Point", "coordinates": [-97.8802, 32.3772] }},
{"zip_code":"75420","country":"US","city":"Brashear","state":"Texas","state_ab":"TX","county":"Hopkins","geo_location":{ "type": "Point", "coordinates": [-95.7345, 33.1155] }},
{"zip_code":"75433","country":"US","city":"Cumby","state":"Texas","state_ab":"TX","county":"Hopkins","geo_location":{ "type": "Point", "coordinates": [-95.7945, 33.1118] }},
{"zip_code":"77969","country":"US","city":"La Salle","state":"Texas","state_ab":"TX","county":"Jackson","geo_location":{ "type": "Point", "coordinates": [-96.6492, 28.7671] }},
{"zip_code":"77970","country":"US","city":"La Ward","state":"Texas","state_ab":"TX","county":"Jackson","geo_location":{ "type": "Point", "coordinates": [-96.4135, 28.8381] }},
{"zip_code":"77619","country":"US","city":"Groves","state":"Texas","state_ab":"TX","county":"Jefferson","geo_location":{ "type": "Point", "coordinates": [-93.9152, 29.9448] }},
{"zip_code":"77709","country":"US","city":"Voth","state":"Texas","state_ab":"TX","county":"Jefferson","geo_location":{ "type": "Point", "coordinates": [-94.1877, 30.1764] }},
{"zip_code":"77710","country":"US","city":"Beaumont","state":"Texas","state_ab":"TX","county":"Jefferson","geo_location":{ "type": "Point", "coordinates": [-94.1297, 29.8476] }},
{"zip_code":"76009","country":"US","city":"Alvarado","state":"Texas","state_ab":"TX","county":"Johnson","geo_location":{ "type": "Point", "coordinates": [-97.213, 32.4395] }},
{"zip_code":"76050","country":"US","city":"Grandview","state":"Texas","state_ab":"TX","county":"Johnson","geo_location":{ "type": "Point", "coordinates": [-97.2351, 32.2779] }},
{"zip_code":"78119","country":"US","city":"Kenedy","state":"Texas","state_ab":"TX","county":"Karnes","geo_location":{ "type": "Point", "coordinates": [-97.8456, 28.8046] }},
{"zip_code":"78029","country":"US","city":"Kerrville","state":"Texas","state_ab":"TX","county":"Kerr","geo_location":{ "type": "Point", "coordinates": [-99.141, 30.0332] }},
{"zip_code":"76849","country":"US","city":"Junction","state":"Texas","state_ab":"TX","county":"Kimble","geo_location":{ "type": "Point", "coordinates": [-99.7473, 30.4754] }},
{"zip_code":"78379","country":"US","city":"Riviera","state":"Texas","state_ab":"TX","county":"Kleberg","geo_location":{ "type": "Point", "coordinates": [-97.7787, 27.3217] }},
{"zip_code":"75460","country":"US","city":"Paris","state":"Texas","state_ab":"TX","county":"Lamar","geo_location":{ "type": "Point", "coordinates": [-95.5379, 33.6581] }},
{"zip_code":"75473","country":"US","city":"Powderly","state":"Texas","state_ab":"TX","county":"Lamar","geo_location":{ "type": "Point", "coordinates": [-95.5307, 33.7779] }}]}