{"value": [{"zip_code":"17346","country":"US","city":"Menges Mills","state":"Pennsylvania","state_ab":"PA","county":"York","geo_location":{ "type": "Point", "coordinates": [-76.7036, 40.0796] }},
{"zip_code":"17360","country":"US","city":"Seven Valleys","state":"Pennsylvania","state_ab":"PA","county":"York","geo_location":{ "type": "Point", "coordinates": [-76.7383, 39.8556] }},
{"zip_code":"2816","country":"US","city":"Coventry","state":"Rhode Island","state_ab":"RI","county":"Kent","geo_location":{ "type": "Point", "coordinates": [-71.5768, 41.6914] }},
{"zip_code":"2829","country":"US","city":"Harmony","state":"Rhode Island","state_ab":"RI","county":"Providence","geo_location":{ "type": "Point", "coordinates": [-71.5894, 41.8793] }},
{"zip_code":"2830","country":"US","city":"Harrisville","state":"Rhode Island","state_ab":"RI","county":"Providence","geo_location":{ "type": "Point", "coordinates": [-71.6534, 41.9764] }},
{"zip_code":"2896","country":"US","city":"North Smithfield","state":"Rhode Island","state_ab":"RI","county":"Providence","geo_location":{ "type": "Point", "coordinates": [-71.5508, 41.9724] }},
{"zip_code":"2906","country":"US","city":"Providence","state":"Rhode Island","state_ab":"RI","county":"Providence","geo_location":{ "type": "Point", "coordinates": [-71.3971, 41.8351] }},
{"zip_code":"2919","country":"US","city":"Johnston","state":"Rhode Island","state_ab":"RI","county":"Providence","geo_location":{ "type": "Point", "coordinates": [-71.52, 41.8274] }},
{"zip_code":"2920","country":"US","city":"Cranston","state":"Rhode Island","state_ab":"RI","county":"Providence","geo_location":{ "type": "Point", "coordinates": [-71.4659, 41.7716] }},
{"zip_code":"2883","country":"US","city":"Peace Dale","state":"Rhode Island","state_ab":"RI","county":"Washington","geo_location":{ "type": "Point", "coordinates": [-71.6439, 41.3753] }},
{"zip_code":"29639","country":"US","city":"Due West","state":"South Carolina","state_ab":"SC","county":"Abbeville","geo_location":{ "type": "Point", "coordinates": [-82.4002, 34.3344] }},
{"zip_code":"29860","country":"US","city":"North Augusta","state":"South Carolina","state_ab":"SC","county":"Aiken","geo_location":{ "type": "Point", "coordinates": [-81.9748, 33.6028] }},
{"zip_code":"29846","country":"US","city":"Sycamore","state":"South Carolina","state_ab":"SC","county":"Allendale","geo_location":{ "type": "Point", "coordinates": [-81.2258, 33.0241] }},
{"zip_code":"29626","country":"US","city":"Anderson","state":"South Carolina","state_ab":"SC","county":"Anderson","geo_location":{ "type": "Point", "coordinates": [-82.7614, 34.4596] }},
{"zip_code":"29910","country":"US","city":"Bluffton","state":"South Carolina","state_ab":"SC","county":"Beaufort","geo_location":{ "type": "Point", "coordinates": [-80.8721, 32.2513] }},
{"zip_code":"29406","country":"US","city":"Charleston","state":"South Carolina","state_ab":"SC","county":"Charleston","geo_location":{ "type": "Point", "coordinates": [-80.0325, 32.9352] }},
{"zip_code":"29419","country":"US","city":"Charleston","state":"South Carolina","state_ab":"SC","county":"Charleston","geo_location":{ "type": "Point", "coordinates": [-79.8577, 32.8488] }},
{"zip_code":"29729","country":"US","city":"Richburg","state":"South Carolina","state_ab":"SC","county":"Chester","geo_location":{ "type": "Point", "coordinates": [-80.9891, 34.6822] }},
{"zip_code":"29433","country":"US","city":"Canadys","state":"South Carolina","state_ab":"SC","county":"Colleton","geo_location":{ "type": "Point", "coordinates": [-80.6312, 33.0614] }},
{"zip_code":"29446","country":"US","city":"Green Pond","state":"South Carolina","state_ab":"SC","county":"Colleton","geo_location":{ "type": "Point", "coordinates": [-80.528, 32.6628] }},
{"zip_code":"29550","country":"US","city":"Hartsville","state":"South Carolina","state_ab":"SC","county":"Darlington","geo_location":{ "type": "Point", "coordinates": [-80.0842, 34.3756] }},
{"zip_code":"29536","country":"US","city":"Dillon","state":"South Carolina","state_ab":"SC","county":"Dillon","geo_location":{ "type": "Point", "coordinates": [-79.377, 34.4146] }},
{"zip_code":"29563","country":"US","city":"Lake View","state":"South Carolina","state_ab":"SC","county":"Dillon","geo_location":{ "type": "Point", "coordinates": [-79.1929, 34.3445] }},
{"zip_code":"29420","country":"US","city":"North Charleston","state":"South Carolina","state_ab":"SC","county":"Dorchester","geo_location":{ "type": "Point", "coordinates": [-80.1026, 32.9336] }},
{"zip_code":"29176","country":"US","city":"White Oak","state":"South Carolina","state_ab":"SC","county":"Fairfield","geo_location":{ "type": "Point", "coordinates": [-81.0987, 34.3736] }},
{"zip_code":"29510","country":"US","city":"Andrews","state":"South Carolina","state_ab":"SC","county":"Georgetown","geo_location":{ "type": "Point", "coordinates": [-79.5604, 33.4525] }},
{"zip_code":"29576","country":"US","city":"Murrells Inlet","state":"South Carolina","state_ab":"SC","county":"Georgetown","geo_location":{ "type": "Point", "coordinates": [-79.0528, 33.5507] }},
{"zip_code":"29613","country":"US","city":"Greenville","state":"South Carolina","state_ab":"SC","county":"Greenville","geo_location":{ "type": "Point", "coordinates": [-82.4331, 34.9249] }},
{"zip_code":"29680","country":"US","city":"Simpsonville","state":"South Carolina","state_ab":"SC","county":"Greenville","geo_location":{ "type": "Point", "coordinates": [-82.2893, 34.6962] }},
{"zip_code":"29653","country":"US","city":"Hodges","state":"South Carolina","state_ab":"SC","county":"Greenwood","geo_location":{ "type": "Point", "coordinates": [-82.2142, 34.2882] }},
{"zip_code":"29666","country":"US","city":"Ninety Six","state":"South Carolina","state_ab":"SC","county":"Greenwood","geo_location":{ "type": "Point", "coordinates": [-82.0292, 34.1652] }},
{"zip_code":"29819","country":"US","city":"Bradley","state":"South Carolina","state_ab":"SC","county":"Greenwood","geo_location":{ "type": "Point", "coordinates": [-82.2027, 34.0326] }},
{"zip_code":"29923","country":"US","city":"Gifford","state":"South Carolina","state_ab":"SC","county":"Hampton","geo_location":{ "type": "Point", "coordinates": [-81.1269, 32.7888] }},
{"zip_code":"29909","country":"US","city":"Okatie","state":"South Carolina","state_ab":"SC","county":"Jasper County","geo_location":{ "type": "Point", "coordinates": [-80.8435, 32.3301] }},
{"zip_code":"29936","country":"US","city":"Ridgeland","state":"South Carolina","state_ab":"SC","county":"Jasper","geo_location":{ "type": "Point", "coordinates": [-80.9257, 32.4868] }},
{"zip_code":"29020","country":"US","city":"Camden","state":"South Carolina","state_ab":"SC","county":"Kershaw","geo_location":{ "type": "Point", "coordinates": [-80.591, 34.2696] }},
{"zip_code":"29370","country":"US","city":"Mountville","state":"South Carolina","state_ab":"SC","county":"Laurens","geo_location":{ "type": "Point", "coordinates": [-81.9584, 34.3408] }},
{"zip_code":"29046","country":"US","city":"Elliott","state":"South Carolina","state_ab":"SC","county":"Lee","geo_location":{ "type": "Point", "coordinates": [-80.241, 34.16] }},
{"zip_code":"29006","country":"US","city":"Batesburg","state":"South Carolina","state_ab":"SC","county":"Lexington","geo_location":{ "type": "Point", "coordinates": [-81.5505, 33.8702] }},
{"zip_code":"29033","country":"US","city":"Cayce","state":"South Carolina","state_ab":"SC","county":"Lexington","geo_location":{ "type": "Point", "coordinates": [-81.0671, 33.9626] }},
{"zip_code":"29073","country":"US","city":"Lexington","state":"South Carolina","state_ab":"SC","county":"Lexington","geo_location":{ "type": "Point", "coordinates": [-81.2351, 33.8632] }},
{"zip_code":"29123","country":"US","city":"Pelion","state":"South Carolina","state_ab":"SC","county":"Lexington","geo_location":{ "type": "Point", "coordinates": [-81.2502, 33.7766] }},
{"zip_code":"29899","country":"US","city":"Mc Cormick","state":"South Carolina","state_ab":"SC","county":"McCormick","geo_location":{ "type": "Point", "coordinates": [-82.32, 33.8356] }},
{"zip_code":"29589","country":"US","city":"Rains","state":"South Carolina","state_ab":"SC","county":"Marion","geo_location":{ "type": "Point", "coordinates": [-79.3221, 34.1053] }},
{"zip_code":"29679","country":"US","city":"Seneca","state":"South Carolina","state_ab":"SC","county":"Oconee","geo_location":{ "type": "Point", "coordinates": [-82.9397, 34.6079] }},
{"zip_code":"29693","country":"US","city":"Westminster","state":"South Carolina","state_ab":"SC","county":"Oconee","geo_location":{ "type": "Point", "coordinates": [-83.1535, 34.6965] }},
{"zip_code":"29059","country":"US","city":"Holly Hill","state":"South Carolina","state_ab":"SC","county":"Orangeburg","geo_location":{ "type": "Point", "coordinates": [-80.4024, 33.3276] }},
{"zip_code":"29163","country":"US","city":"Vance","state":"South Carolina","state_ab":"SC","county":"Orangeburg","geo_location":{ "type": "Point", "coordinates": [-80.4617, 33.4139] }},
{"zip_code":"29640","country":"US","city":"Easley","state":"South Carolina","state_ab":"SC","county":"Pickens","geo_location":{ "type": "Point", "coordinates": [-82.5796, 34.829] }},
{"zip_code":"29226","country":"US","city":"Columbia","state":"South Carolina","state_ab":"SC","county":"Richland","geo_location":{ "type": "Point", "coordinates": [-80.9708, 34.006] }},
{"zip_code":"29240","country":"US","city":"Columbia","state":"South Carolina","state_ab":"SC","county":"Richland","geo_location":{ "type": "Point", "coordinates": [-80.9708, 34.006] }},
{"zip_code":"29303","country":"US","city":"Spartanburg","state":"South Carolina","state_ab":"SC","county":"Spartanburg","geo_location":{ "type": "Point", "coordinates": [-81.9168, 34.9803] }},
{"zip_code":"29316","country":"US","city":"Spartanburg","state":"South Carolina","state_ab":"SC","county":"Spartanburg","geo_location":{ "type": "Point", "coordinates": [-81.9793, 35.0305] }},
{"zip_code":"29329","country":"US","city":"Converse","state":"South Carolina","state_ab":"SC","county":"Spartanburg","geo_location":{ "type": "Point", "coordinates": [-81.833, 35.0017] }},
{"zip_code":"29330","country":"US","city":"Cowpens","state":"South Carolina","state_ab":"SC","county":"Spartanburg","geo_location":{ "type": "Point", "coordinates": [-81.822, 35.039] }},
{"zip_code":"29356","country":"US","city":"Landrum","state":"South Carolina","state_ab":"SC","county":"Spartanburg","geo_location":{ "type": "Point", "coordinates": [-82.2115, 35.1565] }},
{"zip_code":"29369","country":"US","city":"Moore","state":"South Carolina","state_ab":"SC","county":"Spartanburg","geo_location":{ "type": "Point", "coordinates": [-82.0215, 34.8646] }},
{"zip_code":"29150","country":"US","city":"Sumter","state":"South Carolina","state_ab":"SC","county":"Sumter","geo_location":{ "type": "Point", "coordinates": [-80.3542, 33.9137] }},
{"zip_code":"29590","country":"US","city":"Salters","state":"South Carolina","state_ab":"SC","county":"Williamsburg","geo_location":{ "type": "Point", "coordinates": [-79.83, 33.5611] }},
{"zip_code":"29703","country":"US","city":"Bowling Green","state":"South Carolina","state_ab":"SC","county":"York","geo_location":{ "type": "Point", "coordinates": [-81.1787, 34.9926] }},
{"zip_code":"29716","country":"US","city":"Fort Mill","state":"South Carolina","state_ab":"SC","county":"York","geo_location":{ "type": "Point", "coordinates": [-80.969, 35.0628] }},
{"zip_code":"29730","country":"US","city":"Rock Hill","state":"South Carolina","state_ab":"SC","county":"York","geo_location":{ "type": "Point", "coordinates": [-81.0129, 34.9151] }},
{"zip_code":"29743","country":"US","city":"Smyrna","state":"South Carolina","state_ab":"SC","county":"York","geo_location":{ "type": "Point", "coordinates": [-81.3896, 35.0308] }},
{"zip_code":"57386","country":"US","city":"Yale","state":"South Dakota","state_ab":"SD","county":"Beadle","geo_location":{ "type": "Point", "coordinates": [-98.0401, 44.5225] }},
{"zip_code":"57399","country":"US","city":"Huron","state":"South Dakota","state_ab":"SD","county":"Beadle","geo_location":{ "type": "Point", "coordinates": [-98.2795, 44.4143] }},
{"zip_code":"57063","country":"US","city":"Tabor","state":"South Dakota","state_ab":"SD","county":"Bon Homme","geo_location":{ "type": "Point", "coordinates": [-97.6923, 42.9383] }},
{"zip_code":"57449","country":"US","city":"Houghton","state":"South Dakota","state_ab":"SD","county":"Brown","geo_location":{ "type": "Point", "coordinates": [-98.0952, 45.7967] }},
{"zip_code":"57760","country":"US","city":"Newell","state":"South Dakota","state_ab":"SD","county":"Butte","geo_location":{ "type": "Point", "coordinates": [-103.3914, 44.741] }},
{"zip_code":"57229","country":"US","city":"Crocker","state":"South Dakota","state_ab":"SD","county":"Clark County","geo_location":{ "type": "Point", "coordinates": [-97.7844, 45.1053] }},
{"zip_code":"57010","country":"US","city":"Burbank","state":"South Dakota","state_ab":"SD","county":"Clay","geo_location":{ "type": "Point", "coordinates": [-96.8466, 42.7638] }},
{"zip_code":"57243","country":"US","city":"Henry","state":"South Dakota","state_ab":"SD","county":"Codington","geo_location":{ "type": "Point", "coordinates": [-97.4442, 44.8858] }},
{"zip_code":"57643","country":"US","city":"Mahto","state":"South Dakota","state_ab":"SD","county":"Corson","geo_location":{ "type": "Point", "coordinates": [-101.1546, 45.7084] }},
{"zip_code":"57773","country":"US","city":"Pringle","state":"South Dakota","state_ab":"SD","county":"Custer","geo_location":{ "type": "Point", "coordinates": [-103.3711, 43.6668] }},
{"zip_code":"57630","country":"US","city":"Glencross","state":"South Dakota","state_ab":"SD","county":"Dewey","geo_location":{ "type": "Point", "coordinates": [-100.8792, 45.0987] }},
{"zip_code":"57656","country":"US","city":"Timber Lake","state":"South Dakota","state_ab":"SD","county":"Dewey","geo_location":{ "type": "Point", "coordinates": [-101.0351, 45.3927] }},
{"zip_code":"57216","country":"US","city":"Big Stone City","state":"South Dakota","state_ab":"SD","county":"Grant","geo_location":{ "type": "Point", "coordinates": [-96.5614, 45.285] }},
{"zip_code":"57269","country":"US","city":"Twin Brooks","state":"South Dakota","state_ab":"SD","county":"Grant","geo_location":{ "type": "Point", "coordinates": [-96.8237, 45.2309] }},
{"zip_code":"57553","country":"US","city":"Milesville","state":"South Dakota","state_ab":"SD","county":"Haakon","geo_location":{ "type": "Point", "coordinates": [-101.7523, 44.4283] }},
{"zip_code":"57373","country":"US","city":"Saint Lawrence","state":"South Dakota","state_ab":"SD","county":"Hand","geo_location":{ "type": "Point", "coordinates": [-98.8754, 44.5215] }},
{"zip_code":"57720","country":"US","city":"Buffalo","state":"South Dakota","state_ab":"SD","county":"Harding","geo_location":{ "type": "Point", "coordinates": [-103.5826, 45.574] }},
{"zip_code":"57346","country":"US","city":"Stephan","state":"South Dakota","state_ab":"SD","county":"Hyde","geo_location":{ "type": "Point", "coordinates": [-99.4882, 44.5451] }},
{"zip_code":"57540","country":"US","city":"Holabird","state":"South Dakota","state_ab":"SD","county":"Hyde","geo_location":{ "type": "Point", "coordinates": [-99.5943, 44.5173] }},
{"zip_code":"57050","country":"US","city":"Nunda","state":"South Dakota","state_ab":"SD","county":"Lake","geo_location":{ "type": "Point", "coordinates": [-96.9942, 44.1525] }},
{"zip_code":"57076","country":"US","city":"Winfred","state":"South Dakota","state_ab":"SD","county":"Lake","geo_location":{ "type": "Point", "coordinates": [-97.3093, 43.9595] }},
{"zip_code":"57759","country":"US","city":"Nemo","state":"South Dakota","state_ab":"SD","county":"Lawrence","geo_location":{ "type": "Point", "coordinates": [-103.5449, 44.2097] }},
{"zip_code":"57799","country":"US","city":"Spearfish","state":"South Dakota","state_ab":"SD","county":"Lawrence","geo_location":{ "type": "Point", "coordinates": [-103.8703, 44.4958] }},
{"zip_code":"57319","country":"US","city":"Bridgewater","state":"South Dakota","state_ab":"SD","county":"McCook","geo_location":{ "type": "Point", "coordinates": [-97.4691, 43.5503] }},
{"zip_code":"57270","country":"US","city":"Veblen","state":"South Dakota","state_ab":"SD","county":"Marshall","geo_location":{ "type": "Point", "coordinates": [-97.3122, 45.8535] }},
{"zip_code":"57706","country":"US","city":"Ellsworth Afb","state":"South Dakota","state_ab":"SD","county":"Meade","geo_location":{ "type": "Point", "coordinates": [-103.0759, 44.1447] }},
{"zip_code":"57579","country":"US","city":"White River","state":"South Dakota","state_ab":"SD","county":"Mellette","geo_location":{ "type": "Point", "coordinates": [-100.7449, 43.5666] }},
{"zip_code":"57193","country":"US","city":"Sioux Falls","state":"South Dakota","state_ab":"SD","county":"Minnehaha","geo_location":{ "type": "Point", "coordinates": [-96.7913, 43.6746] }},
{"zip_code":"57719","country":"US","city":"Box Elder","state":"South Dakota","state_ab":"SD","county":"Pennington","geo_location":{ "type": "Point", "coordinates": [-103.0682, 44.1199] }},
{"zip_code":"57450","country":"US","city":"Hoven","state":"South Dakota","state_ab":"SD","county":"Potter","geo_location":{ "type": "Point", "coordinates": [-99.7763, 45.2278] }},
{"zip_code":"57256","country":"US","city":"Ortley","state":"South Dakota","state_ab":"SD","county":"Roberts","geo_location":{ "type": "Point", "coordinates": [-97.1925, 45.2657] }},
{"zip_code":"57359","country":"US","city":"Letcher","state":"South Dakota","state_ab":"SD","county":"Sanborn","geo_location":{ "type": "Point", "coordinates": [-98.1743, 43.8923] }},
{"zip_code":"57436","country":"US","city":"Doland","state":"South Dakota","state_ab":"SD","county":"Spink","geo_location":{ "type": "Point", "coordinates": [-98.0947, 44.8159] }},
{"zip_code":"57476","country":"US","city":"Tulare","state":"South Dakota","state_ab":"SD","county":"Spink","geo_location":{ "type": "Point", "coordinates": [-98.5539, 44.7305] }},
{"zip_code":"57566","country":"US","city":"Parmelee","state":"South Dakota","state_ab":"SD","county":"Todd","geo_location":{ "type": "Point", "coordinates": [-101.0081, 43.3117] }},
{"zip_code":"57526","country":"US","city":"Carter","state":"South Dakota","state_ab":"SD","county":"Tripp","geo_location":{ "type": "Point", "coordinates": [-99.8823, 43.3821] }},
{"zip_code":"57580","country":"US","city":"Winner","state":"South Dakota","state_ab":"SD","county":"Tripp","geo_location":{ "type": "Point", "coordinates": [-99.8033, 43.3318] }},
{"zip_code":"57036","country":"US","city":"Hurley","state":"South Dakota","state_ab":"SD","county":"Turner","geo_location":{ "type": "Point", "coordinates": [-97.1904, 43.2893] }},
{"zip_code":"57049","country":"US","city":"North Sioux City","state":"South Dakota","state_ab":"SD","county":"Union","geo_location":{ "type": "Point", "coordinates": [-96.5074, 42.5249] }},
{"zip_code":"57629","country":"US","city":"Glad Valley","state":"South Dakota","state_ab":"SD","county":"Ziebach","geo_location":{ "type": "Point", "coordinates": [-101.5687, 44.9921] }},
{"zip_code":"37830","country":"US","city":"Oak Ridge","state":"Tennessee","state_ab":"TN","county":"Anderson","geo_location":{ "type": "Point", "coordinates": [-84.2623, 36.0159] }},
{"zip_code":"37160","country":"US","city":"Shelbyville","state":"Tennessee","state_ab":"TN","county":"Bedford","geo_location":{ "type": "Point", "coordinates": [-86.4624, 35.4863] }},
{"zip_code":"37803","country":"US","city":"Maryville","state":"Tennessee","state_ab":"TN","county":"Blount","geo_location":{ "type": "Point", "coordinates": [-83.9956, 35.6539] }},
{"zip_code":"37353","country":"US","city":"Mc Donald","state":"Tennessee","state_ab":"TN","county":"Bradley","geo_location":{ "type": "Point", "coordinates": [-84.9892, 35.0869] }},
{"zip_code":"37766","country":"US","city":"La Follette","state":"Tennessee","state_ab":"TN","county":"Campbell","geo_location":{ "type": "Point", "coordinates": [-84.0907, 36.4248] }},
{"zip_code":"37016","country":"US","city":"Auburntown","state":"Tennessee","state_ab":"TN","county":"Cannon","geo_location":{ "type": "Point", "coordinates": [-86.1126, 35.9338] }},
{"zip_code":"37146","country":"US","city":"Pleasant View","state":"Tennessee","state_ab":"TN","county":"Cheatham","geo_location":{ "type": "Point", "coordinates": [-87.0395, 36.3783] }},
{"zip_code":"37870","country":"US","city":"Speedwell","state":"Tennessee","state_ab":"TN","county":"Claiborne","geo_location":{ "type": "Point", "coordinates": [-83.8135, 36.4797] }},
{"zip_code":"37713","country":"US","city":"Bybee","state":"Tennessee","state_ab":"TN","county":"Cocke","geo_location":{ "type": "Point", "coordinates": [-83.1631, 36.074] }},
{"zip_code":"37753","country":"US","city":"Hartford","state":"Tennessee","state_ab":"TN","county":"Cocke","geo_location":{ "type": "Point", "coordinates": [-83.0996, 35.8256] }},
{"zip_code":"37843","country":"US","city":"Parrottsville","state":"Tennessee","state_ab":"TN","county":"Cocke","geo_location":{ "type": "Point", "coordinates": [-83.0736, 35.9983] }},
{"zip_code":"38006","country":"US","city":"Bells","state":"Tennessee","state_ab":"TN","county":"Crockett","geo_location":{ "type": "Point", "coordinates": [-89.0729, 35.7198] }},
{"zip_code":"37070","country":"US","city":"Goodlettsville","state":"Tennessee","state_ab":"TN","county":"Davidson","geo_location":{ "type": "Point", "coordinates": [-86.7852, 36.1866] }},
{"zip_code":"37209","country":"US","city":"Nashville","state":"Tennessee","state_ab":"TN","county":"Davidson","geo_location":{ "type": "Point", "coordinates": [-86.8602, 36.1546] }},
{"zip_code":"37210","country":"US","city":"Nashville","state":"Tennessee","state_ab":"TN","county":"Davidson","geo_location":{ "type": "Point", "coordinates": [-86.741, 36.1379] }},
{"zip_code":"37236","country":"US","city":"Nashville","state":"Tennessee","state_ab":"TN","county":"Davidson","geo_location":{ "type": "Point", "coordinates": [-86.7852, 36.1866] }},
{"zip_code":"37249","country":"US","city":"Nashville","state":"Tennessee","state_ab":"TN","county":"Davidson","geo_location":{ "type": "Point", "coordinates": [-86.7852, 36.1866] }},
{"zip_code":"37250","country":"US","city":"Nashville","state":"Tennessee","state_ab":"TN","county":"Davidson","geo_location":{ "type": "Point", "coordinates": [-86.7852, 36.1866] }},
{"zip_code":"38329","country":"US","city":"Decaturville","state":"Tennessee","state_ab":"TN","county":"Decatur","geo_location":{ "type": "Point", "coordinates": [-88.1334, 35.5585] }},
{"zip_code":"37029","country":"US","city":"Burns","state":"Tennessee","state_ab":"TN","county":"Dickson","geo_location":{ "type": "Point", "coordinates": [-87.3061, 36.0471] }},
{"zip_code":"37056","country":"US","city":"Dickson","state":"Tennessee","state_ab":"TN","county":"Dickson","geo_location":{ "type": "Point", "coordinates": [-87.353, 36.1469] }},
{"zip_code":"38033","country":"US","city":"Fowlkes","state":"Tennessee","state_ab":"TN","county":"Dyer County","geo_location":{ "type": "Point", "coordinates": [-89.3861, 35.9706] }},
{"zip_code":"38059","country":"US","city":"Newbern","state":"Tennessee","state_ab":"TN","county":"Dyer","geo_location":{ "type": "Point", "coordinates": [-89.2514, 36.1009] }},
{"zip_code":"38046","country":"US","city":"La Grange","state":"Tennessee","state_ab":"TN","county":"Fayette","geo_location":{ "type": "Point", "coordinates": [-89.3504, 35.1049] }},
{"zip_code":"38060","country":"US","city":"Oakland","state":"Tennessee","state_ab":"TN","county":"Fayette","geo_location":{ "type": "Point", "coordinates": [-89.5518, 35.2229] }},
{"zip_code":"38589","country":"US","city":"Wilder","state":"Tennessee","state_ab":"TN","county":"Fentress","geo_location":{ "type": "Point", "coordinates": [-85.0913, 36.2822] }},
{"zip_code":"38316","country":"US","city":"Bradford","state":"Tennessee","state_ab":"TN","county":"Gibson","geo_location":{ "type": "Point", "coordinates": [-88.8046, 36.0645] }},
{"zip_code":"38330","country":"US","city":"Dyer","state":"Tennessee","state_ab":"TN","county":"Gibson","geo_location":{ "type": "Point", "coordinates": [-89.0192, 36.0716] }},
{"zip_code":"38343","country":"US","city":"Humboldt","state":"Tennessee","state_ab":"TN","county":"Gibson","geo_location":{ "type": "Point", "coordinates": [-88.9057, 35.837] }},
{"zip_code":"38369","country":"US","city":"Rutherford","state":"Tennessee","state_ab":"TN","county":"Gibson","geo_location":{ "type": "Point", "coordinates": [-88.9849, 36.13] }},
{"zip_code":"38459","country":"US","city":"Frankewing","state":"Tennessee","state_ab":"TN","county":"Giles","geo_location":{ "type": "Point", "coordinates": [-86.85, 35.1834] }},
{"zip_code":"38460","country":"US","city":"Goodspring","state":"Tennessee","state_ab":"TN","county":"Giles","geo_location":{ "type": "Point", "coordinates": [-87.1278, 35.1167] }},
{"zip_code":"38473","country":"US","city":"Minor Hill","state":"Tennessee","state_ab":"TN","county":"Giles","geo_location":{ "type": "Point", "coordinates": [-87.1522, 35.05] }},
{"zip_code":"37313","country":"US","city":"Coalmont","state":"Tennessee","state_ab":"TN","county":"Grundy","geo_location":{ "type": "Point", "coordinates": [-85.7003, 35.3516] }},
{"zip_code":"37339","country":"US","city":"Gruetli Laager","state":"Tennessee","state_ab":"TN","county":"Grundy","geo_location":{ "type": "Point", "coordinates": [-85.6698, 35.3635] }},
{"zip_code":"37366","country":"US","city":"Pelham","state":"Tennessee","state_ab":"TN","county":"Grundy","geo_location":{ "type": "Point", "coordinates": [-85.8441, 35.314] }},
{"zip_code":"37816","country":"US","city":"Morristown","state":"Tennessee","state_ab":"TN","county":"Hamblen","geo_location":{ "type": "Point", "coordinates": [-83.2752, 36.2133] }},
{"zip_code":"37379","country":"US","city":"Soddy Daisy","state":"Tennessee","state_ab":"TN","county":"Hamilton","geo_location":{ "type": "Point", "coordinates": [-85.163, 35.2527] }},
{"zip_code":"37403","country":"US","city":"Chattanooga","state":"Tennessee","state_ab":"TN","county":"Hamilton","geo_location":{ "type": "Point", "coordinates": [-85.2965, 35.045] }},
{"zip_code":"37416","country":"US","city":"Chattanooga","state":"Tennessee","state_ab":"TN","county":"Hamilton","geo_location":{ "type": "Point", "coordinates": [-85.1757, 35.0942] }},
{"zip_code":"37869","country":"US","city":"Sneedville","state":"Tennessee","state_ab":"TN","county":"Hancock","geo_location":{ "type": "Point", "coordinates": [-83.2529, 36.5275] }},
{"zip_code":"38370","country":"US","city":"Saltillo","state":"Tennessee","state_ab":"TN","county":"Hardin","geo_location":{ "type": "Point", "coordinates": [-88.2472, 35.3815] }},
{"zip_code":"37919","country":"US","city":"Knoxville","state":"Tennessee","state_ab":"TN","county":"Knox","geo_location":{ "type": "Point", "coordinates": [-84.0015, 35.9244] }},
{"zip_code":"37920","country":"US","city":"Knoxville","state":"Tennessee","state_ab":"TN","county":"Knox","geo_location":{ "type": "Point", "coordinates": [-83.9387, 35.8929] }},
{"zip_code":"37933","country":"US","city":"Knoxville","state":"Tennessee","state_ab":"TN","county":"Knox","geo_location":{ "type": "Point", "coordinates": [-83.9622, 35.9901] }},
{"zip_code":"37999","country":"US","city":"Knoxville","state":"Tennessee","state_ab":"TN","county":"Knox","geo_location":{ "type": "Point", "coordinates": [-83.9622, 35.9901] }},
{"zip_code":"38486","country":"US","city":"Westpoint","state":"Tennessee","state_ab":"TN","county":"Lawrence","geo_location":{ "type": "Point", "coordinates": [-87.538, 35.1393] }},
{"zip_code":"37083","country":"US","city":"Lafayette","state":"Tennessee","state_ab":"TN","county":"Macon","geo_location":{ "type": "Point", "coordinates": [-86.0242, 36.539] }},
{"zip_code":"38303","country":"US","city":"Jackson","state":"Tennessee","state_ab":"TN","county":"Madison","geo_location":{ "type": "Point", "coordinates": [-88.8412, 35.6124] }},
{"zip_code":"38356","country":"US","city":"Medon","state":"Tennessee","state_ab":"TN","county":"Madison","geo_location":{ "type": "Point", "coordinates": [-88.8953, 35.4345] }},
{"zip_code":"37340","country":"US","city":"Guild","state":"Tennessee","state_ab":"TN","county":"Marion","geo_location":{ "type": "Point", "coordinates": [-85.5116, 35.0178] }},
{"zip_code":"37380","country":"US","city":"South Pittsburg","state":"Tennessee","state_ab":"TN","county":"Marion","geo_location":{ "type": "Point", "coordinates": [-85.7225, 35.028] }},
{"zip_code":"37043","country":"US","city":"Clarksville","state":"Tennessee","state_ab":"TN","county":"Montgomery","geo_location":{ "type": "Point", "coordinates": [-87.2757, 36.5107] }},
{"zip_code":"37726","country":"US","city":"Deer Lodge","state":"Tennessee","state_ab":"TN","county":"Morgan","geo_location":{ "type": "Point", "coordinates": [-84.8191, 36.2176] }},
{"zip_code":"37829","country":"US","city":"Oakdale","state":"Tennessee","state_ab":"TN","county":"Morgan","geo_location":{ "type": "Point", "coordinates": [-84.5753, 36.01] }},
{"zip_code":"38240","country":"US","city":"Obion","state":"Tennessee","state_ab":"TN","county":"Obion","geo_location":{ "type": "Point", "coordinates": [-89.2805, 36.2657] }},
{"zip_code":"38253","country":"US","city":"Rives","state":"Tennessee","state_ab":"TN","county":"Obion","geo_location":{ "type": "Point", "coordinates": [-89.0731, 36.3108] }},
{"zip_code":"37096","country":"US","city":"Linden","state":"Tennessee","state_ab":"TN","county":"Perry","geo_location":{ "type": "Point", "coordinates": [-87.8567, 35.5944] }},
{"zip_code":"38549","country":"US","city":"Byrdstown","state":"Tennessee","state_ab":"TN","county":"Pickett","geo_location":{ "type": "Point", "coordinates": [-85.1456, 36.5709] }},
{"zip_code":"37326","country":"US","city":"Ducktown","state":"Tennessee","state_ab":"TN","county":"Polk","geo_location":{ "type": "Point", "coordinates": [-84.3792, 35.0339] }},
{"zip_code":"37133","country":"US","city":"Murfreesboro","state":"Tennessee","state_ab":"TN","county":"Rutherford","geo_location":{ "type": "Point", "coordinates": [-86.421, 35.8596] }},
{"zip_code":"37883","country":"US","city":"Treadway","state":"Tennessee","state_ab":"TN","county":"Sevier County","geo_location":{ "type": "Point", "coordinates": [-83.2191, 36.4282] }},
{"zip_code":"38109","country":"US","city":"Memphis","state":"Tennessee","state_ab":"TN","county":"Shelby","geo_location":{ "type": "Point", "coordinates": [-90.0732, 35.0425] }},
{"zip_code":"38110","country":"US","city":"Memphis","state":"Tennessee","state_ab":"TN","county":"Shelby","geo_location":{ "type": "Point", "coordinates": [-89.9715, 35.2017] }},
{"zip_code":"38136","country":"US","city":"Memphis","state":"Tennessee","state_ab":"TN","county":"Shelby","geo_location":{ "type": "Point", "coordinates": [-89.9715, 35.2017] }},
{"zip_code":"38150","country":"US","city":"Memphis","state":"Tennessee","state_ab":"TN","county":"Shelby","geo_location":{ "type": "Point", "coordinates": [-89.9715, 35.2017] }},
{"zip_code":"38163","country":"US","city":"Memphis","state":"Tennessee","state_ab":"TN","county":"Shelby","geo_location":{ "type": "Point", "coordinates": [-89.9715, 35.2017] }},
{"zip_code":"38190","country":"US","city":"Memphis","state":"Tennessee","state_ab":"TN","county":"Shelby","geo_location":{ "type": "Point", "coordinates": [-89.9715, 35.2017] }},
{"zip_code":"37030","country":"US","city":"Carthage","state":"Tennessee","state_ab":"TN","county":"Smith","geo_location":{ "type": "Point", "coordinates": [-85.9517, 36.2763] }},
{"zip_code":"38563","country":"US","city":"Gordonsville","state":"Tennessee","state_ab":"TN","county":"Smith","geo_location":{ "type": "Point", "coordinates": [-86.0008, 36.1843] }},
{"zip_code":"37663","country":"US","city":"Kingsport","state":"Tennessee","state_ab":"TN","county":"Sullivan","geo_location":{ "type": "Point", "coordinates": [-82.4834, 36.4715] }},
{"zip_code":"37119","country":"US","city":"Mitchellville","state":"Tennessee","state_ab":"TN","county":"Sumner","geo_location":{ "type": "Point", "coordinates": [-86.539, 36.632] }},
{"zip_code":"37186","country":"US","city":"Westmoreland","state":"Tennessee","state_ab":"TN","county":"Sumner","geo_location":{ "type": "Point", "coordinates": [-86.2353, 36.5756] }},
{"zip_code":"38019","country":"US","city":"Covington","state":"Tennessee","state_ab":"TN","county":"Tipton","geo_location":{ "type": "Point", "coordinates": [-89.6501, 35.5598] }},
{"zip_code":"37650","country":"US","city":"Erwin","state":"Tennessee","state_ab":"TN","county":"Unicoi","geo_location":{ "type": "Point", "coordinates": [-82.4163, 36.1342] }},
{"zip_code":"37779","country":"US","city":"Luttrell","state":"Tennessee","state_ab":"TN","county":"Union","geo_location":{ "type": "Point", "coordinates": [-83.76, 36.2001] }},
{"zip_code":"38550","country":"US","city":"Campaign","state":"Tennessee","state_ab":"TN","county":"Warren","geo_location":{ "type": "Point", "coordinates": [-85.6192, 35.7734] }},
{"zip_code":"37690","country":"US","city":"Telford","state":"Tennessee","state_ab":"TN","county":"Washington","geo_location":{ "type": "Point", "coordinates": [-82.5369, 36.2451] }},
{"zip_code":"38226","country":"US","city":"Dukedom","state":"Tennessee","state_ab":"TN","county":"Weakley","geo_location":{ "type": "Point", "coordinates": [-88.6926, 36.4796] }},
{"zip_code":"37069","country":"US","city":"Franklin","state":"Tennessee","state_ab":"TN","county":"Williamson","geo_location":{ "type": "Point", "coordinates": [-86.9106, 35.9796] }},
{"zip_code":"75980","country":"US","city":"Zavalla","state":"Texas","state_ab":"TX","county":"Angelina","geo_location":{ "type": "Point", "coordinates": [-94.3871, 31.1569] }},
{"zip_code":"76389","country":"US","city":"Windthorst","state":"Texas","state_ab":"TX","county":"Archer","geo_location":{ "type": "Point", "coordinates": [-98.4376, 33.5796] }},
{"zip_code":"78950","country":"US","city":"New Ulm","state":"Texas","state_ab":"TX","county":"Austin","geo_location":{ "type": "Point", "coordinates": [-96.4961, 29.9134] }},
{"zip_code":"79320","country":"US","city":"Bula","state":"Texas","state_ab":"TX","county":"Bailey","geo_location":{ "type": "Point", "coordinates": [-102.6564, 33.897] }},
{"zip_code":"76503","country":"US","city":"Temple","state":"Texas","state_ab":"TX","county":"Bell","geo_location":{ "type": "Point", "coordinates": [-97.3203, 31.054] }},
{"zip_code":"76543","country":"US","city":"Killeen","state":"Texas","state_ab":"TX","county":"Bell","geo_location":{ "type": "Point", "coordinates": [-97.6651, 31.1172] }},
{"zip_code":"76569","country":"US","city":"Rogers","state":"Texas","state_ab":"TX","county":"Bell","geo_location":{ "type": "Point", "coordinates": [-97.2228, 30.955] }},
{"zip_code":"78073","country":"US","city":"Von Ormy","state":"Texas","state_ab":"TX","county":"Bexar","geo_location":{ "type": "Point", "coordinates": [-98.6677, 29.275] }},
{"zip_code":"78109","country":"US","city":"Converse","state":"Texas","state_ab":"TX","county":"Bexar","geo_location":{ "type": "Point", "coordinates": [-98.3217, 29.5173] }},
{"zip_code":"78150","country":"US","city":"Universal City","state":"Texas","state_ab":"TX","county":"Bexar","geo_location":{ "type": "Point", "coordinates": [-98.4616, 29.4375] }},
{"zip_code":"78213","country":"US","city":"San Antonio","state":"Texas","state_ab":"TX","county":"Bexar","geo_location":{ "type": "Point", "coordinates": [-98.5273, 29.5234] }},
{"zip_code":"78226","country":"US","city":"San Antonio","state":"Texas","state_ab":"TX","county":"Bexar","geo_location":{ "type": "Point", "coordinates": [-98.5511, 29.393] }},
{"zip_code":"78239","country":"US","city":"San Antonio","state":"Texas","state_ab":"TX","county":"Bexar","geo_location":{ "type": "Point", "coordinates": [-98.3627, 29.5182] }},
{"zip_code":"78240","country":"US","city":"San Antonio","state":"Texas","state_ab":"TX","county":"Bexar","geo_location":{ "type": "Point", "coordinates": [-98.6006, 29.5189] }},
{"zip_code":"78253","country":"US","city":"San Antonio","state":"Texas","state_ab":"TX","county":"Bexar","geo_location":{ "type": "Point", "coordinates": [-98.7479, 29.4599] }},
{"zip_code":"78279","country":"US","city":"San Antonio","state":"Texas","state_ab":"TX","county":"Bexar","geo_location":{ "type": "Point", "coordinates": [-98.4616, 29.4375] }},
{"zip_code":"78280","country":"US","city":"San Antonio","state":"Texas","state_ab":"TX","county":"Bexar","geo_location":{ "type": "Point", "coordinates": [-98.4616, 29.4375] }},
{"zip_code":"78293","country":"US","city":"San Antonio","state":"Texas","state_ab":"TX","county":"Bexar","geo_location":{ "type": "Point", "coordinates": [-98.4616, 29.4375] }},
{"zip_code":"77430","country":"US","city":"Damon","state":"Texas","state_ab":"TX","county":"Brazoria","geo_location":{ "type": "Point", "coordinates": [-95.7036, 29.3014] }},
{"zip_code":"77803","country":"US","city":"Bryan","state":"Texas","state_ab":"TX","county":"Brazos","geo_location":{ "type": "Point", "coordinates": [-96.3714, 30.6913] }},
{"zip_code":"77843","country":"US","city":"College Station","state":"Texas","state_ab":"TX","county":"Brazos","geo_location":{ "type": "Point", "coordinates": [-96.341, 30.6521] }},
{"zip_code":"77869","country":"US","city":"Navasota","state":"Texas","state_ab":"TX","county":"Brazos","geo_location":{ "type": "Point", "coordinates": [-96.341, 30.6521] }},
{"zip_code":"78523","country":"US","city":"Brownsville","state":"Texas","state_ab":"TX","county":"Cameron","geo_location":{ "type": "Point", "coordinates": [-97.5209, 25.981] }},
{"zip_code":"78550","country":"US","city":"Harlingen","state":"Texas","state_ab":"TX","county":"Cameron","geo_location":{ "type": "Point", "coordinates": [-97.689, 26.1951] }},
{"zip_code":"75566","country":"US","city":"Marietta","state":"Texas","state_ab":"TX","county":"Cass","geo_location":{ "type": "Point", "coordinates": [-94.5421, 33.1796] }},
{"zip_code":"75630","country":"US","city":"Avinger","state":"Texas","state_ab":"TX","county":"Cass","geo_location":{ "type": "Point", "coordinates": [-94.5795, 32.8485] }},
{"zip_code":"75656","country":"US","city":"Hughes Springs","state":"Texas","state_ab":"TX","county":"Cass","geo_location":{ "type": "Point", "coordinates": [-94.6228, 33.0168] }},
{"zip_code":"79063","country":"US","city":"Nazareth","state":"Texas","state_ab":"TX","county":"Castro","geo_location":{ "type": "Point", "coordinates": [-102.1069, 34.5444] }},
{"zip_code":"77560","country":"US","city":"Hankamer","state":"Texas","state_ab":"TX","county":"Chambers","geo_location":{ "type": "Point", "coordinates": [-94.5938, 29.8752] }},
{"zip_code":"75759","country":"US","city":"Cuney","state":"Texas","state_ab":"TX","county":"Cherokee","geo_location":{ "type": "Point", "coordinates": [-95.42, 32.0415] }},
{"zip_code":"79346","country":"US","city":"Morton","state":"Texas","state_ab":"TX","county":"Cochran","geo_location":{ "type": "Point", "coordinates": [-102.7796, 33.7157] }},
{"zip_code":"75009","country":"US","city":"Celina","state":"Texas","state_ab":"TX","county":"Collin","geo_location":{ "type": "Point", "coordinates": [-96.7673, 33.3103] }},
{"zip_code":"75023","country":"US","city":"Plano","state":"Texas","state_ab":"TX","county":"Collin","geo_location":{ "type": "Point", "coordinates": [-96.7365, 33.055] }},
{"zip_code":"75166","country":"US","city":"Lavon","state":"Texas","state_ab":"TX","county":"Collin","geo_location":{ "type": "Point", "coordinates": [-96.4377, 33.0139] }},
{"zip_code":"75409","country":"US","city":"Anna","state":"Texas","state_ab":"TX","county":"Collin","geo_location":{ "type": "Point", "coordinates": [-96.5639, 33.3445] }},
{"zip_code":"79230","country":"US","city":"Dodson","state":"Texas","state_ab":"TX","county":"Collingsworth","geo_location":{ "type": "Point", "coordinates": [-100.0286, 34.7644] }},
{"zip_code":"77470","country":"US","city":"Rock Island","state":"Texas","state_ab":"TX","county":"Colorado","geo_location":{ "type": "Point", "coordinates": [-96.5796, 29.4745] }},
{"zip_code":"78163","country":"US","city":"Bulverde","state":"Texas","state_ab":"TX","county":"Comal","geo_location":{ "type": "Point", "coordinates": [-98.4626, 29.7767] }},
{"zip_code":"78266","country":"US","city":"San Antonio","state":"Texas","state_ab":"TX","county":"Comal","geo_location":{ "type": "Point", "coordinates": [-98.3118, 29.6643] }},
{"zip_code":"76866","country":"US","city":"Paint Rock","state":"Texas","state_ab":"TX","county":"Concho","geo_location":{ "type": "Point", "coordinates": [-99.9139, 31.5048] }},
{"zip_code":"76596","country":"US","city":"Gatesville","state":"Texas","state_ab":"TX","county":"Coryell","geo_location":{ "type": "Point", "coordinates": [-97.7993, 31.3902] }},
{"zip_code":"76943","country":"US","city":"Ozona","state":"Texas","state_ab":"TX","county":"Crockett","geo_location":{ "type": "Point", "coordinates": [-101.2388, 30.7164] }},
{"zip_code":"75049","country":"US","city":"Garland","state":"Texas","state_ab":"TX","county":"Dallas","geo_location":{ "type": "Point", "coordinates": [-96.7776, 32.7673] }},
{"zip_code":"75050","country":"US","city":"Grand Prairie","state":"Texas","state_ab":"TX","county":"Dallas","geo_location":{ "type": "Point", "coordinates": [-97.0112, 32.7649] }},
{"zip_code":"75063","country":"US","city":"Irving","state":"Texas","state_ab":"TX","county":"Dallas","geo_location":{ "type": "Point", "coordinates": [-96.9598, 32.9247] }},
{"zip_code":"75089","country":"US","city":"Rowlett","state":"Texas","state_ab":"TX","county":"Dallas","geo_location":{ "type": "Point", "coordinates": [-96.5544, 32.9346] }},
{"zip_code":"75180","country":"US","city":"Mesquite","state":"Texas","state_ab":"TX","county":"Dallas","geo_location":{ "type": "Point", "coordinates": [-96.6153, 32.7212] }},
{"zip_code":"75203","country":"US","city":"Dallas","state":"Texas","state_ab":"TX","county":"Dallas","geo_location":{ "type": "Point", "coordinates": [-96.807, 32.746] }},
{"zip_code":"75216","country":"US","city":"Dallas","state":"Texas","state_ab":"TX","county":"Dallas","geo_location":{ "type": "Point", "coordinates": [-96.7955, 32.7086] }},
{"zip_code":"75229","country":"US","city":"Dallas","state":"Texas","state_ab":"TX","county":"Dallas","geo_location":{ "type": "Point", "coordinates": [-96.8588, 32.8958] }},
{"zip_code":"75230","country":"US","city":"Dallas","state":"Texas","state_ab":"TX","county":"Dallas","geo_location":{ "type": "Point", "coordinates": [-96.7897, 32.8999] }},
{"zip_code":"75243","country":"US","city":"Dallas","state":"Texas","state_ab":"TX","county":"Dallas","geo_location":{ "type": "Point", "coordinates": [-96.7285, 32.9103] }},
{"zip_code":"75270","country":"US","city":"Dallas","state":"Texas","state_ab":"TX","county":"Dallas","geo_location":{ "type": "Point", "coordinates": [-96.8019, 32.7813] }},
{"zip_code":"75283","country":"US","city":"Dallas","state":"Texas","state_ab":"TX","county":"Dallas","geo_location":{ "type": "Point", "coordinates": [-96.7776, 32.7673] }},
{"zip_code":"75320","country":"US","city":"Dallas","state":"Texas","state_ab":"TX","county":"Dallas","geo_location":{ "type": "Point", "coordinates": [-96.7776, 32.7673] }},
{"zip_code":"75346","country":"US","city":"Dallas","state":"Texas","state_ab":"TX","county":"Dallas","geo_location":{ "type": "Point", "coordinates": [-96.7776, 32.7673] }},
{"zip_code":"75359","country":"US","city":"Dallas","state":"Texas","state_ab":"TX","county":"Dallas","geo_location":{ "type": "Point", "coordinates": [-96.7776, 32.7673] }},
{"zip_code":"75360","country":"US","city":"Dallas","state":"Texas","state_ab":"TX","county":"Dallas","geo_location":{ "type": "Point", "coordinates": [-96.7776, 32.7673] }},
{"zip_code":"75373","country":"US","city":"Dallas","state":"Texas","state_ab":"TX","county":"Dallas","geo_location":{ "type": "Point", "coordinates": [-96.7776, 32.7673] }},
{"zip_code":"75386","country":"US","city":"Dallas","state":"Texas","state_ab":"TX","county":"Dallas","geo_location":{ "type": "Point", "coordinates": [-96.7776, 32.7673] }},
{"zip_code":"75450","country":"US","city":"Lake Creek","state":"Texas","state_ab":"TX","county":"Delta","geo_location":{ "type": "Point", "coordinates": [-95.4551, 33.4116] }},
{"zip_code":"75010","country":"US","city":"Carrollton","state":"Texas","state_ab":"TX","county":"Denton","geo_location":{ "type": "Point", "coordinates": [-96.8777, 33.0304] }},
{"zip_code":"76206","country":"US","city":"Denton","state":"Texas","state_ab":"TX","county":"Denton","geo_location":{ "type": "Point", "coordinates": [-97.1506, 33.1694] }},
{"zip_code":"76259","country":"US","city":"Ponder","state":"Texas","state_ab":"TX","county":"Denton","geo_location":{ "type": "Point", "coordinates": [-97.2848, 33.1774] }},
{"zip_code":"76299","country":"US","city":"Roanoke","state":"Texas","state_ab":"TX","county":"Denton","geo_location":{ "type": "Point", "coordinates": [-97.1163, 33.2074] }},
{"zip_code":"79229","country":"US","city":"Dickens","state":"Texas","state_ab":"TX","county":"Dickens","geo_location":{ "type": "Point", "coordinates": [-100.8197, 33.628] }},
{"zip_code":"79243","country":"US","city":"Mcadoo","state":"Texas","state_ab":"TX","county":"Dickens","geo_location":{ "type": "Point", "coordinates": [-100.9833, 33.7413] }},
{"zip_code":"76466","country":"US","city":"Olden","state":"Texas","state_ab":"TX","county":"Eastland","geo_location":{ "type": "Point", "coordinates": [-98.7342, 32.4421] }},
{"zip_code":"79759","country":"US","city":"Notrees","state":"Texas","state_ab":"TX","county":"Ector","geo_location":{ "type": "Point", "coordinates": [-102.7413, 31.8599] }},
{"zip_code":"79760","country":"US","city":"Odessa","state":"Texas","state_ab":"TX","county":"Ector","geo_location":{ "type": "Point", "coordinates": [-102.3543, 31.7652] }},
{"zip_code":"79836","country":"US","city":"Clint","state":"Texas","state_ab":"TX","county":"El Paso","geo_location":{ "type": "Point", "coordinates": [-106.2038, 31.5494] }},
{"zip_code":"79849","country":"US","city":"San Elizario","state":"Texas","state_ab":"TX","county":"El Paso","geo_location":{ "type": "Point", "coordinates": [-106.2507, 31.5508] }},
{"zip_code":"79913","country":"US","city":"El Paso","state":"Texas","state_ab":"TX","county":"El Paso","geo_location":{ "type": "Point", "coordinates": [-106.5724, 31.9373] }},
{"zip_code":"79926","country":"US","city":"El Paso","state":"Texas","state_ab":"TX","county":"El Paso","geo_location":{ "type": "Point", "coordinates": [-106.3, 31.6948] }},
{"zip_code":"79940","country":"US","city":"El Paso","state":"Texas","state_ab":"TX","county":"El Paso","geo_location":{ "type": "Point", "coordinates": [-106.3, 31.6948] }},
{"zip_code":"79953","country":"US","city":"El Paso","state":"Texas","state_ab":"TX","county":"El Paso","geo_location":{ "type": "Point", "coordinates": [-106.3, 31.6948] }},
{"zip_code":"79966","country":"US","city":"El Paso","state":"Texas","state_ab":"TX","county":"El Paso","geo_location":{ "type": "Point", "coordinates": [-106.3, 31.6948] }},
{"zip_code":"79980","country":"US","city":"El Paso","state":"Texas","state_ab":"TX","county":"El Paso","geo_location":{ "type": "Point", "coordinates": [-106.3, 31.6948] }},
{"zip_code":"79993","country":"US","city":"El Paso","state":"Texas","state_ab":"TX","county":"El Paso","geo_location":{ "type": "Point", "coordinates": [-106.3, 31.6948] }},
{"zip_code":"88513","country":"US","city":"El Paso","state":"Texas","state_ab":"TX","county":"El Paso","geo_location":{ "type": "Point", "coordinates": [-106.3, 31.6948] }},
{"zip_code":"88526","country":"US","city":"El Paso","state":"Texas","state_ab":"TX","county":"El Paso","geo_location":{ "type": "Point", "coordinates": [-106.3, 31.6948] }},
{"zip_code":"88539","country":"US","city":"El Paso","state":"Texas","state_ab":"TX","county":"El Paso","geo_location":{ "type": "Point", "coordinates": [-106.3, 31.6948] }},
{"zip_code":"88540","country":"US","city":"El Paso","state":"Texas","state_ab":"TX","county":"El Paso","geo_location":{ "type": "Point", "coordinates": [-106.3, 31.6948] }},
{"zip_code":"88553","country":"US","city":"El Paso","state":"Texas","state_ab":"TX","county":"El Paso","geo_location":{ "type": "Point", "coordinates": [-106.3, 31.6948] }},
{"zip_code":"88566","country":"US","city":"El Paso","state":"Texas","state_ab":"TX","county":"El Paso","geo_location":{ "type": "Point", "coordinates": [-106.3, 31.6948] }},
{"zip_code":"88579","country":"US","city":"El Paso","state":"Texas","state_ab":"TX","county":"El Paso","geo_location":{ "type": "Point", "coordinates": [-106.3, 31.6948] }},
{"zip_code":"88580","country":"US","city":"El Paso","state":"Texas","state_ab":"TX","county":"El Paso","geo_location":{ "type": "Point", "coordinates": [-106.3, 31.6948] }},
{"zip_code":"76570","country":"US","city":"Rosebud","state":"Texas","state_ab":"TX","county":"Falls","geo_location":{ "type": "Point", "coordinates": [-96.9755, 31.0922] }},
{"zip_code":"75449","country":"US","city":"Ladonia","state":"Texas","state_ab":"TX","county":"Fannin","geo_location":{ "type": "Point", "coordinates": [-95.9455, 33.4245] }},
{"zip_code":"75476","country":"US","city":"Ravenna","state":"Texas","state_ab":"TX","county":"Fannin","geo_location":{ "type": "Point", "coordinates": [-96.1452, 33.7098] }},
{"zip_code":"75490","country":"US","city":"Trenton","state":"Texas","state_ab":"TX","county":"Fannin","geo_location":{ "type": "Point", "coordinates": [-96.3398, 33.4235] }},
{"zip_code":"78949","country":"US","city":"Muldoon","state":"Texas","state_ab":"TX","county":"Fayette","geo_location":{ "type": "Point", "coordinates": [-97.1006, 29.7993] }},
{"zip_code":"78963","country":"US","city":"West Point","state":"Texas","state_ab":"TX","county":"Fayette","geo_location":{ "type": "Point", "coordinates": [-97.0361, 29.9523] }},
{"zip_code":"77469","country":"US","city":"Richmond","state":"Texas","state_ab":"TX","county":"Fort Bend","geo_location":{ "type": "Point", "coordinates": [-95.7329, 29.5511] }},
{"zip_code":"77496","country":"US","city":"Sugar Land","state":"Texas","state_ab":"TX","county":"Fort Bend","geo_location":{ "type": "Point", "coordinates": [-95.7565, 29.5255] }},
{"zip_code":"79359","country":"US","city":"Seagraves","state":"Texas","state_ab":"TX","county":"Gaines","geo_location":{ "type": "Point", "coordinates": [-102.5781, 32.9317] }},
{"zip_code":"79360","country":"US","city":"Seminole","state":"Texas","state_ab":"TX","county":"Gaines","geo_location":{ "type": "Point", "coordinates": [-102.6828, 32.721] }},
{"zip_code":"77546","country":"US","city":"Friendswood","state":"Texas","state_ab":"TX","county":"Galveston","geo_location":{ "type": "Point", "coordinates": [-95.1879, 29.5224] }},
{"zip_code":"77573","country":"US","city":"League City","state":"Texas","state_ab":"TX","county":"Galveston","geo_location":{ "type": "Point", "coordinates": [-95.0963, 29.5173] }},
{"zip_code":"77623","country":"US","city":"High Island","state":"Texas","state_ab":"TX","county":"Galveston","geo_location":{ "type": "Point", "coordinates": [-94.4267, 29.5472] }},
{"zip_code":"77650","country":"US","city":"Port Bolivar","state":"Texas","state_ab":"TX","county":"Galveston","geo_location":{ "type": "Point", "coordinates": [-94.6861, 29.4266] }},
{"zip_code":"77960","country":"US","city":"Fannin","state":"Texas","state_ab":"TX","county":"Goliad","geo_location":{ "type": "Point", "coordinates": [-97.2606, 28.6778] }},
{"zip_code":"75076","country":"US","city":"Pottsboro","state":"Texas","state_ab":"TX","county":"Grayson","geo_location":{ "type": "Point", "coordinates": [-96.6906, 33.8095] }},
{"zip_code":"75090","country":"US","city":"Sherman","state":"Texas","state_ab":"TX","county":"Grayson","geo_location":{ "type": "Point", "coordinates": [-96.6075, 33.6435] }},
{"zip_code":"75489","country":"US","city":"Tom Bean","state":"Texas","state_ab":"TX","county":"Grayson","geo_location":{ "type": "Point", "coordinates": [-96.4843, 33.5193] }},
{"zip_code":"76233","country":"US","city":"Collinsville","state":"Texas","state_ab":"TX","county":"Grayson","geo_location":{ "type": "Point", "coordinates": [-96.9014, 33.558] }},
{"zip_code":"76273","country":"US","city":"Whitesboro","state":"Texas","state_ab":"TX","county":"Grayson","geo_location":{ "type": "Point", "coordinates": [-96.879, 33.659] }},
{"zip_code":"75603","country":"US","city":"Longview","state":"Texas","state_ab":"TX","county":"Gregg","geo_location":{ "type": "Point", "coordinates": [-94.7117, 32.4264] }},
{"zip_code":"77830","country":"US","city":"Anderson","state":"Texas","state_ab":"TX","county":"Grimes","geo_location":{ "type": "Point", "coordinates": [-96.0018, 30.5443] }},
{"zip_code":"78123","country":"US","city":"Mc Queeney","state":"Texas","state_ab":"TX","county":"Guadalupe","geo_location":{ "type": "Point", "coordinates": [-98.0492, 29.6023] }},
{"zip_code":"79489","country":"US","city":"Reese Air Force Base","state":"Texas","state_ab":"TX","county":"Hale County","geo_location":{ "type": "Point", "coordinates": [-102.0291, 33.5936] }},
{"zip_code":"77519","country":"US","city":"Batson","state":"Texas","state_ab":"TX","county":"Hardin","geo_location":{ "type": "Point", "coordinates": [-94.6096, 30.225] }},
{"zip_code":"77663","country":"US","city":"Village Mills","state":"Texas","state_ab":"TX","county":"Hardin","geo_location":{ "type": "Point", "coordinates": [-94.4458, 30.5185] }},
{"zip_code":"77003","country":"US","city":"Houston","state":"Texas","state_ab":"TX","county":"Harris","geo_location":{ "type": "Point", "coordinates": [-95.3391, 29.7489] }},
{"zip_code":"77016","country":"US","city":"Houston","state":"Texas","state_ab":"TX","county":"Harris","geo_location":{ "type": "Point", "coordinates": [-95.3032, 29.8579] }},
{"zip_code":"77029","country":"US","city":"Houston","state":"Texas","state_ab":"TX","county":"Harris","geo_location":{ "type": "Point", "coordinates": [-95.2567, 29.763] }},
{"zip_code":"77030","country":"US","city":"Houston","state":"Texas","state_ab":"TX","county":"Harris","geo_location":{ "type": "Point", "coordinates": [-95.401, 29.7041] }},
{"zip_code":"77043","country":"US","city":"Houston","state":"Texas","state_ab":"TX","county":"Harris","geo_location":{ "type": "Point", "coordinates": [-95.5607, 29.8052] }},
{"zip_code":"77056","country":"US","city":"Houston","state":"Texas","state_ab":"TX","county":"Harris","geo_location":{ "type": "Point", "coordinates": [-95.4683, 29.7446] }},
{"zip_code":"77069","country":"US","city":"Houston","state":"Texas","state_ab":"TX","county":"Harris","geo_location":{ "type": "Point", "coordinates": [-95.5208, 29.9863] }},
{"zip_code":"77070","country":"US","city":"Houston","state":"Texas","state_ab":"TX","county":"Harris","geo_location":{ "type": "Point", "coordinates": [-95.5803, 29.9781] }},
{"zip_code":"77083","country":"US","city":"Houston","state":"Texas","state_ab":"TX","county":"Harris","geo_location":{ "type": "Point", "coordinates": [-95.6511, 29.6947] }},
{"zip_code":"77096","country":"US","city":"Houston","state":"Texas","state_ab":"TX","county":"Harris","geo_location":{ "type": "Point", "coordinates": [-95.4861, 29.6722] }},
{"zip_code":"77209","country":"US","city":"Houston","state":"Texas","state_ab":"TX","county":"Harris","geo_location":{ "type": "Point", "coordinates": [-95.1585, 29.6128] }},
{"zip_code":"77210","country":"US","city":"Houston","state":"Texas","state_ab":"TX","county":"Harris","geo_location":{ "type": "Point", "coordinates": [-95.4342, 29.834] }},
{"zip_code":"77223","country":"US","city":"Houston","state":"Texas","state_ab":"TX","county":"Harris","geo_location":{ "type": "Point", "coordinates": [-95.4342, 29.834] }},
{"zip_code":"77236","country":"US","city":"Houston","state":"Texas","state_ab":"TX","county":"Harris","geo_location":{ "type": "Point", "coordinates": [-95.4342, 29.834] }},
{"zip_code":"77249","country":"US","city":"Houston","state":"Texas","state_ab":"TX","county":"Harris","geo_location":{ "type": "Point", "coordinates": [-95.4342, 29.834] }},
{"zip_code":"77250","country":"US","city":"Houston","state":"Texas","state_ab":"TX","county":"Harris County","geo_location":{ "type": "Point", "coordinates": [-95.3629, 29.7629] }},
{"zip_code":"77263","country":"US","city":"Houston","state":"Texas","state_ab":"TX","county":"Harris","geo_location":{ "type": "Point", "coordinates": [-95.4342, 29.834] }},
{"zip_code":"77276","country":"US","city":"Houston","state":"Texas","state_ab":"TX","county":"Harris County","geo_location":{ "type": "Point", "coordinates": [-95.3668, 29.7575] }},
{"zip_code":"77289","country":"US","city":"Houston","state":"Texas","state_ab":"TX","county":"Harris","geo_location":{ "type": "Point", "coordinates": [-95.4342, 29.834] }},
{"zip_code":"77290","country":"US","city":"Houston","state":"Texas","state_ab":"TX","county":"Harris","geo_location":{ "type": "Point", "coordinates": [-95.4342, 29.834] }},
{"zip_code":"77339","country":"US","city":"Humble","state":"Texas","state_ab":"TX","county":"Harris","geo_location":{ "type": "Point", "coordinates": [-95.2107, 30.0563] }},
{"zip_code":"77379","country":"US","city":"Spring","state":"Texas","state_ab":"TX","county":"Harris","geo_location":{ "type": "Point", "coordinates": [-95.5326, 30.0377] }},
{"zip_code":"77429","country":"US","city":"Cypress","state":"Texas","state_ab":"TX","county":"Harris","geo_location":{ "type": "Point", "coordinates": [-95.6358, 29.9766] }},
{"zip_code":"77506","country":"US","city":"Pasadena","state":"Texas","state_ab":"TX","county":"Harris","geo_location":{ "type": "Point", "coordinates": [-95.1989, 29.7009] }},
{"zip_code":"77520","country":"US","city":"Baytown","state":"Texas","state_ab":"TX","county":"Harris","geo_location":{ "type": "Point", "coordinates": [-94.9653, 29.7461] }},
{"zip_code":"77586","country":"US","city":"Seabrook","state":"Texas","state_ab":"TX","county":"Harris","geo_location":{ "type": "Point", "coordinates": [-95.037, 29.5832] }},
{"zip_code":"75670","country":"US","city":"Marshall","state":"Texas","state_ab":"TX","county":"Harrison","geo_location":{ "type": "Point", "coordinates": [-94.3619, 32.5338] }},
{"zip_code":"79539","country":"US","city":"O Brien","state":"Texas","state_ab":"TX","county":"Haskell","geo_location":{ "type": "Point", "coordinates": [-99.8473, 33.3749] }},
{"zip_code":"78640","country":"US","city":"Kyle","state":"Texas","state_ab":"TX","county":"Hays","geo_location":{ "type": "Point", "coordinates": [-97.8335, 29.9966] }},
{"zip_code":"78666","country":"US","city":"San Marcos","state":"Texas","state_ab":"TX","county":"Hays","geo_location":{ "type": "Point", "coordinates": [-97.9404, 29.8754] }},
{"zip_code":"78549","country":"US","city":"Hargill","state":"Texas","state_ab":"TX","county":"Hidalgo","geo_location":{ "type": "Point", "coordinates": [-98.0393, 26.4671] }},
{"zip_code":"78563","country":"US","city":"Linn","state":"Texas","state_ab":"TX","county":"Hidalgo","geo_location":{ "type": "Point", "coordinates": [-98.2498, 26.6279] }},
{"zip_code":"78576","country":"US","city":"Penitas","state":"Texas","state_ab":"TX","county":"Hidalgo","geo_location":{ "type": "Point", "coordinates": [-98.4469, 26.278] }},
{"zip_code":"78589","country":"US","city":"San Juan","state":"Texas","state_ab":"TX","county":"Hidalgo","geo_location":{ "type": "Point", "coordinates": [-98.1537, 26.2044] }},
{"zip_code":"76660","country":"US","city":"Malone","state":"Texas","state_ab":"TX","county":"Hill","geo_location":{ "type": "Point", "coordinates": [-96.8907, 31.924] }},
{"zip_code":"76673","country":"US","city":"Mount Calm","state":"Texas","state_ab":"TX","county":"Hill","geo_location":{ "type": "Point", "coordinates": [-96.8944, 31.7575] }},
{"zip_code":"75849","country":"US","city":"Latexo","state":"Texas","state_ab":"TX","county":"Houston","geo_location":{ "type": "Point", "coordinates": [-95.4719, 31.4064] }},
{"zip_code":"79720","country":"US","city":"Big Spring","state":"Texas","state_ab":"TX","county":"Howard","geo_location":{ "type": "Point", "coordinates": [-101.4578, 32.2787] }},
{"zip_code":"79733","country":"US","city":"Forsan","state":"Texas","state_ab":"TX","county":"Howard","geo_location":{ "type": "Point", "coordinates": [-101.3669, 32.1105] }},
{"zip_code":"75423","country":"US","city":"Celeste","state":"Texas","state_ab":"TX","county":"Hunt","geo_location":{ "type": "Point", "coordinates": [-96.2076, 33.2649] }},
{"zip_code":"79036","country":"US","city":"Fritch","state":"Texas","state_ab":"TX","county":"Hutchinson","geo_location":{ "type": "Point", "coordinates": [-101.5845, 35.6441] }},
{"zip_code":"76930","country":"US","city":"Barnhart","state":"Texas","state_ab":"TX","county":"Irion","geo_location":{ "type": "Point", "coordinates": [-101.1918, 31.1596] }},
{"zip_code":"77713","country":"US","city":"Beaumont","state":"Texas","state_ab":"TX","county":"Jefferson","geo_location":{ "type": "Point", "coordinates": [-94.2607, 30.085] }},
{"zip_code":"77726","country":"US","city":"Beaumont","state":"Texas","state_ab":"TX","county":"Jefferson","geo_location":{ "type": "Point", "coordinates": [-94.1901, 30.1118] }},
{"zip_code":"78383","country":"US","city":"Sandia","state":"Texas","state_ab":"TX","county":"Jim Wells","geo_location":{ "type": "Point", "coordinates": [-97.8705, 28.025] }},
{"zip_code":"76093","country":"US","city":"Rio Vista","state":"Texas","state_ab":"TX","county":"Johnson","geo_location":{ "type": "Point", "coordinates": [-97.3678, 32.2532] }},
{"zip_code":"79553","country":"US","city":"Stamford","state":"Texas","state_ab":"TX","county":"Jones","geo_location":{ "type": "Point", "coordinates": [-99.7859, 32.9453] }},
{"zip_code":"75126","country":"US","city":"Forney","state":"Texas","state_ab":"TX","county":"Kaufman","geo_location":{ "type": "Point", "coordinates": [-96.4598, 32.7491] }},
{"zip_code":"78006","country":"US","city":"Boerne","state":"Texas","state_ab":"TX","county":"Kendall","geo_location":{ "type": "Point", "coordinates": [-98.6857, 29.8931] }},
{"zip_code":"76363","country":"US","city":"Goree","state":"Texas","state_ab":"TX","county":"Knox","geo_location":{ "type": "Point", "coordinates": [-99.5258, 33.4748] }},
{"zip_code":"76853","country":"US","city":"Lometa","state":"Texas","state_ab":"TX","county":"Lampasas","geo_location":{ "type": "Point", "coordinates": [-98.4006, 31.2167] }},
{"zip_code":"78019","country":"US","city":"Encinal","state":"Texas","state_ab":"TX","county":"La Salle","geo_location":{ "type": "Point", "coordinates": [-99.3563, 28.0405] }},
{"zip_code":"77986","country":"US","city":"Sublime","state":"Texas","state_ab":"TX","county":"Lavaca","geo_location":{ "type": "Point", "coordinates": [-96.7946, 29.4876] }},
{"zip_code":"75850","country":"US","city":"Leona","state":"Texas","state_ab":"TX","county":"Leon","geo_location":{ "type": "Point", "coordinates": [-95.9284, 31.1421] }},
{"zip_code":"77533","country":"US","city":"Daisetta","state":"Texas","state_ab":"TX","county":"Liberty","geo_location":{ "type": "Point", "coordinates": [-94.66, 30.1104] }},
{"zip_code":"76686","country":"US","city":"Tehuacana","state":"Texas","state_ab":"TX","county":"Limestone","geo_location":{ "type": "Point", "coordinates": [-96.5416, 31.7504] }},
{"zip_code":"78060","country":"US","city":"Oakville","state":"Texas","state_ab":"TX","county":"Live Oak","geo_location":{ "type": "Point", "coordinates": [-98.0719, 28.4218] }},
{"zip_code":"78639","country":"US","city":"Kingsland","state":"Texas","state_ab":"TX","county":"Llano","geo_location":{ "type": "Point", "coordinates": [-98.4475, 30.6662] }},
{"zip_code":"79409","country":"US","city":"Lubbock","state":"Texas","state_ab":"TX","county":"Lubbock","geo_location":{ "type": "Point", "coordinates": [-101.8213, 33.61] }},
{"zip_code":"79410","country":"US","city":"Lubbock","state":"Texas","state_ab":"TX","county":"Lubbock","geo_location":{ "type": "Point", "coordinates": [-101.8904, 33.5693] }},
{"zip_code":"79423","country":"US","city":"Lubbock","state":"Texas","state_ab":"TX","county":"Lubbock","geo_location":{ "type": "Point", "coordinates": [-101.8795, 33.5146] }},
{"zip_code":"79490","country":"US","city":"Lubbock","state":"Texas","state_ab":"TX","county":"Lubbock","geo_location":{ "type": "Point", "coordinates": [-101.8213, 33.61] }},
{"zip_code":"79373","country":"US","city":"Tahoka","state":"Texas","state_ab":"TX","county":"Lynn","geo_location":{ "type": "Point", "coordinates": [-101.822, 33.1988] }},
{"zip_code":"76633","country":"US","city":"China Spring","state":"Texas","state_ab":"TX","county":"McLennan","geo_location":{ "type": "Point", "coordinates": [-97.3002, 31.6673] }},
{"zip_code":"76710","country":"US","city":"Waco","state":"Texas","state_ab":"TX","county":"McLennan","geo_location":{ "type": "Point", "coordinates": [-97.1899, 31.535] }},
{"zip_code":"77456","country":"US","city":"Markham","state":"Texas","state_ab":"TX","county":"Matagorda","geo_location":{ "type": "Point", "coordinates": [-96.0928, 28.9547] }},
{"zip_code":"77483","country":"US","city":"Wadsworth","state":"Texas","state_ab":"TX","county":"Matagorda","geo_location":{ "type": "Point", "coordinates": [-95.9046, 28.8259] }},
{"zip_code":"78860","country":"US","city":"El Indio","state":"Texas","state_ab":"TX","county":"Maverick","geo_location":{ "type": "Point", "coordinates": [-100.342, 28.5331] }},
{"zip_code":"78059","country":"US","city":"Natalia","state":"Texas","state_ab":"TX","county":"Medina","geo_location":{ "type": "Point", "coordinates": [-98.8552, 29.2117] }},
{"zip_code":"78886","country":"US","city":"Yancey","state":"Texas","state_ab":"TX","county":"Medina","geo_location":{ "type": "Point", "coordinates": [-99.1428, 29.1404] }},
{"zip_code":"79706","country":"US","city":"Midland","state":"Texas","state_ab":"TX","county":"Midland","geo_location":{ "type": "Point", "coordinates": [-102.0134, 31.8816] }},
{"zip_code":"76556","country":"US","city":"Milano","state":"Texas","state_ab":"TX","county":"Milam","geo_location":{ "type": "Point", "coordinates": [-96.8807, 30.7304] }},
{"zip_code":"76880","country":"US","city":"Star","state":"Texas","state_ab":"TX","county":"Mills","geo_location":{ "type": "Point", "coordinates": [-98.6309, 31.4771] }},
{"zip_code":"77353","country":"US","city":"Magnolia","state":"Texas","state_ab":"TX","county":"Montgomery","geo_location":{ "type": "Point", "coordinates": [-95.7092, 30.1806] }},
{"zip_code":"77380","country":"US","city":"Spring","state":"Texas","state_ab":"TX","county":"Montgomery","geo_location":{ "type": "Point", "coordinates": [-95.4703, 30.1441] }},
{"zip_code":"77393","country":"US","city":"Spring","state":"Texas","state_ab":"TX","county":"Montgomery","geo_location":{ "type": "Point", "coordinates": [-95.4635, 30.329] }},
{"zip_code":"79256","country":"US","city":"Roaring Springs","state":"Texas","state_ab":"TX","county":"Motley","geo_location":{ "type": "Point", "coordinates": [-100.8528, 33.8977] }},
{"zip_code":"75760","country":"US","city":"Cushing","state":"Texas","state_ab":"TX","county":"Nacogdoches","geo_location":{ "type": "Point", "coordinates": [-94.8539, 31.7978] }},
{"zip_code":"75153","country":"US","city":"Powell","state":"Texas","state_ab":"TX","county":"Navarro","geo_location":{ "type": "Point", "coordinates": [-96.3327, 32.1196] }},
{"zip_code":"75966","country":"US","city":"Newton","state":"Texas","state_ab":"TX","county":"Newton","geo_location":{ "type": "Point", "coordinates": [-93.7497, 30.8351] }},
{"zip_code":"78330","country":"US","city":"Agua Dulce","state":"Texas","state_ab":"TX","county":"Nueces","geo_location":{ "type": "Point", "coordinates": [-97.8551, 27.781] }},
{"zip_code":"78343","country":"US","city":"Bishop","state":"Texas","state_ab":"TX","county":"Nueces","geo_location":{ "type": "Point", "coordinates": [-97.783, 27.5886] }},
{"zip_code":"78406","country":"US","city":"Corpus Christi","state":"Texas","state_ab":"TX","county":"Nueces","geo_location":{ "type": "Point", "coordinates": [-97.5144, 27.7684] }},
{"zip_code":"78419","country":"US","city":"Corpus Christi","state":"Texas","state_ab":"TX","county":"Nueces","geo_location":{ "type": "Point", "coordinates": [-97.2694, 27.6952] }},
{"zip_code":"78460","country":"US","city":"Corpus Christi","state":"Texas","state_ab":"TX","county":"Nueces","geo_location":{ "type": "Point", "coordinates": [-97.8797, 27.8899] }},
{"zip_code":"78473","country":"US","city":"Corpus Christi","state":"Texas","state_ab":"TX","county":"Nueces","geo_location":{ "type": "Point", "coordinates": [-97.4632, 27.777] }},
{"zip_code":"79010","country":"US","city":"Boys Ranch","state":"Texas","state_ab":"TX","county":"Oldham","geo_location":{ "type": "Point", "coordinates": [-102.1721, 35.4471] }},
{"zip_code":"76453","country":"US","city":"Gordon","state":"Texas","state_ab":"TX","county":"Palo Pinto","geo_location":{ "type": "Point", "coordinates": [-98.3632, 32.5478] }},
{"zip_code":"75643","country":"US","city":"Gary","state":"Texas","state_ab":"TX","county":"Panola","geo_location":{ "type": "Point", "coordinates": [-94.38, 32.0334] }},
{"zip_code":"75669","country":"US","city":"Long Branch","state":"Texas","state_ab":"TX","county":"Panola","geo_location":{ "type": "Point", "coordinates": [-94.5381, 32.0449] }},
{"zip_code":"76066","country":"US","city":"Millsap","state":"Texas","state_ab":"TX","county":"Parker","geo_location":{ "type": "Point", "coordinates": [-97.9561, 32.7457] }},
{"zip_code":"76439","country":"US","city":"Dennis","state":"Texas","state_ab":"TX","county":"Parker","geo_location":{ "type": "Point", "coordinates": [-97.9575, 32.6325] }},
{"zip_code":"79009","country":"US","city":"Bovina","state":"Texas","state_ab":"TX","county":"Parmer","geo_location":{ "type": "Point", "coordinates": [-102.8061, 34.4815] }},
{"zip_code":"75939","country":"US","city":"Corrigan","state":"Texas","state_ab":"TX","county":"Polk","geo_location":{ "type": "Point", "coordinates": [-94.8124, 31.0408] }},
{"zip_code":"77326","country":"US","city":"Ace","state":"Texas","state_ab":"TX","county":"Polk","geo_location":{ "type": "Point", "coordinates": [-94.8221, 30.5209] }},
{"zip_code":"79166","country":"US","city":"Amarillo","state":"Texas","state_ab":"TX","county":"Potter","geo_location":{ "type": "Point", "coordinates": [-101.8951, 35.4015] }},
{"zip_code":"79180","country":"US","city":"Amarillo","state":"Texas","state_ab":"TX","county":"Potter","geo_location":{ "type": "Point", "coordinates": [-101.8951, 35.4015] }},
{"zip_code":"79850","country":"US","city":"Shafter","state":"Texas","state_ab":"TX","county":"Presidio","geo_location":{ "type": "Point", "coordinates": [-104.3867, 29.9437] }},
{"zip_code":"75410","country":"US","city":"Alba","state":"Texas","state_ab":"TX","county":"Rains","geo_location":{ "type": "Point", "coordinates": [-95.5971, 32.7652] }},
{"zip_code":"78833","country":"US","city":"Camp Wood","state":"Texas","state_ab":"TX","county":"Real","geo_location":{ "type": "Point", "coordinates": [-100.0084, 29.6795] }},
{"zip_code":"78873","country":"US","city":"Leakey","state":"Texas","state_ab":"TX","county":"Real","geo_location":{ "type": "Point", "coordinates": [-99.7479, 29.769] }},
{"zip_code":"75436","country":"US","city":"Detroit","state":"Texas","state_ab":"TX","county":"Red River","geo_location":{ "type": "Point", "coordinates": [-95.2385, 33.6627] }},
{"zip_code":"79786","country":"US","city":"Toyahvale","state":"Texas","state_ab":"TX","county":"Reeves","geo_location":{ "type": "Point", "coordinates": [-103.5566, 31.3833] }},
{"zip_code":"77856","country":"US","city":"Franklin","state":"Texas","state_ab":"TX","county":"Robertson","geo_location":{ "type": "Point", "coordinates": [-96.5171, 31.0001] }},
{"zip_code":"77870","country":"US","city":"New Baden","state":"Texas","state_ab":"TX","county":"Robertson","geo_location":{ "type": "Point", "coordinates": [-96.3994, 31.0593] }},
{"zip_code":"79566","country":"US","city":"Wingate","state":"Texas","state_ab":"TX","county":"Runnels","geo_location":{ "type": "Point", "coordinates": [-100.1183, 32.0318] }},
{"zip_code":"78370","country":"US","city":"Odem","state":"Texas","state_ab":"TX","county":"San Patricio","geo_location":{ "type": "Point", "coordinates": [-97.5838, 27.9403] }},
{"zip_code":"79526","country":"US","city":"Hermleigh","state":"Texas","state_ab":"TX","county":"Scurry","geo_location":{ "type": "Point", "coordinates": [-100.7547, 32.6294] }},
{"zip_code":"73960","country":"US","city":"Texhoma","state":"Texas","state_ab":"TX","county":"Sherman","geo_location":{ "type": "Point", "coordinates": [-101.7829, 36.5055] }},
{"zip_code":"75706","country":"US","city":"Tyler","state":"Texas","state_ab":"TX","county":"Smith","geo_location":{ "type": "Point", "coordinates": [-95.331, 32.4441] }},
{"zip_code":"75799","country":"US","city":"Tyler","state":"Texas","state_ab":"TX","county":"Smith","geo_location":{ "type": "Point", "coordinates": [-95.2899, 32.4112] }},
{"zip_code":"78536","country":"US","city":"Delmita","state":"Texas","state_ab":"TX","county":"Starr","geo_location":{ "type": "Point", "coordinates": [-98.8488, 26.4214] }},
{"zip_code":"79540","country":"US","city":"Old Glory","state":"Texas","state_ab":"TX","county":"Stonewall","geo_location":{ "type": "Point", "coordinates": [-100.0502, 33.1786] }},
{"zip_code":"76000","country":"US","city":"Arlington","state":"Texas","state_ab":"TX","county":"Tarrant County","geo_location":{ "type": "Point", "coordinates": [-97.1275, 32.6945] }},
{"zip_code":"76013","country":"US","city":"Arlington","state":"Texas","state_ab":"TX","county":"Tarrant","geo_location":{ "type": "Point", "coordinates": [-97.1442, 32.7199] }},
{"zip_code":"76039","country":"US","city":"Euless","state":"Texas","state_ab":"TX","county":"Tarrant","geo_location":{ "type": "Point", "coordinates": [-97.0832, 32.8582] }},
{"zip_code":"76040","country":"US","city":"Euless","state":"Texas","state_ab":"TX","county":"Tarrant","geo_location":{ "type": "Point", "coordinates": [-97.0972, 32.8264] }},
{"zip_code":"76053","country":"US","city":"Hurst","state":"Texas","state_ab":"TX","county":"Tarrant","geo_location":{ "type": "Point", "coordinates": [-97.1756, 32.8211] }},
{"zip_code":"76103","country":"US","city":"Fort Worth","state":"Texas","state_ab":"TX","county":"Tarrant","geo_location":{ "type": "Point", "coordinates": [-97.2604, 32.747] }},
{"zip_code":"76116","country":"US","city":"Fort Worth","state":"Texas","state_ab":"TX","county":"Tarrant","geo_location":{ "type": "Point", "coordinates": [-97.4483, 32.723] }},
{"zip_code":"76129","country":"US","city":"Fort Worth","state":"Texas","state_ab":"TX","county":"Tarrant","geo_location":{ "type": "Point", "coordinates": [-97.2915, 32.7714] }},
{"zip_code":"76130","country":"US","city":"Fort Worth","state":"Texas","state_ab":"TX","county":"Tarrant","geo_location":{ "type": "Point", "coordinates": [-97.2915, 32.7714] }},
{"zip_code":"76196","country":"US","city":"Fort Worth","state":"Texas","state_ab":"TX","county":"Tarrant","geo_location":{ "type": "Point", "coordinates": [-97.2915, 32.7714] }},
{"zip_code":"79603","country":"US","city":"Abilene","state":"Texas","state_ab":"TX","county":"Taylor","geo_location":{ "type": "Point", "coordinates": [-99.7619, 32.4679] }},
{"zip_code":"76903","country":"US","city":"San Angelo","state":"Texas","state_ab":"TX","county":"Tom Green","geo_location":{ "type": "Point", "coordinates": [-100.4386, 31.4707] }},
{"zip_code":"78653","country":"US","city":"Manor","state":"Texas","state_ab":"TX","county":"Travis","geo_location":{ "type": "Point", "coordinates": [-97.5323, 30.3388] }},
{"zip_code":"78703","country":"US","city":"Austin","state":"Texas","state_ab":"TX","county":"Travis","geo_location":{ "type": "Point", "coordinates": [-97.7648, 30.2907] }},
{"zip_code":"78716","country":"US","city":"Austin","state":"Texas","state_ab":"TX","county":"Travis","geo_location":{ "type": "Point", "coordinates": [-97.8588, 30.3162] }},
{"zip_code":"78730","country":"US","city":"Austin","state":"Texas","state_ab":"TX","county":"Travis","geo_location":{ "type": "Point", "coordinates": [-97.8241, 30.3607] }},
{"zip_code":"78756","country":"US","city":"Austin","state":"Texas","state_ab":"TX","county":"Travis","geo_location":{ "type": "Point", "coordinates": [-97.739, 30.3223] }},
{"zip_code":"78769","country":"US","city":"Austin","state":"Texas","state_ab":"TX","county":"Travis","geo_location":{ "type": "Point", "coordinates": [-97.7713, 30.3264] }},
{"zip_code":"78783","country":"US","city":"Austin","state":"Texas","state_ab":"TX","county":"Travis","geo_location":{ "type": "Point", "coordinates": [-97.7713, 30.3264] }},
{"zip_code":"75926","country":"US","city":"Apple Springs","state":"Texas","state_ab":"TX","county":"Trinity","geo_location":{ "type": "Point", "coordinates": [-94.9812, 31.2269] }},
{"zip_code":"75979","country":"US","city":"Woodville","state":"Texas","state_ab":"TX","county":"Tyler","geo_location":{ "type": "Point", "coordinates": [-94.3669, 30.7585] }},
{"zip_code":"75683","country":"US","city":"Ore City","state":"Texas","state_ab":"TX","county":"Upshur","geo_location":{ "type": "Point", "coordinates": [-94.7514, 32.7856] }},
{"zip_code":"75140","country":"US","city":"Grand Saline","state":"Texas","state_ab":"TX","county":"Van Zandt","geo_location":{ "type": "Point", "coordinates": [-95.7064, 32.6635] }},
{"zip_code":"77973","country":"US","city":"Mcfaddin","state":"Texas","state_ab":"TX","county":"Victoria","geo_location":{ "type": "Point", "coordinates": [-97.0099, 28.5511] }},
{"zip_code":"77340","country":"US","city":"Huntsville","state":"Texas","state_ab":"TX","county":"Walker","geo_location":{ "type": "Point", "coordinates": [-95.5798, 30.6448] }},
{"zip_code":"79719","country":"US","city":"Barstow","state":"Texas","state_ab":"TX","county":"Ward","geo_location":{ "type": "Point", "coordinates": [-103.3971, 31.4639] }},
{"zip_code":"78046","country":"US","city":"Laredo","state":"Texas","state_ab":"TX","county":"Webb","geo_location":{ "type": "Point", "coordinates": [-99.4743, 27.4047] }},
{"zip_code":"78369","country":"US","city":"Mirando City","state":"Texas","state_ab":"TX","county":"Webb","geo_location":{ "type": "Point", "coordinates": [-99.0011, 27.445] }},
{"zip_code":"77443","country":"US","city":"Glen Flora","state":"Texas","state_ab":"TX","county":"Wharton","geo_location":{ "type": "Point", "coordinates": [-96.1754, 29.3353] }},
{"zip_code":"76309","country":"US","city":"Wichita Falls","state":"Texas","state_ab":"TX","county":"Wichita","geo_location":{ "type": "Point", "coordinates": [-98.5343, 33.8931] }},
{"zip_code":"76310","country":"US","city":"Wichita Falls","state":"Texas","state_ab":"TX","county":"Wichita","geo_location":{ "type": "Point", "coordinates": [-98.5755, 33.8581] }},
{"zip_code":"78590","country":"US","city":"San Perlita","state":"Texas","state_ab":"TX","county":"Willacy","geo_location":{ "type": "Point", "coordinates": [-97.5858, 26.4555] }},
{"zip_code":"76530","country":"US","city":"Granger","state":"Texas","state_ab":"TX","county":"Williamson","geo_location":{ "type": "Point", "coordinates": [-97.4451, 30.7398] }},
{"zip_code":"78613","country":"US","city":"Cedar Park","state":"Texas","state_ab":"TX","county":"Williamson","geo_location":{ "type": "Point", "coordinates": [-97.8176, 30.4772] }},
{"zip_code":"78626","country":"US","city":"Georgetown","state":"Texas","state_ab":"TX","county":"Williamson","geo_location":{ "type": "Point", "coordinates": [-97.6707, 30.633] }},
{"zip_code":"78680","country":"US","city":"Round Rock","state":"Texas","state_ab":"TX","county":"Williamson","geo_location":{ "type": "Point", "coordinates": [-97.6026, 30.6568] }},
{"zip_code":"78729","country":"US","city":"Austin","state":"Texas","state_ab":"TX","county":"Williamson","geo_location":{ "type": "Point", "coordinates": [-97.7688, 30.4521] }},
{"zip_code":"76246","country":"US","city":"Greenwood","state":"Texas","state_ab":"TX","county":"Wise","geo_location":{ "type": "Point", "coordinates": [-97.4716, 33.407] }},
{"zip_code":"76426","country":"US","city":"Bridgeport","state":"Texas","state_ab":"TX","county":"Wise","geo_location":{ "type": "Point", "coordinates": [-97.781, 33.187] }},
{"zip_code":"75773","country":"US","city":"Mineola","state":"Texas","state_ab":"TX","county":"Wood","geo_location":{ "type": "Point", "coordinates": [-95.487, 32.6661] }},
{"zip_code":"84306","country":"US","city":"Collinston","state":"Utah","state_ab":"UT","county":"Box Elder","geo_location":{ "type": "Point", "coordinates": [-112.0666, 41.7813] }},
{"zip_code":"84319","country":"US","city":"Hyrum","state":"Utah","state_ab":"UT","county":"Cache","geo_location":{ "type": "Point", "coordinates": [-111.849, 41.6311] }},
{"zip_code":"84320","country":"US","city":"Lewiston","state":"Utah","state_ab":"UT","county":"Cache","geo_location":{ "type": "Point", "coordinates": [-111.8768, 41.9701] }},
{"zip_code":"84333","country":"US","city":"Richmond","state":"Utah","state_ab":"UT","county":"Cache","geo_location":{ "type": "Point", "coordinates": [-111.8069, 41.9282] }},
{"zip_code":"84526","country":"US","city":"Helper","state":"Utah","state_ab":"UT","county":"Carbon","geo_location":{ "type": "Point", "coordinates": [-110.856, 39.6737] }},
{"zip_code":"84539","country":"US","city":"Sunnyside","state":"Utah","state_ab":"UT","county":"Carbon","geo_location":{ "type": "Point", "coordinates": [-110.3988, 39.5347] }},
{"zip_code":"84023","country":"US","city":"Dutch John","state":"Utah","state_ab":"UT","county":"Daggett","geo_location":{ "type": "Point", "coordinates": [-109.3543, 40.9322] }},
{"zip_code":"84010","country":"US","city":"Bountiful","state":"Utah","state_ab":"UT","county":"Davis","geo_location":{ "type": "Point", "coordinates": [-111.8727, 40.8775] }},
{"zip_code":"84089","country":"US","city":"Clearfield","state":"Utah","state_ab":"UT","county":"Davis","geo_location":{ "type": "Point", "coordinates": [-112.116, 40.9635] }},
{"zip_code":"84513","country":"US","city":"Castle Dale","state":"Utah","state_ab":"UT","county":"Emery","geo_location":{ "type": "Point", "coordinates": [-111.0529, 39.1964] }},
{"zip_code":"84759","country":"US","city":"Panguitch","state":"Utah","state_ab":"UT","county":"Garfield","geo_location":{ "type": "Point", "coordinates": [-112.4369, 37.8078] }},
{"zip_code":"84540","country":"US","city":"Thompson","state":"Utah","state_ab":"UT","county":"Grand","geo_location":{ "type": "Point", "coordinates": [-109.615, 38.9999] }},
{"zip_code":"84719","country":"US","city":"Brian Head","state":"Utah","state_ab":"UT","county":"Iron","geo_location":{ "type": "Point", "coordinates": [-112.8437, 37.6985] }},
{"zip_code":"84720","country":"US","city":"Cedar City","state":"Utah","state_ab":"UT","county":"Iron","geo_location":{ "type": "Point", "coordinates": [-113.1682, 37.5886] }},
{"zip_code":"84760","country":"US","city":"Paragonah","state":"Utah","state_ab":"UT","county":"Iron","geo_location":{ "type": "Point", "coordinates": [-112.774, 37.8917] }},
{"zip_code":"84656","country":"US","city":"Scipio","state":"Utah","state_ab":"UT","county":"Millard","geo_location":{ "type": "Point", "coordinates": [-112.1064, 39.2495] }},
{"zip_code":"84050","country":"US","city":"Morgan","state":"Utah","state_ab":"UT","county":"Morgan","geo_location":{ "type": "Point", "coordinates": [-111.7163, 41.0678] }},
{"zip_code":"84090","country":"US","city":"Sandy","state":"Utah","state_ab":"UT","county":"Salt Lake","geo_location":{ "type": "Point", "coordinates": [-111.9083, 40.6681] }},
{"zip_code":"84113","country":"US","city":"Salt Lake City","state":"Utah","state_ab":"UT","county":"Salt Lake","geo_location":{ "type": "Point", "coordinates": [-111.8364, 40.7658] }},
{"zip_code":"84126","country":"US","city":"Salt Lake City","state":"Utah","state_ab":"UT","county":"Salt Lake","geo_location":{ "type": "Point", "coordinates": [-111.9083, 40.6681] }},
{"zip_code":"84139","country":"US","city":"Salt Lake City","state":"Utah","state_ab":"UT","county":"Salt Lake","geo_location":{ "type": "Point", "coordinates": [-111.9083, 40.6681] }},
{"zip_code":"84140","country":"US","city":"Salt Lake City","state":"Utah","state_ab":"UT","county":"Salt Lake","geo_location":{ "type": "Point", "coordinates": [-111.9309, 40.7713] }},
{"zip_code":"84153","country":"US","city":"Salt Lake City","state":"Utah","state_ab":"UT","county":"Salt Lake","geo_location":{ "type": "Point", "coordinates": [-111.9083, 40.6681] }},
{"zip_code":"84180","country":"US","city":"Salt Lake City","state":"Utah","state_ab":"UT","county":"Salt Lake","geo_location":{ "type": "Point", "coordinates": [-111.9008, 40.769] }},
{"zip_code":"84193","country":"US","city":"Salt Lake City","state":"Utah","state_ab":"UT","county":"Salt Lake County","geo_location":{ "type": "Point", "coordinates": [-111.8918, 40.7439] }},
{"zip_code":"84629","country":"US","city":"Fairview","state":"Utah","state_ab":"UT","county":"Sanpete","geo_location":{ "type": "Point", "coordinates": [-111.4953, 39.6453] }},
{"zip_code":"84630","country":"US","city":"Fayette","state":"Utah","state_ab":"UT","county":"Sanpete","geo_location":{ "type": "Point", "coordinates": [-111.8497, 39.2315] }},
{"zip_code":"84643","country":"US","city":"Mayfield","state":"Utah","state_ab":"UT","county":"Sanpete","geo_location":{ "type": "Point", "coordinates": [-111.6905, 39.1154] }},
{"zip_code":"84036","country":"US","city":"Kamas","state":"Utah","state_ab":"UT","county":"Summit","geo_location":{ "type": "Point", "coordinates": [-111.2619, 40.6414] }},
{"zip_code":"84063","country":"US","city":"Randlett","state":"Utah","state_ab":"UT","county":"Uintah","geo_location":{ "type": "Point", "coordinates": [-109.7301, 40.2186] }},
{"zip_code":"84076","country":"US","city":"Tridell","state":"Utah","state_ab":"UT","county":"Uintah","geo_location":{ "type": "Point", "coordinates": [-109.8359, 40.4436] }},
{"zip_code":"84603","country":"US","city":"Provo","state":"Utah","state_ab":"UT","county":"Utah","geo_location":{ "type": "Point", "coordinates": [-111.6261, 40.2039] }},
{"zip_code":"84049","country":"US","city":"Midway","state":"Utah","state_ab":"UT","county":"Wasatch","geo_location":{ "type": "Point", "coordinates": [-111.4776, 40.5093] }},
{"zip_code":"84733","country":"US","city":"Gunlock","state":"Utah","state_ab":"UT","county":"Washington","geo_location":{ "type": "Point", "coordinates": [-113.7606, 37.2877] }},
{"zip_code":"84746","country":"US","city":"Leeds","state":"Utah","state_ab":"UT","county":"Washington","geo_location":{ "type": "Point", "coordinates": [-113.3356, 37.2372] }},
{"zip_code":"84773","country":"US","city":"Teasdale","state":"Utah","state_ab":"UT","county":"Wayne","geo_location":{ "type": "Point", "coordinates": [-111.4335, 38.2853] }},
{"zip_code":"84409","country":"US","city":"Ogden","state":"Utah","state_ab":"UT","county":"Weber","geo_location":{ "type": "Point", "coordinates": [-111.9567, 41.2553] }},
{"zip_code":"23336","country":"US","city":"Chincoteague Island","state":"Virginia","state_ab":"VA","county":"Accomack","geo_location":{ "type": "Point", "coordinates": [-75.4363, 37.9487] }},
{"zip_code":"23389","country":"US","city":"Harborton","state":"Virginia","state_ab":"VA","county":"Accomack","geo_location":{ "type": "Point", "coordinates": [-75.8488, 37.6562] }},
{"zip_code":"23426","country":"US","city":"Sanford","state":"Virginia","state_ab":"VA","county":"Accomack","geo_location":{ "type": "Point", "coordinates": [-75.6781, 37.9229] }},
{"zip_code":"23440","country":"US","city":"Tangier","state":"Virginia","state_ab":"VA","county":"Accomack","geo_location":{ "type": "Point", "coordinates": [-75.993, 37.8245] }},
{"zip_code":"23480","country":"US","city":"Wachapreague","state":"Virginia","state_ab":"VA","county":"Accomack","geo_location":{ "type": "Point", "coordinates": [-75.6925, 37.6044] }},
{"zip_code":"22940","country":"US","city":"Free Union","state":"Virginia","state_ab":"VA","county":"Albemarle","geo_location":{ "type": "Point", "coordinates": [-78.5849, 38.1944] }},
{"zip_code":"24533","country":"US","city":"Clifford","state":"Virginia","state_ab":"VA","county":"Amherst","geo_location":{ "type": "Point", "coordinates": [-78.9463, 37.538] }},
{"zip_code":"22203","country":"US","city":"Arlington","state":"Virginia","state_ab":"VA","county":"Arlington","geo_location":{ "type": "Point", "coordinates": [-77.1142, 38.8738] }},
{"zip_code":"22216","country":"US","city":"Arlington","state":"Virginia","state_ab":"VA","county":"Arlington","geo_location":{ "type": "Point", "coordinates": [-77.1129, 38.8808] }},
{"zip_code":"22229","country":"US","city":"Arlington","state":"Virginia","state_ab":"VA","county":"Arlington","geo_location":{ "type": "Point", "coordinates": [-77.1129, 38.8808] }},
{"zip_code":"22230","country":"US","city":"Arlington","state":"Virginia","state_ab":"VA","county":"Arlington","geo_location":{ "type": "Point", "coordinates": [-77.1108, 38.8797] }},
{"zip_code":"22243","country":"US","city":"Arlington","state":"Virginia","state_ab":"VA","county":"Arlington","geo_location":{ "type": "Point", "coordinates": [-77.0516, 38.8605] }},
{"zip_code":"22939","country":"US","city":"Fishersville","state":"Virginia","state_ab":"VA","county":"Augusta","geo_location":{ "type": "Point", "coordinates": [-78.9929, 38.0964] }},
{"zip_code":"24430","country":"US","city":"Craigsville","state":"Virginia","state_ab":"VA","county":"Augusta","geo_location":{ "type": "Point", "coordinates": [-79.3619, 38.0768] }}]}