{"value": [{"zip_code":"4539","country":"US","city":"Bristol","state":"Maine","state_ab":"ME","county":"Lincoln","geo_location":{ "type": "Point", "coordinates": [-69.4954, 43.9519] }},
{"zip_code":"4553","country":"US","city":"Newcastle","state":"Maine","state_ab":"ME","county":"Lincoln","geo_location":{ "type": "Point", "coordinates": [-69.5331, 44.0499] }},
{"zip_code":"4010","country":"US","city":"Brownfield","state":"Maine","state_ab":"ME","county":"Oxford","geo_location":{ "type": "Point", "coordinates": [-70.9032, 43.9713] }},
{"zip_code":"4216","country":"US","city":"Andover","state":"Maine","state_ab":"ME","county":"Oxford","geo_location":{ "type": "Point", "coordinates": [-70.7967, 44.6637] }},
{"zip_code":"4270","country":"US","city":"Oxford","state":"Maine","state_ab":"ME","county":"Oxford","geo_location":{ "type": "Point", "coordinates": [-70.5098, 44.1118] }},
{"zip_code":"4410","country":"US","city":"Bradford","state":"Maine","state_ab":"ME","county":"Penobscot","geo_location":{ "type": "Point", "coordinates": [-68.9235, 45.0855] }},
{"zip_code":"4423","country":"US","city":"Costigan","state":"Maine","state_ab":"ME","county":"Penobscot","geo_location":{ "type": "Point", "coordinates": [-68.5292, 45.0395] }},
{"zip_code":"4449","country":"US","city":"Hudson","state":"Maine","state_ab":"ME","county":"Penobscot","geo_location":{ "type": "Point", "coordinates": [-68.8878, 44.9914] }},
{"zip_code":"4450","country":"US","city":"Kenduskeag","state":"Maine","state_ab":"ME","county":"Penobscot","geo_location":{ "type": "Point", "coordinates": [-68.9342, 44.9183] }},
{"zip_code":"4489","country":"US","city":"Stillwater","state":"Maine","state_ab":"ME","county":"Penobscot","geo_location":{ "type": "Point", "coordinates": [-68.6868, 44.9224] }},
{"zip_code":"4939","country":"US","city":"Garland","state":"Maine","state_ab":"ME","county":"Penobscot","geo_location":{ "type": "Point", "coordinates": [-69.157, 45.0149] }},
{"zip_code":"4953","country":"US","city":"Newport","state":"Maine","state_ab":"ME","county":"Penobscot","geo_location":{ "type": "Point", "coordinates": [-69.2675, 44.8393] }},
{"zip_code":"4463","country":"US","city":"Milo","state":"Maine","state_ab":"ME","county":"Piscataquis","geo_location":{ "type": "Point", "coordinates": [-68.976, 45.2446] }},
{"zip_code":"4579","country":"US","city":"Woolwich","state":"Maine","state_ab":"ME","county":"Sagadahoc","geo_location":{ "type": "Point", "coordinates": [-69.7891, 43.9503] }},
{"zip_code":"4979","country":"US","city":"Solon","state":"Maine","state_ab":"ME","county":"Somerset","geo_location":{ "type": "Point", "coordinates": [-69.833, 44.9676] }},
{"zip_code":"4849","country":"US","city":"Lincolnville","state":"Maine","state_ab":"ME","county":"Waldo","geo_location":{ "type": "Point", "coordinates": [-69.0824, 44.3048] }},
{"zip_code":"4850","country":"US","city":"Lincolnville Center","state":"Maine","state_ab":"ME","county":"Waldo","geo_location":{ "type": "Point", "coordinates": [-69.1496, 44.4787] }},
{"zip_code":"4490","country":"US","city":"Topsfield","state":"Maine","state_ab":"ME","county":"Washington","geo_location":{ "type": "Point", "coordinates": [-67.7473, 45.4304] }},
{"zip_code":"4630","country":"US","city":"East Machias","state":"Maine","state_ab":"ME","county":"Washington","geo_location":{ "type": "Point", "coordinates": [-67.3821, 44.7424] }},
{"zip_code":"4643","country":"US","city":"Harrington","state":"Maine","state_ab":"ME","county":"Washington","geo_location":{ "type": "Point", "coordinates": [-67.8147, 44.6122] }},
{"zip_code":"3909","country":"US","city":"York","state":"Maine","state_ab":"ME","county":"York","geo_location":{ "type": "Point", "coordinates": [-70.6578, 43.1544] }},
{"zip_code":"3910","country":"US","city":"York Beach","state":"Maine","state_ab":"ME","county":"York","geo_location":{ "type": "Point", "coordinates": [-70.732, 43.2117] }},
{"zip_code":"4049","country":"US","city":"Limington","state":"Maine","state_ab":"ME","county":"York","geo_location":{ "type": "Point", "coordinates": [-70.6752, 43.726] }},
{"zip_code":"4063","country":"US","city":"Ocean Park","state":"Maine","state_ab":"ME","county":"York","geo_location":{ "type": "Point", "coordinates": [-70.3857, 43.5049] }},
{"zip_code":"4076","country":"US","city":"Shapleigh","state":"Maine","state_ab":"ME","county":"York","geo_location":{ "type": "Point", "coordinates": [-70.8286, 43.5674] }},
{"zip_code":"4090","country":"US","city":"Wells","state":"Maine","state_ab":"ME","county":"York","geo_location":{ "type": "Point", "coordinates": [-70.5969, 43.3144] }},
{"zip_code":"49826","country":"US","city":"Rumely","state":"Michigan","state_ab":"MI","county":"Alger","geo_location":{ "type": "Point", "coordinates": [-87.0436, 46.3481] }},
{"zip_code":"49839","country":"US","city":"Grand Marais","state":"Michigan","state_ab":"MI","county":"Alger","geo_location":{ "type": "Point", "coordinates": [-85.9836, 46.6529] }},
{"zip_code":"49080","country":"US","city":"Plainwell","state":"Michigan","state_ab":"MI","county":"Allegan","geo_location":{ "type": "Point", "coordinates": [-85.5994, 42.4544] }},
{"zip_code":"49323","country":"US","city":"Dorr","state":"Michigan","state_ab":"MI","county":"Allegan","geo_location":{ "type": "Point", "coordinates": [-85.7628, 42.7231] }},
{"zip_code":"49453","country":"US","city":"Saugatuck","state":"Michigan","state_ab":"MI","county":"Allegan","geo_location":{ "type": "Point", "coordinates": [-86.1655, 42.6456] }},
{"zip_code":"49659","country":"US","city":"Mancelona","state":"Michigan","state_ab":"MI","county":"Antrim","geo_location":{ "type": "Point", "coordinates": [-85.0634, 44.9116] }},
{"zip_code":"49970","country":"US","city":"Watton","state":"Michigan","state_ab":"MI","county":"Baraga","geo_location":{ "type": "Point", "coordinates": [-88.6049, 46.5413] }},
{"zip_code":"48706","country":"US","city":"Bay City","state":"Michigan","state_ab":"MI","county":"Bay","geo_location":{ "type": "Point", "coordinates": [-83.953, 43.6088] }},
{"zip_code":"49039","country":"US","city":"Hagar Shores","state":"Michigan","state_ab":"MI","county":"Berrien","geo_location":{ "type": "Point", "coordinates": [-86.3723, 42.2248] }},
{"zip_code":"49103","country":"US","city":"Berrien Springs","state":"Michigan","state_ab":"MI","county":"Berrien","geo_location":{ "type": "Point", "coordinates": [-86.354, 41.948] }},
{"zip_code":"49116","country":"US","city":"Lakeside","state":"Michigan","state_ab":"MI","county":"Berrien","geo_location":{ "type": "Point", "coordinates": [-86.6694, 41.8485] }},
{"zip_code":"49129","country":"US","city":"Union Pier","state":"Michigan","state_ab":"MI","county":"Berrien","geo_location":{ "type": "Point", "coordinates": [-86.6911, 41.8255] }},
{"zip_code":"49130","country":"US","city":"Union","state":"Michigan","state_ab":"MI","county":"Cass","geo_location":{ "type": "Point", "coordinates": [-85.8529, 41.7827] }},
{"zip_code":"49749","country":"US","city":"Indian River","state":"Michigan","state_ab":"MI","county":"Cheboygan","geo_location":{ "type": "Point", "coordinates": [-84.5956, 45.427] }},
{"zip_code":"49710","country":"US","city":"Barbeau","state":"Michigan","state_ab":"MI","county":"Chippewa","geo_location":{ "type": "Point", "coordinates": [-84.2173, 46.2848] }},
{"zip_code":"49736","country":"US","city":"Goetzville","state":"Michigan","state_ab":"MI","county":"Chippewa","geo_location":{ "type": "Point", "coordinates": [-84.145, 46.079] }},
{"zip_code":"49789","country":"US","city":"Stalwart","state":"Michigan","state_ab":"MI","county":"Chippewa County","geo_location":{ "type": "Point", "coordinates": [-84.1559, 46.1389] }},
{"zip_code":"49790","country":"US","city":"Strongs","state":"Michigan","state_ab":"MI","county":"Chippewa","geo_location":{ "type": "Point", "coordinates": [-84.9668, 46.3874] }},
{"zip_code":"49880","country":"US","city":"Rock","state":"Michigan","state_ab":"MI","county":"Delta","geo_location":{ "type": "Point", "coordinates": [-87.1331, 46.0503] }},
{"zip_code":"48876","country":"US","city":"Potterville","state":"Michigan","state_ab":"MI","county":"Eaton","geo_location":{ "type": "Point", "coordinates": [-84.7346, 42.6398] }},
{"zip_code":"48890","country":"US","city":"Sunfield","state":"Michigan","state_ab":"MI","county":"Eaton","geo_location":{ "type": "Point", "coordinates": [-84.9813, 42.7693] }},
{"zip_code":"49723","country":"US","city":"Cross Village","state":"Michigan","state_ab":"MI","county":"Emmet","geo_location":{ "type": "Point", "coordinates": [-85.0419, 45.6254] }},
{"zip_code":"48423","country":"US","city":"Davison","state":"Michigan","state_ab":"MI","county":"Genesee","geo_location":{ "type": "Point", "coordinates": [-83.5268, 43.0348] }},
{"zip_code":"48436","country":"US","city":"Gaines","state":"Michigan","state_ab":"MI","county":"Genesee","geo_location":{ "type": "Point", "coordinates": [-83.8855, 42.8813] }},
{"zip_code":"48449","country":"US","city":"Lennon","state":"Michigan","state_ab":"MI","county":"Genesee","geo_location":{ "type": "Point", "coordinates": [-83.9279, 42.9693] }},
{"zip_code":"48463","country":"US","city":"Otisville","state":"Michigan","state_ab":"MI","county":"Genesee","geo_location":{ "type": "Point", "coordinates": [-83.5172, 43.1706] }},
{"zip_code":"48553","country":"US","city":"Flint","state":"Michigan","state_ab":"MI","county":"Genesee","geo_location":{ "type": "Point", "coordinates": [-83.7203, 42.9736] }},
{"zip_code":"49969","country":"US","city":"Watersmeet","state":"Michigan","state_ab":"MI","county":"Gogebic","geo_location":{ "type": "Point", "coordinates": [-89.2108, 46.2542] }},
{"zip_code":"49633","country":"US","city":"Fife Lake","state":"Michigan","state_ab":"MI","county":"Grand Traverse","geo_location":{ "type": "Point", "coordinates": [-85.2531, 44.5721] }},
{"zip_code":"49673","country":"US","city":"Old Mission","state":"Michigan","state_ab":"MI","county":"Grand Traverse","geo_location":{ "type": "Point", "coordinates": [-85.49, 44.9559] }},
{"zip_code":"49686","country":"US","city":"Traverse City","state":"Michigan","state_ab":"MI","county":"Grand Traverse","geo_location":{ "type": "Point", "coordinates": [-85.4907, 44.7849] }},
{"zip_code":"48889","country":"US","city":"Sumner","state":"Michigan","state_ab":"MI","county":"Gratiot","geo_location":{ "type": "Point", "coordinates": [-84.7907, 43.3091] }},
{"zip_code":"49273","country":"US","city":"Prattville","state":"Michigan","state_ab":"MI","county":"Hillsdale County","geo_location":{ "type": "Point", "coordinates": [-84.3914, 41.7821] }},
{"zip_code":"49916","country":"US","city":"Chassell","state":"Michigan","state_ab":"MI","county":"Houghton","geo_location":{ "type": "Point", "coordinates": [-88.5546, 47.002] }},
{"zip_code":"49930","country":"US","city":"Hancock","state":"Michigan","state_ab":"MI","county":"Houghton","geo_location":{ "type": "Point", "coordinates": [-88.5654, 47.1367] }},
{"zip_code":"48720","country":"US","city":"Bay Port","state":"Michigan","state_ab":"MI","county":"Huron","geo_location":{ "type": "Point", "coordinates": [-83.3525, 43.8377] }},
{"zip_code":"48759","country":"US","city":"Sebewaing","state":"Michigan","state_ab":"MI","county":"Huron","geo_location":{ "type": "Point", "coordinates": [-83.4366, 43.7289] }},
{"zip_code":"48823","country":"US","city":"East Lansing","state":"Michigan","state_ab":"MI","county":"Ingham","geo_location":{ "type": "Point", "coordinates": [-84.4764, 42.7388] }},
{"zip_code":"48900","country":"US","city":"Lansing","state":"Michigan","state_ab":"MI","county":"Ingham County","geo_location":{ "type": "Point", "coordinates": [-84.6228, 42.7039] }},
{"zip_code":"48913","country":"US","city":"Lansing","state":"Michigan","state_ab":"MI","county":"Ingham","geo_location":{ "type": "Point", "coordinates": [-84.372, 42.5992] }},
{"zip_code":"48980","country":"US","city":"Lansing","state":"Michigan","state_ab":"MI","county":"Ingham","geo_location":{ "type": "Point", "coordinates": [-84.372, 42.5992] }},
{"zip_code":"48809","country":"US","city":"Belding","state":"Michigan","state_ab":"MI","county":"Ionia","geo_location":{ "type": "Point", "coordinates": [-85.2313, 43.0885] }},
{"zip_code":"48849","country":"US","city":"Lake Odessa","state":"Michigan","state_ab":"MI","county":"Ionia","geo_location":{ "type": "Point", "coordinates": [-85.1357, 42.7863] }},
{"zip_code":"49903","country":"US","city":"Amasa","state":"Michigan","state_ab":"MI","county":"Iron","geo_location":{ "type": "Point", "coordinates": [-88.4176, 46.2494] }},
{"zip_code":"49943","country":"US","city":"Kenton","state":"Michigan","state_ab":"MI","county":"Iron County","geo_location":{ "type": "Point", "coordinates": [-88.8273, 46.5046] }},
{"zip_code":"49310","country":"US","city":"Blanchard","state":"Michigan","state_ab":"MI","county":"Isabella","geo_location":{ "type": "Point", "coordinates": [-85.0589, 43.5228] }},
{"zip_code":"49246","country":"US","city":"Horton","state":"Michigan","state_ab":"MI","county":"Jackson","geo_location":{ "type": "Point", "coordinates": [-84.4976, 42.1191] }},
{"zip_code":"49259","country":"US","city":"Munith","state":"Michigan","state_ab":"MI","county":"Jackson","geo_location":{ "type": "Point", "coordinates": [-84.2485, 42.3703] }},
{"zip_code":"49053","country":"US","city":"Galesburg","state":"Michigan","state_ab":"MI","county":"Kalamazoo","geo_location":{ "type": "Point", "coordinates": [-85.4237, 42.2948] }},
{"zip_code":"49646","country":"US","city":"Kalkaska","state":"Michigan","state_ab":"MI","county":"Kalkaska","geo_location":{ "type": "Point", "coordinates": [-85.1207, 44.7355] }},
{"zip_code":"49503","country":"US","city":"Grand Rapids","state":"Michigan","state_ab":"MI","county":"Kent","geo_location":{ "type": "Point", "coordinates": [-85.6527, 42.9659] }},
{"zip_code":"49516","country":"US","city":"Grand Rapids","state":"Michigan","state_ab":"MI","county":"Kent","geo_location":{ "type": "Point", "coordinates": [-85.5503, 43.0314] }},
{"zip_code":"49530","country":"US","city":"Grand Rapids","state":"Michigan","state_ab":"MI","county":"Kent","geo_location":{ "type": "Point", "coordinates": [-85.5503, 43.0314] }},
{"zip_code":"48760","country":"US","city":"Silverwood","state":"Michigan","state_ab":"MI","county":"Lapeer","geo_location":{ "type": "Point", "coordinates": [-83.272, 43.3141] }},
{"zip_code":"49220","country":"US","city":"Addison","state":"Michigan","state_ab":"MI","county":"Lenawee","geo_location":{ "type": "Point", "coordinates": [-84.3122, 42.0036] }},
{"zip_code":"49233","country":"US","city":"Cement City","state":"Michigan","state_ab":"MI","county":"Lenawee","geo_location":{ "type": "Point", "coordinates": [-84.3254, 42.0604] }},
{"zip_code":"49286","country":"US","city":"Tecumseh","state":"Michigan","state_ab":"MI","county":"Lenawee","geo_location":{ "type": "Point", "coordinates": [-83.9555, 41.9953] }},
{"zip_code":"48139","country":"US","city":"Hamburg","state":"Michigan","state_ab":"MI","county":"Livingston","geo_location":{ "type": "Point", "coordinates": [-83.8147, 42.4523] }},
{"zip_code":"48836","country":"US","city":"Fowlerville","state":"Michigan","state_ab":"MI","county":"Livingston","geo_location":{ "type": "Point", "coordinates": [-84.0721, 42.6614] }},
{"zip_code":"48863","country":"US","city":"Oak Grove","state":"Michigan","state_ab":"MI","county":"Livingston","geo_location":{ "type": "Point", "coordinates": [-83.9112, 42.6035] }},
{"zip_code":"49853","country":"US","city":"Mc Millan","state":"Michigan","state_ab":"MI","county":"Luce","geo_location":{ "type": "Point", "coordinates": [-85.7307, 46.297] }},
{"zip_code":"48036","country":"US","city":"Clinton Township","state":"Michigan","state_ab":"MI","county":"Macomb","geo_location":{ "type": "Point", "coordinates": [-82.9133, 42.5938] }},
{"zip_code":"48050","country":"US","city":"New Haven","state":"Michigan","state_ab":"MI","county":"Macomb","geo_location":{ "type": "Point", "coordinates": [-82.7979, 42.7859] }},
{"zip_code":"48089","country":"US","city":"Warren","state":"Michigan","state_ab":"MI","county":"Macomb","geo_location":{ "type": "Point", "coordinates": [-82.9974, 42.4685] }},
{"zip_code":"48090","country":"US","city":"Warren","state":"Michigan","state_ab":"MI","county":"Macomb","geo_location":{ "type": "Point", "coordinates": [-82.9031, 42.6723] }},
{"zip_code":"49619","country":"US","city":"Brethren","state":"Michigan","state_ab":"MI","county":"Manistee","geo_location":{ "type": "Point", "coordinates": [-85.9964, 44.2966] }},
{"zip_code":"49660","country":"US","city":"Manistee","state":"Michigan","state_ab":"MI","county":"Manistee","geo_location":{ "type": "Point", "coordinates": [-86.1825, 44.2635] }},
{"zip_code":"64726","country":"US","city":"Blairstown","state":"Missouri","state_ab":"MO","county":"Henry","geo_location":{ "type": "Point", "coordinates": [-93.9221, 38.5319] }},
{"zip_code":"64740","country":"US","city":"Deepwater","state":"Missouri","state_ab":"MO","county":"Henry","geo_location":{ "type": "Point", "coordinates": [-93.7303, 38.2432] }},
{"zip_code":"64470","country":"US","city":"Mound City","state":"Missouri","state_ab":"MO","county":"Holt","geo_location":{ "type": "Point", "coordinates": [-95.2138, 40.1362] }},
{"zip_code":"65626","country":"US","city":"Caulfield","state":"Missouri","state_ab":"MO","county":"Howell","geo_location":{ "type": "Point", "coordinates": [-92.0678, 36.6035] }},
{"zip_code":"63620","country":"US","city":"Annapolis","state":"Missouri","state_ab":"MO","county":"Iron","geo_location":{ "type": "Point", "coordinates": [-90.6702, 37.3981] }},
{"zip_code":"63646","country":"US","city":"Glover","state":"Missouri","state_ab":"MO","county":"Iron","geo_location":{ "type": "Point", "coordinates": [-90.845, 37.5055] }},
{"zip_code":"64016","country":"US","city":"Buckner","state":"Missouri","state_ab":"MO","county":"Jackson","geo_location":{ "type": "Point", "coordinates": [-94.2062, 39.1303] }},
{"zip_code":"64029","country":"US","city":"Grain Valley","state":"Missouri","state_ab":"MO","county":"Jackson","geo_location":{ "type": "Point", "coordinates": [-94.2087, 39.0274] }},
{"zip_code":"64030","country":"US","city":"Grandview","state":"Missouri","state_ab":"MO","county":"Jackson","geo_location":{ "type": "Point", "coordinates": [-94.5205, 38.8819] }},
{"zip_code":"64056","country":"US","city":"Independence","state":"Missouri","state_ab":"MO","county":"Jackson","geo_location":{ "type": "Point", "coordinates": [-94.3596, 39.1177] }},
{"zip_code":"64070","country":"US","city":"Lone Jack","state":"Missouri","state_ab":"MO","county":"Jackson","geo_location":{ "type": "Point", "coordinates": [-94.1615, 38.8918] }},
{"zip_code":"64106","country":"US","city":"Kansas City","state":"Missouri","state_ab":"MO","county":"Jackson","geo_location":{ "type": "Point", "coordinates": [-94.5699, 39.1052] }},
{"zip_code":"64120","country":"US","city":"Kansas City","state":"Missouri","state_ab":"MO","county":"Jackson","geo_location":{ "type": "Point", "coordinates": [-94.5487, 39.1222] }},
{"zip_code":"64133","country":"US","city":"Kansas City","state":"Missouri","state_ab":"MO","county":"Jackson","geo_location":{ "type": "Point", "coordinates": [-94.47, 39.0323] }},
{"zip_code":"64146","country":"US","city":"Kansas City","state":"Missouri","state_ab":"MO","county":"Jackson","geo_location":{ "type": "Point", "coordinates": [-94.5764, 38.8973] }},
{"zip_code":"64173","country":"US","city":"Kansas City","state":"Missouri","state_ab":"MO","county":"Jackson","geo_location":{ "type": "Point", "coordinates": [-94.3567, 39.035] }},
{"zip_code":"64199","country":"US","city":"Kansas City","state":"Missouri","state_ab":"MO","county":"Jackson","geo_location":{ "type": "Point", "coordinates": [-94.3567, 39.035] }},
{"zip_code":"64999","country":"US","city":"Kansas City","state":"Missouri","state_ab":"MO","county":"Jackson","geo_location":{ "type": "Point", "coordinates": [-94.3567, 39.035] }},
{"zip_code":"64803","country":"US","city":"Joplin","state":"Missouri","state_ab":"MO","county":"Jasper","geo_location":{ "type": "Point", "coordinates": [-94.3355, 37.2062] }},
{"zip_code":"64830","country":"US","city":"Alba","state":"Missouri","state_ab":"MO","county":"Jasper","geo_location":{ "type": "Point", "coordinates": [-94.418, 37.2367] }},
{"zip_code":"64869","country":"US","city":"Waco","state":"Missouri","state_ab":"MO","county":"Jasper","geo_location":{ "type": "Point", "coordinates": [-94.3355, 37.2062] }},
{"zip_code":"64870","country":"US","city":"Webb City","state":"Missouri","state_ab":"MO","county":"Jasper","geo_location":{ "type": "Point", "coordinates": [-94.4727, 37.144] }},
{"zip_code":"63053","country":"US","city":"Kimmswick","state":"Missouri","state_ab":"MO","county":"Jefferson","geo_location":{ "type": "Point", "coordinates": [-90.5149, 38.2527] }},
{"zip_code":"63066","country":"US","city":"Morse Mill","state":"Missouri","state_ab":"MO","county":"Jefferson","geo_location":{ "type": "Point", "coordinates": [-90.6521, 38.2809] }},
{"zip_code":"65536","country":"US","city":"Lebanon","state":"Missouri","state_ab":"MO","county":"Laclede","geo_location":{ "type": "Point", "coordinates": [-92.655, 37.685] }},
{"zip_code":"64096","country":"US","city":"Waverly","state":"Missouri","state_ab":"MO","county":"Lafayette","geo_location":{ "type": "Point", "coordinates": [-93.5257, 39.2055] }},
{"zip_code":"65756","country":"US","city":"Stotts City","state":"Missouri","state_ab":"MO","county":"Lawrence","geo_location":{ "type": "Point", "coordinates": [-93.9543, 37.1031] }},
{"zip_code":"65769","country":"US","city":"Verona","state":"Missouri","state_ab":"MO","county":"Lawrence","geo_location":{ "type": "Point", "coordinates": [-93.8005, 36.937] }},
{"zip_code":"63440","country":"US","city":"Ewing","state":"Missouri","state_ab":"MO","county":"Lewis","geo_location":{ "type": "Point", "coordinates": [-91.7216, 39.9962] }},
{"zip_code":"63349","country":"US","city":"Hawk Point","state":"Missouri","state_ab":"MO","county":"Lincoln","geo_location":{ "type": "Point", "coordinates": [-91.1211, 38.9766] }},
{"zip_code":"63389","country":"US","city":"Winfield","state":"Missouri","state_ab":"MO","county":"Lincoln","geo_location":{ "type": "Point", "coordinates": [-90.8213, 38.9897] }},
{"zip_code":"64843","country":"US","city":"Goodman","state":"Missouri","state_ab":"MO","county":"McDonald","geo_location":{ "type": "Point", "coordinates": [-94.3986, 36.7323] }},
{"zip_code":"64856","country":"US","city":"Pineville","state":"Missouri","state_ab":"MO","county":"McDonald","geo_location":{ "type": "Point", "coordinates": [-94.377, 36.574] }},
{"zip_code":"65730","country":"US","city":"Powell","state":"Missouri","state_ab":"MO","county":"McDonald","geo_location":{ "type": "Point", "coordinates": [-94.1773, 36.6237] }},
{"zip_code":"63530","country":"US","city":"Atlanta","state":"Missouri","state_ab":"MO","county":"Macon","geo_location":{ "type": "Point", "coordinates": [-92.475, 39.9146] }},
{"zip_code":"65486","country":"US","city":"Iberia","state":"Missouri","state_ab":"MO","county":"Miller","geo_location":{ "type": "Point", "coordinates": [-92.2989, 38.1219] }},
{"zip_code":"65046","country":"US","city":"Jamestown","state":"Missouri","state_ab":"MO","county":"Moniteau","geo_location":{ "type": "Point", "coordinates": [-92.4807, 38.7793] }},
{"zip_code":"63350","country":"US","city":"High Hill","state":"Missouri","state_ab":"MO","county":"Montgomery","geo_location":{ "type": "Point", "coordinates": [-91.3715, 38.8902] }},
{"zip_code":"63363","country":"US","city":"New Florence","state":"Missouri","state_ab":"MO","county":"Montgomery","geo_location":{ "type": "Point", "coordinates": [-91.4909, 38.9023] }},
{"zip_code":"65329","country":"US","city":"Florence","state":"Missouri","state_ab":"MO","county":"Morgan","geo_location":{ "type": "Point", "coordinates": [-92.9986, 38.6101] }},
{"zip_code":"63866","country":"US","city":"Marston","state":"Missouri","state_ab":"MO","county":"New Madrid","geo_location":{ "type": "Point", "coordinates": [-89.6464, 36.5186] }},
{"zip_code":"65666","country":"US","city":"Hardenville","state":"Missouri","state_ab":"MO","county":"Ozark","geo_location":{ "type": "Point", "coordinates": [-92.4423, 36.6516] }},
{"zip_code":"65729","country":"US","city":"Pontiac","state":"Missouri","state_ab":"MO","county":"Ozark","geo_location":{ "type": "Point", "coordinates": [-92.5612, 36.5248] }},
{"zip_code":"63826","country":"US","city":"Braggadocio","state":"Missouri","state_ab":"MO","county":"Pemiscot","geo_location":{ "type": "Point", "coordinates": [-89.6716, 36.1781] }},
{"zip_code":"63839","country":"US","city":"Cooter","state":"Missouri","state_ab":"MO","county":"Pemiscot","geo_location":{ "type": "Point", "coordinates": [-89.8091, 36.0476] }},
{"zip_code":"63840","country":"US","city":"Deering","state":"Missouri","state_ab":"MO","county":"Pemiscot","geo_location":{ "type": "Point", "coordinates": [-89.7481, 36.2133] }},
{"zip_code":"63853","country":"US","city":"Holland","state":"Missouri","state_ab":"MO","county":"Pemiscot","geo_location":{ "type": "Point", "coordinates": [-89.8311, 36.093] }},
{"zip_code":"63879","country":"US","city":"Wardell","state":"Missouri","state_ab":"MO","county":"Pemiscot","geo_location":{ "type": "Point", "coordinates": [-89.8181, 36.3478] }},
{"zip_code":"63776","country":"US","city":"Mc Bride","state":"Missouri","state_ab":"MO","county":"Perry","geo_location":{ "type": "Point", "coordinates": [-89.8116, 37.7348] }},
{"zip_code":"65550","country":"US","city":"Newburg","state":"Missouri","state_ab":"MO","county":"Phelps","geo_location":{ "type": "Point", "coordinates": [-91.8807, 37.9008] }},
{"zip_code":"63336","country":"US","city":"Clarksville","state":"Missouri","state_ab":"MO","county":"Pike","geo_location":{ "type": "Point", "coordinates": [-90.9362, 39.3465] }},
{"zip_code":"65613","country":"US","city":"Bolivar","state":"Missouri","state_ab":"MO","county":"Polk","geo_location":{ "type": "Point", "coordinates": [-93.4126, 37.6085] }},
{"zip_code":"65640","country":"US","city":"Dunnegan","state":"Missouri","state_ab":"MO","county":"Polk","geo_location":{ "type": "Point", "coordinates": [-93.5216, 37.7031] }},
{"zip_code":"65459","country":"US","city":"Dixon","state":"Missouri","state_ab":"MO","county":"Pulaski","geo_location":{ "type": "Point", "coordinates": [-92.0897, 37.9848] }},
{"zip_code":"65473","country":"US","city":"Fort Leonard Wood","state":"Missouri","state_ab":"MO","county":"Pulaski","geo_location":{ "type": "Point", "coordinates": [-92.112, 37.7677] }},
{"zip_code":"65239","country":"US","city":"Cairo","state":"Missouri","state_ab":"MO","county":"Randolph","geo_location":{ "type": "Point", "coordinates": [-92.44, 39.5114] }},
{"zip_code":"63633","country":"US","city":"Centerville","state":"Missouri","state_ab":"MO","county":"Reynolds","geo_location":{ "type": "Point", "coordinates": [-90.9757, 37.4285] }},
{"zip_code":"63376","country":"US","city":"Saint Peters","state":"Missouri","state_ab":"MO","county":"St. Charles","geo_location":{ "type": "Point", "coordinates": [-90.6228, 38.7802] }},
{"zip_code":"63673","country":"US","city":"Saint Mary","state":"Missouri","state_ab":"MO","county":"Ste. Genevieve","geo_location":{ "type": "Point", "coordinates": [-89.977, 37.8325] }},
{"zip_code":"63026","country":"US","city":"Fenton","state":"Missouri","state_ab":"MO","county":"St. Louis","geo_location":{ "type": "Point", "coordinates": [-90.4683, 38.5015] }},
{"zip_code":"63040","country":"US","city":"Grover","state":"Missouri","state_ab":"MO","county":"St. Louis","geo_location":{ "type": "Point", "coordinates": [-90.631, 38.5667] }},
{"zip_code":"63129","country":"US","city":"Saint Louis","state":"Missouri","state_ab":"MO","county":"St. Louis","geo_location":{ "type": "Point", "coordinates": [-90.3282, 38.4566] }},
{"zip_code":"63130","country":"US","city":"Saint Louis","state":"Missouri","state_ab":"MO","county":"St. Louis","geo_location":{ "type": "Point", "coordinates": [-90.3225, 38.6669] }},
{"zip_code":"63143","country":"US","city":"Saint Louis","state":"Missouri","state_ab":"MO","county":"St. Louis","geo_location":{ "type": "Point", "coordinates": [-90.3225, 38.6111] }},
{"zip_code":"65330","country":"US","city":"Gilliam","state":"Missouri","state_ab":"MO","county":"Saline","geo_location":{ "type": "Point", "coordinates": [-92.9932, 39.2447] }},
{"zip_code":"63543","country":"US","city":"Gorin","state":"Missouri","state_ab":"MO","county":"Scotland","geo_location":{ "type": "Point", "coordinates": [-92.014, 40.3622] }},
{"zip_code":"63736","country":"US","city":"Benton","state":"Missouri","state_ab":"MO","county":"Scott","geo_location":{ "type": "Point", "coordinates": [-89.5664, 37.0697] }},
{"zip_code":"63439","country":"US","city":"Emden","state":"Missouri","state_ab":"MO","county":"Shelby","geo_location":{ "type": "Point", "coordinates": [-91.8606, 39.8019] }},
{"zip_code":"63556","country":"US","city":"Milan","state":"Missouri","state_ab":"MO","county":"Sullivan","geo_location":{ "type": "Point", "coordinates": [-93.1361, 40.1844] }},
{"zip_code":"65653","country":"US","city":"Forsyth","state":"Missouri","state_ab":"MO","county":"Taney","geo_location":{ "type": "Point", "coordinates": [-93.115, 36.6955] }},
{"zip_code":"65679","country":"US","city":"Kirbyville","state":"Missouri","state_ab":"MO","county":"Taney","geo_location":{ "type": "Point", "coordinates": [-93.1263, 36.5792] }},
{"zip_code":"65680","country":"US","city":"Kissee Mills","state":"Missouri","state_ab":"MO","county":"Taney","geo_location":{ "type": "Point", "coordinates": [-93.0377, 36.6704] }},
{"zip_code":"65433","country":"US","city":"Bendavis","state":"Missouri","state_ab":"MO","county":"Texas","geo_location":{ "type": "Point", "coordinates": [-92.2144, 37.3094] }},
{"zip_code":"65589","country":"US","city":"Yukon","state":"Missouri","state_ab":"MO","county":"Texas","geo_location":{ "type": "Point", "coordinates": [-91.8244, 37.2311] }},
{"zip_code":"63390","country":"US","city":"Wright City","state":"Missouri","state_ab":"MO","county":"Warren","geo_location":{ "type": "Point", "coordinates": [-91.0329, 38.8097] }},
{"zip_code":"63660","country":"US","city":"Mineral Point","state":"Missouri","state_ab":"MO","county":"Washington","geo_location":{ "type": "Point", "coordinates": [-90.7193, 37.9156] }},
{"zip_code":"63763","country":"US","city":"Mc Gee","state":"Missouri","state_ab":"MO","county":"Wayne","geo_location":{ "type": "Point", "coordinates": [-90.445, 37.1196] }},
{"zip_code":"63956","country":"US","city":"Patterson","state":"Missouri","state_ab":"MO","county":"Wayne","geo_location":{ "type": "Point", "coordinates": [-90.445, 37.1196] }},
{"zip_code":"64456","country":"US","city":"Grant City","state":"Missouri","state_ab":"MO","county":"Worth","geo_location":{ "type": "Point", "coordinates": [-94.3979, 40.4924] }},
{"zip_code":"63103","country":"US","city":"Saint Louis","state":"Missouri","state_ab":"MO","county":"St. Louis (city)","geo_location":{ "type": "Point", "coordinates": [-90.2164, 38.6332] }},
{"zip_code":"63116","country":"US","city":"Saint Louis","state":"Missouri","state_ab":"MO","county":"St. Louis (city)","geo_location":{ "type": "Point", "coordinates": [-90.2625, 38.5814] }},
{"zip_code":"63156","country":"US","city":"Saint Louis","state":"Missouri","state_ab":"MO","county":"St. Louis (city)","geo_location":{ "type": "Point", "coordinates": [-90.2435, 38.6531] }},
{"zip_code":"63169","country":"US","city":"Saint Louis","state":"Missouri","state_ab":"MO","county":"St. Louis (city)","geo_location":{ "type": "Point", "coordinates": [-90.2435, 38.6531] }},
{"zip_code":"63196","country":"US","city":"Saint Louis","state":"Missouri","state_ab":"MO","county":"St. Louis (city)","geo_location":{ "type": "Point", "coordinates": [-90.2435, 38.6531] }},
{"zip_code":"96950","country":"US","city":"Saipan","state":"","state_ab":"MP","county":"","geo_location":{ "type": "Point", "coordinates": [145.7472, 15.1917] }},
{"zip_code":"38846","country":"US","city":"Glen","state":"Mississippi","state_ab":"MS","county":"Alcorn","geo_location":{ "type": "Point", "coordinates": [-88.4359, 34.878] }},
{"zip_code":"39090","country":"US","city":"Kosciusko","state":"Mississippi","state_ab":"MS","county":"Attala","geo_location":{ "type": "Point", "coordinates": [-89.5724, 33.0446] }},
{"zip_code":"38730","country":"US","city":"Boyle","state":"Mississippi","state_ab":"MS","county":"Bolivar","geo_location":{ "type": "Point", "coordinates": [-90.7838, 33.6891] }},
{"zip_code":"38769","country":"US","city":"Rosedale","state":"Mississippi","state_ab":"MS","county":"Bolivar","geo_location":{ "type": "Point", "coordinates": [-90.9923, 33.8432] }},
{"zip_code":"38923","country":"US","city":"Coila","state":"Mississippi","state_ab":"MS","county":"Carroll","geo_location":{ "type": "Point", "coordinates": [-89.9915, 33.3731] }},
{"zip_code":"38860","country":"US","city":"Okolona","state":"Mississippi","state_ab":"MS","county":"Chickasaw","geo_location":{ "type": "Point", "coordinates": [-88.7638, 33.9694] }},
{"zip_code":"39049","country":"US","city":"Carlisle","state":"Mississippi","state_ab":"MS","county":"Claiborne County","geo_location":{ "type": "Point", "coordinates": [-90.7799, 32.1013] }},
{"zip_code":"39360","country":"US","city":"Shubuta","state":"Mississippi","state_ab":"MS","county":"Clarke","geo_location":{ "type": "Point", "coordinates": [-88.7168, 31.9607] }},
{"zip_code":"39773","country":"US","city":"West Point","state":"Mississippi","state_ab":"MS","county":"Clay","geo_location":{ "type": "Point", "coordinates": [-88.6823, 33.6265] }},
{"zip_code":"38639","country":"US","city":"Jonestown","state":"Mississippi","state_ab":"MS","county":"Coahoma","geo_location":{ "type": "Point", "coordinates": [-90.4294, 34.3037] }},
{"zip_code":"38680","country":"US","city":"Walls","state":"Mississippi","state_ab":"MS","county":"DeSoto","geo_location":{ "type": "Point", "coordinates": [-90.1208, 34.9641] }},
{"zip_code":"39630","country":"US","city":"Bude","state":"Mississippi","state_ab":"MS","county":"Franklin","geo_location":{ "type": "Point", "coordinates": [-90.8457, 31.4593] }},
{"zip_code":"39500","country":"US","city":"Gulfport","state":"Mississippi","state_ab":"MS","county":"Harrison County","geo_location":{ "type": "Point", "coordinates": [-89.0677, 30.3861] }},
{"zip_code":"39540","country":"US","city":"Diberville","state":"Mississippi","state_ab":"MS","county":"Harrison","geo_location":{ "type": "Point", "coordinates": [-88.8989, 30.4383] }},
{"zip_code":"71270","country":"US","city":"Ruston","state":"Louisiana","state_ab":"LA","county":"Lincoln","geo_location":{ "type": "Point", "coordinates": [-92.6439, 32.5308] }},
{"zip_code":"71229","country":"US","city":"Collinston","state":"Louisiana","state_ab":"LA","county":"Morehouse","geo_location":{ "type": "Point", "coordinates": [-91.8634, 32.6971] }},
{"zip_code":"71450","country":"US","city":"Marthaville","state":"Louisiana","state_ab":"LA","county":"Natchitoches","geo_location":{ "type": "Point", "coordinates": [-93.3954, 31.7726] }},
{"zip_code":"70149","country":"US","city":"New Orleans","state":"Louisiana","state_ab":"LA","county":"Orleans","geo_location":{ "type": "Point", "coordinates": [-89.8826, 30.033] }},
{"zip_code":"70150","country":"US","city":"New Orleans","state":"Louisiana","state_ab":"LA","county":"Orleans","geo_location":{ "type": "Point", "coordinates": [-89.8826, 30.033] }},
{"zip_code":"70163","country":"US","city":"New Orleans","state":"Louisiana","state_ab":"LA","county":"Orleans","geo_location":{ "type": "Point", "coordinates": [-90.0755, 29.95] }},
{"zip_code":"70176","country":"US","city":"New Orleans","state":"Louisiana","state_ab":"LA","county":"Orleans","geo_location":{ "type": "Point", "coordinates": [-89.8826, 30.033] }},
{"zip_code":"70189","country":"US","city":"New Orleans","state":"Louisiana","state_ab":"LA","county":"Orleans","geo_location":{ "type": "Point", "coordinates": [-89.8826, 30.033] }},
{"zip_code":"70190","country":"US","city":"New Orleans","state":"Louisiana","state_ab":"LA","county":"Orleans","geo_location":{ "type": "Point", "coordinates": [-89.8826, 30.033] }},
{"zip_code":"71203","country":"US","city":"Monroe","state":"Louisiana","state_ab":"LA","county":"Ouachita","geo_location":{ "type": "Point", "coordinates": [-92.0422, 32.553] }},
{"zip_code":"70046","country":"US","city":"Davant","state":"Louisiana","state_ab":"LA","county":"Plaquemines","geo_location":{ "type": "Point", "coordinates": [-89.8726, 29.6183] }},
{"zip_code":"70756","country":"US","city":"Lottie","state":"Louisiana","state_ab":"LA","county":"Pointe Coupee","geo_location":{ "type": "Point", "coordinates": [-91.6278, 30.5765] }},
{"zip_code":"70783","country":"US","city":"Ventress","state":"Louisiana","state_ab":"LA","county":"Pointe Coupee","geo_location":{ "type": "Point", "coordinates": [-91.4033, 30.6814] }},
{"zip_code":"71306","country":"US","city":"Alexandria","state":"Louisiana","state_ab":"LA","county":"Rapides","geo_location":{ "type": "Point", "coordinates": [-92.4461, 31.0756] }},
{"zip_code":"71346","country":"US","city":"Lecompte","state":"Louisiana","state_ab":"LA","county":"Rapides","geo_location":{ "type": "Point", "coordinates": [-92.389, 31.106] }},
{"zip_code":"71359","country":"US","city":"Pineville","state":"Louisiana","state_ab":"LA","county":"Rapides","geo_location":{ "type": "Point", "coordinates": [-92.5269, 31.2034] }},
{"zip_code":"71360","country":"US","city":"Pineville","state":"Louisiana","state_ab":"LA","county":"Rapides","geo_location":{ "type": "Point", "coordinates": [-92.3203, 31.2232] }},
{"zip_code":"71409","country":"US","city":"Boyce","state":"Louisiana","state_ab":"LA","county":"Rapides","geo_location":{ "type": "Point", "coordinates": [-92.6867, 31.3216] }},
{"zip_code":"71036","country":"US","city":"Harmon","state":"Louisiana","state_ab":"LA","county":"Red River","geo_location":{ "type": "Point", "coordinates": [-93.3679, 32.0624] }},
{"zip_code":"71269","country":"US","city":"Rayville","state":"Louisiana","state_ab":"LA","county":"Richland","geo_location":{ "type": "Point", "coordinates": [-91.7433, 32.4456] }},
{"zip_code":"71449","country":"US","city":"Many","state":"Louisiana","state_ab":"LA","county":"Sabine","geo_location":{ "type": "Point", "coordinates": [-93.4641, 31.5851] }},
{"zip_code":"70086","country":"US","city":"Saint James","state":"Louisiana","state_ab":"LA","county":"St. James","geo_location":{ "type": "Point", "coordinates": [-90.8605, 30.0276] }},
{"zip_code":"70743","country":"US","city":"Hester","state":"Louisiana","state_ab":"LA","county":"St. James","geo_location":{ "type": "Point", "coordinates": [-90.7814, 30.0206] }},
{"zip_code":"70550","country":"US","city":"Lawtell","state":"Louisiana","state_ab":"LA","county":"St. Landry","geo_location":{ "type": "Point", "coordinates": [-92.1841, 30.5165] }},
{"zip_code":"70589","country":"US","city":"Washington","state":"Louisiana","state_ab":"LA","county":"St. Landry","geo_location":{ "type": "Point", "coordinates": [-92.0252, 30.6839] }},
{"zip_code":"70523","country":"US","city":"Charenton","state":"Louisiana","state_ab":"LA","county":"St. Mary","geo_location":{ "type": "Point", "coordinates": [-91.5337, 29.8796] }},
{"zip_code":"70420","country":"US","city":"Abita Springs","state":"Louisiana","state_ab":"LA","county":"St. Tammany","geo_location":{ "type": "Point", "coordinates": [-90.0041, 30.4837] }},
{"zip_code":"70433","country":"US","city":"Covington","state":"Louisiana","state_ab":"LA","county":"St. Tammany","geo_location":{ "type": "Point", "coordinates": [-90.0959, 30.4876] }},
{"zip_code":"70459","country":"US","city":"Slidell","state":"Louisiana","state_ab":"LA","county":"St. Tammany","geo_location":{ "type": "Point", "coordinates": [-89.8813, 30.4255] }},
{"zip_code":"70460","country":"US","city":"Slidell","state":"Louisiana","state_ab":"LA","county":"St. Tammany","geo_location":{ "type": "Point", "coordinates": [-89.8129, 30.2916] }},
{"zip_code":"70446","country":"US","city":"Loranger","state":"Louisiana","state_ab":"LA","county":"Tangipahoa","geo_location":{ "type": "Point", "coordinates": [-90.3567, 30.5884] }},
{"zip_code":"70343","country":"US","city":"Bourg","state":"Louisiana","state_ab":"LA","county":"Terrebonne","geo_location":{ "type": "Point", "coordinates": [-90.6087, 29.5485] }},
{"zip_code":"70356","country":"US","city":"Gibson","state":"Louisiana","state_ab":"LA","county":"Terrebonne","geo_location":{ "type": "Point", "coordinates": [-90.9776, 29.6625] }},
{"zip_code":"71256","country":"US","city":"Lillie","state":"Louisiana","state_ab":"LA","county":"Union","geo_location":{ "type": "Point", "coordinates": [-92.6858, 32.9529] }},
{"zip_code":"70510","country":"US","city":"Abbeville","state":"Louisiana","state_ab":"LA","county":"Vermilion","geo_location":{ "type": "Point", "coordinates": [-92.2416, 29.9466] }},
{"zip_code":"70639","country":"US","city":"Evans","state":"Louisiana","state_ab":"LA","county":"Vernon","geo_location":{ "type": "Point", "coordinates": [-93.5203, 30.9684] }},
{"zip_code":"71023","country":"US","city":"Doyline","state":"Louisiana","state_ab":"LA","county":"Webster","geo_location":{ "type": "Point", "coordinates": [-93.3996, 32.49] }},
{"zip_code":"70729","country":"US","city":"Erwinville","state":"Louisiana","state_ab":"LA","county":"West Baton Rouge","geo_location":{ "type": "Point", "coordinates": [-91.4187, 30.548] }},
{"zip_code":"71410","country":"US","city":"Calvin","state":"Louisiana","state_ab":"LA","county":"Winn","geo_location":{ "type": "Point", "coordinates": [-92.7924, 31.9613] }},
{"zip_code":"2559","country":"US","city":"Pocasset","state":"Massachusetts","state_ab":"MA","county":"Barnstable","geo_location":{ "type": "Point", "coordinates": [-70.6105, 41.6881] }},
{"zip_code":"2636","country":"US","city":"Centerville","state":"Massachusetts","state_ab":"MA","county":"Barnstable","geo_location":{ "type": "Point", "coordinates": [-70.3087, 41.7993] }},
{"zip_code":"2649","country":"US","city":"Mashpee","state":"Massachusetts","state_ab":"MA","county":"Barnstable","geo_location":{ "type": "Point", "coordinates": [-70.4854, 41.6181] }},
{"zip_code":"2650","country":"US","city":"North Chatham","state":"Massachusetts","state_ab":"MA","county":"Barnstable","geo_location":{ "type": "Point", "coordinates": [-69.9666, 41.703] }},
{"zip_code":"2663","country":"US","city":"South Wellfleet","state":"Massachusetts","state_ab":"MA","county":"Barnstable","geo_location":{ "type": "Point", "coordinates": [-70.0768, 41.8005] }},
{"zip_code":"1220","country":"US","city":"Adams","state":"Massachusetts","state_ab":"MA","county":"Berkshire","geo_location":{ "type": "Point", "coordinates": [-73.1172, 42.6223] }},
{"zip_code":"1259","country":"US","city":"Southfield","state":"Massachusetts","state_ab":"MA","county":"Berkshire","geo_location":{ "type": "Point", "coordinates": [-73.2609, 42.078] }},
{"zip_code":"1260","country":"US","city":"South Lee","state":"Massachusetts","state_ab":"MA","county":"Berkshire","geo_location":{ "type": "Point", "coordinates": [-73.3133, 42.2866] }},
{"zip_code":"2726","country":"US","city":"Somerset","state":"Massachusetts","state_ab":"MA","county":"Bristol","geo_location":{ "type": "Point", "coordinates": [-71.1492, 41.756] }},
{"zip_code":"2740","country":"US","city":"New Bedford","state":"Massachusetts","state_ab":"MA","county":"Bristol","geo_location":{ "type": "Point", "coordinates": [-70.9372, 41.6347] }},
{"zip_code":"2766","country":"US","city":"Norton","state":"Massachusetts","state_ab":"MA","county":"Bristol","geo_location":{ "type": "Point", "coordinates": [-71.1894, 41.9718] }},
{"zip_code":"2779","country":"US","city":"Berkley","state":"Massachusetts","state_ab":"MA","county":"Bristol","geo_location":{ "type": "Point", "coordinates": [-71.0765, 41.8353] }},
{"zip_code":"2780","country":"US","city":"Taunton","state":"Massachusetts","state_ab":"MA","county":"Bristol","geo_location":{ "type": "Point", "coordinates": [-71.1026, 41.905] }},
{"zip_code":"2573","country":"US","city":"Vineyard Haven","state":"Massachusetts","state_ab":"MA","county":"Dukes","geo_location":{ "type": "Point", "coordinates": [-70.6431, 41.3798] }},
{"zip_code":"2713","country":"US","city":"Cuttyhunk","state":"Massachusetts","state_ab":"MA","county":"Dukes","geo_location":{ "type": "Point", "coordinates": [-70.9313, 41.4218] }},
{"zip_code":"1840","country":"US","city":"Lawrence","state":"Massachusetts","state_ab":"MA","county":"Essex","geo_location":{ "type": "Point", "coordinates": [-71.1638, 42.708] }},
{"zip_code":"1903","country":"US","city":"Lynn","state":"Massachusetts","state_ab":"MA","county":"Essex","geo_location":{ "type": "Point", "coordinates": [-70.8791, 42.6354] }},
{"zip_code":"1929","country":"US","city":"Essex","state":"Massachusetts","state_ab":"MA","county":"Essex","geo_location":{ "type": "Point", "coordinates": [-70.7828, 42.6286] }},
{"zip_code":"1930","country":"US","city":"Gloucester","state":"Massachusetts","state_ab":"MA","county":"Essex","geo_location":{ "type": "Point", "coordinates": [-70.6721, 42.6208] }},
{"zip_code":"1969","country":"US","city":"Rowley","state":"Massachusetts","state_ab":"MA","county":"Essex","geo_location":{ "type": "Point", "coordinates": [-70.907, 42.7138] }},
{"zip_code":"1970","country":"US","city":"Salem","state":"Massachusetts","state_ab":"MA","county":"Essex","geo_location":{ "type": "Point", "coordinates": [-70.9003, 42.5151] }},
{"zip_code":"1983","country":"US","city":"Topsfield","state":"Massachusetts","state_ab":"MA","county":"Essex","geo_location":{ "type": "Point", "coordinates": [-70.9488, 42.6415] }},
{"zip_code":"1093","country":"US","city":"Whately","state":"Massachusetts","state_ab":"MA","county":"Franklin","geo_location":{ "type": "Point", "coordinates": [-72.6525, 42.4427] }},
{"zip_code":"1349","country":"US","city":"Turners Falls","state":"Massachusetts","state_ab":"MA","county":"Franklin","geo_location":{ "type": "Point", "coordinates": [-72.4832, 42.5725] }},
{"zip_code":"1350","country":"US","city":"Monroe Bridge","state":"Massachusetts","state_ab":"MA","county":"Franklin","geo_location":{ "type": "Point", "coordinates": [-72.9762, 42.7215] }},
{"zip_code":"1376","country":"US","city":"Turners Falls","state":"Massachusetts","state_ab":"MA","county":"Franklin","geo_location":{ "type": "Point", "coordinates": [-72.5557, 42.5954] }},
{"zip_code":"1013","country":"US","city":"Chicopee","state":"Massachusetts","state_ab":"MA","county":"Hampden","geo_location":{ "type": "Point", "coordinates": [-72.6082, 42.1596] }},
{"zip_code":"1040","country":"US","city":"Holyoke","state":"Massachusetts","state_ab":"MA","county":"Hampden","geo_location":{ "type": "Point", "coordinates": [-72.6262, 42.202] }},
{"zip_code":"1079","country":"US","city":"Thorndike","state":"Massachusetts","state_ab":"MA","county":"Hampden","geo_location":{ "type": "Point", "coordinates": [-72.3296, 42.1929] }},
{"zip_code":"1080","country":"US","city":"Three Rivers","state":"Massachusetts","state_ab":"MA","county":"Hampden","geo_location":{ "type": "Point", "coordinates": [-72.3624, 42.1819] }},
{"zip_code":"1103","country":"US","city":"Springfield","state":"Massachusetts","state_ab":"MA","county":"Hampden","geo_location":{ "type": "Point", "coordinates": [-72.5887, 42.1029] }},
{"zip_code":"1116","country":"US","city":"Longmeadow","state":"Massachusetts","state_ab":"MA","county":"Hampden","geo_location":{ "type": "Point", "coordinates": [-72.6048, 42.1707] }},
{"zip_code":"1129","country":"US","city":"Springfield","state":"Massachusetts","state_ab":"MA","county":"Hampden","geo_location":{ "type": "Point", "coordinates": [-72.4876, 42.1223] }},
{"zip_code":"1026","country":"US","city":"Cummington","state":"Massachusetts","state_ab":"MA","county":"Hampshire","geo_location":{ "type": "Point", "coordinates": [-72.9202, 42.4633] }},
{"zip_code":"1039","country":"US","city":"Haydenville","state":"Massachusetts","state_ab":"MA","county":"Hampshire","geo_location":{ "type": "Point", "coordinates": [-72.7032, 42.3818] }},
{"zip_code":"1053","country":"US","city":"Leeds","state":"Massachusetts","state_ab":"MA","county":"Hampshire","geo_location":{ "type": "Point", "coordinates": [-72.7034, 42.3543] }},
{"zip_code":"1066","country":"US","city":"North Hatfield","state":"Massachusetts","state_ab":"MA","county":"Hampshire","geo_location":{ "type": "Point", "coordinates": [-72.6339, 42.4067] }},
{"zip_code":"1466","country":"US","city":"Ashburnham","state":"Massachusetts","state_ab":"MA","county":"Middlesex County","geo_location":{ "type": "Point", "coordinates": [-71.9295, 42.6116] }},
{"zip_code":"1749","country":"US","city":"Hudson","state":"Massachusetts","state_ab":"MA","county":"Middlesex","geo_location":{ "type": "Point", "coordinates": [-71.5609, 42.3918] }},
{"zip_code":"1776","country":"US","city":"Sudbury","state":"Massachusetts","state_ab":"MA","county":"Middlesex","geo_location":{ "type": "Point", "coordinates": [-71.4282, 42.3837] }},
{"zip_code":"1813","country":"US","city":"Woburn","state":"Massachusetts","state_ab":"MA","county":"Middlesex","geo_location":{ "type": "Point", "coordinates": [-71.4594, 42.4464] }},
{"zip_code":"1826","country":"US","city":"Dracut","state":"Massachusetts","state_ab":"MA","county":"Middlesex","geo_location":{ "type": "Point", "coordinates": [-71.3186, 42.6764] }},
{"zip_code":"1853","country":"US","city":"Lowell","state":"Massachusetts","state_ab":"MA","county":"Middlesex","geo_location":{ "type": "Point", "coordinates": [-71.4594, 42.4464] }},
{"zip_code":"1866","country":"US","city":"Pinehurst","state":"Massachusetts","state_ab":"MA","county":"Middlesex","geo_location":{ "type": "Point", "coordinates": [-71.4594, 42.4464] }},
{"zip_code":"1879","country":"US","city":"Tyngsboro","state":"Massachusetts","state_ab":"MA","county":"Middlesex","geo_location":{ "type": "Point", "coordinates": [-71.4158, 42.6724] }},
{"zip_code":"1880","country":"US","city":"Wakefield","state":"Massachusetts","state_ab":"MA","county":"Middlesex","geo_location":{ "type": "Point", "coordinates": [-71.0685, 42.5009] }},
{"zip_code":"2159","country":"US","city":"Newton","state":"Massachusetts","state_ab":"MA","county":"Middlesex","geo_location":{ "type": "Point", "coordinates": [-71.1912, 42.3161] }},
{"zip_code":"2160","country":"US","city":"Newton","state":"Massachusetts","state_ab":"MA","county":"Middlesex","geo_location":{ "type": "Point", "coordinates": [-71.4594, 42.4464] }},
{"zip_code":"2173","country":"US","city":"Lexington","state":"Massachusetts","state_ab":"MA","county":"Middlesex","geo_location":{ "type": "Point", "coordinates": [-71.4594, 42.4464] }},
{"zip_code":"2456","country":"US","city":"New Town","state":"Massachusetts","state_ab":"MA","county":"Middlesex","geo_location":{ "type": "Point", "coordinates": [-71.4594, 42.4464] }},
{"zip_code":"2030","country":"US","city":"Dover","state":"Massachusetts","state_ab":"MA","county":"Norfolk","geo_location":{ "type": "Point", "coordinates": [-71.2854, 42.2362] }},
{"zip_code":"2056","country":"US","city":"Norfolk","state":"Massachusetts","state_ab":"MA","county":"Norfolk","geo_location":{ "type": "Point", "coordinates": [-71.3269, 42.1177] }},
{"zip_code":"2070","country":"US","city":"Sheldonville","state":"Massachusetts","state_ab":"MA","county":"Norfolk","geo_location":{ "type": "Point", "coordinates": [-71.0892, 42.18] }},
{"zip_code":"2146","country":"US","city":"Brookline","state":"Massachusetts","state_ab":"MA","county":"Norfolk","geo_location":{ "type": "Point", "coordinates": [-71.0887, 42.3082] }},
{"zip_code":"2186","country":"US","city":"Milton","state":"Massachusetts","state_ab":"MA","county":"Norfolk","geo_location":{ "type": "Point", "coordinates": [-71.0771, 42.2537] }},
{"zip_code":"2043","country":"US","city":"Hingham","state":"Massachusetts","state_ab":"MA","county":"Plymouth","geo_location":{ "type": "Point", "coordinates": [-70.8911, 42.2245] }},
{"zip_code":"2339","country":"US","city":"Hanover","state":"Massachusetts","state_ab":"MA","county":"Plymouth","geo_location":{ "type": "Point", "coordinates": [-70.857, 42.1214] }},
{"zip_code":"2340","country":"US","city":"Hanover","state":"Massachusetts","state_ab":"MA","county":"Plymouth County","geo_location":{ "type": "Point", "coordinates": [-70.8161, 42.1137] }},
{"zip_code":"2366","country":"US","city":"South Carver","state":"Massachusetts","state_ab":"MA","county":"Plymouth","geo_location":{ "type": "Point", "coordinates": [-70.7044, 41.8501] }},
{"zip_code":"2379","country":"US","city":"West Bridgewater","state":"Massachusetts","state_ab":"MA","county":"Plymouth","geo_location":{ "type": "Point", "coordinates": [-71.0161, 42.0255] }},
{"zip_code":"2403","country":"US","city":"Brockton","state":"Massachusetts","state_ab":"MA","county":"Plymouth","geo_location":{ "type": "Point", "coordinates": [-70.7014, 41.9705] }},
{"zip_code":"2739","country":"US","city":"Mattapoisett","state":"Massachusetts","state_ab":"MA","county":"Plymouth","geo_location":{ "type": "Point", "coordinates": [-70.8164, 41.6618] }},
{"zip_code":"2106","country":"US","city":"Boston","state":"Massachusetts","state_ab":"MA","county":"Suffolk","geo_location":{ "type": "Point", "coordinates": [-71.0734, 42.3543] }},
{"zip_code":"16226","country":"US","city":"Ford City","state":"Pennsylvania","state_ab":"PA","county":"Armstrong","geo_location":{ "type": "Point", "coordinates": [-79.5122, 40.7384] }},
{"zip_code":"16253","country":"US","city":"Seminole","state":"Pennsylvania","state_ab":"PA","county":"Armstrong","geo_location":{ "type": "Point", "coordinates": [-79.4516, 40.8478] }},
{"zip_code":"15003","country":"US","city":"Ambridge","state":"Pennsylvania","state_ab":"PA","county":"Beaver","geo_location":{ "type": "Point", "coordinates": [-80.2105, 40.6005] }},
{"zip_code":"15043","country":"US","city":"Georgetown","state":"Pennsylvania","state_ab":"PA","county":"Beaver","geo_location":{ "type": "Point", "coordinates": [-80.49, 40.5743] }},
{"zip_code":"16123","country":"US","city":"Fombell","state":"Pennsylvania","state_ab":"PA","county":"Beaver","geo_location":{ "type": "Point", "coordinates": [-80.2073, 40.8125] }},
{"zip_code":"16136","country":"US","city":"Koppel","state":"Pennsylvania","state_ab":"PA","county":"Beaver","geo_location":{ "type": "Point", "coordinates": [-80.328, 40.8348] }},
{"zip_code":"15533","country":"US","city":"Breezewood","state":"Pennsylvania","state_ab":"PA","county":"Bedford","geo_location":{ "type": "Point", "coordinates": [-78.2453, 39.9905] }},
{"zip_code":"15559","country":"US","city":"Schellsburg","state":"Pennsylvania","state_ab":"PA","county":"Bedford","geo_location":{ "type": "Point", "coordinates": [-78.6482, 40.0487] }},
{"zip_code":"16679","country":"US","city":"Six Mile Run","state":"Pennsylvania","state_ab":"PA","county":"Bedford","geo_location":{ "type": "Point", "coordinates": [-78.2108, 40.1576] }},
{"zip_code":"19506","country":"US","city":"Bernville","state":"Pennsylvania","state_ab":"PA","county":"Berks","geo_location":{ "type": "Point", "coordinates": [-76.1247, 40.4551] }},
{"zip_code":"19519","country":"US","city":"Earlville","state":"Pennsylvania","state_ab":"PA","county":"Berks","geo_location":{ "type": "Point", "coordinates": [-75.7334, 40.319] }},
{"zip_code":"19533","country":"US","city":"Leesport","state":"Pennsylvania","state_ab":"PA","county":"Berks","geo_location":{ "type": "Point", "coordinates": [-75.9944, 40.4152] }},
{"zip_code":"19559","country":"US","city":"Strausstown","state":"Pennsylvania","state_ab":"PA","county":"Berks","geo_location":{ "type": "Point", "coordinates": [-76.1825, 40.4945] }},
{"zip_code":"19560","country":"US","city":"Temple","state":"Pennsylvania","state_ab":"PA","county":"Berks","geo_location":{ "type": "Point", "coordinates": [-75.9046, 40.4025] }},
{"zip_code":"19609","country":"US","city":"Reading","state":"Pennsylvania","state_ab":"PA","county":"Berks","geo_location":{ "type": "Point", "coordinates": [-75.9908, 40.328] }},
{"zip_code":"19610","country":"US","city":"Reading","state":"Pennsylvania","state_ab":"PA","county":"Berks","geo_location":{ "type": "Point", "coordinates": [-75.978, 40.338] }},
{"zip_code":"16693","country":"US","city":"Williamsburg","state":"Pennsylvania","state_ab":"PA","county":"Blair","geo_location":{ "type": "Point", "coordinates": [-78.2558, 40.4025] }},
{"zip_code":"16910","country":"US","city":"Alba","state":"Pennsylvania","state_ab":"PA","county":"Bradford","geo_location":{ "type": "Point", "coordinates": [-76.5213, 41.772] }},
{"zip_code":"18840","country":"US","city":"Sayre","state":"Pennsylvania","state_ab":"PA","county":"Bradford","geo_location":{ "type": "Point", "coordinates": [-76.5218, 41.9842] }},
{"zip_code":"18853","country":"US","city":"Wyalusing","state":"Pennsylvania","state_ab":"PA","county":"Bradford","geo_location":{ "type": "Point", "coordinates": [-76.2754, 41.7015] }},
{"zip_code":"18039","country":"US","city":"Durham","state":"Pennsylvania","state_ab":"PA","county":"Bucks","geo_location":{ "type": "Point", "coordinates": [-75.1028, 40.3286] }},
{"zip_code":"18916","country":"US","city":"Danboro","state":"Pennsylvania","state_ab":"PA","county":"Bucks","geo_location":{ "type": "Point", "coordinates": [-75.1028, 40.3286] }},
{"zip_code":"18929","country":"US","city":"Jamison","state":"Pennsylvania","state_ab":"PA","county":"Bucks","geo_location":{ "type": "Point", "coordinates": [-75.0961, 40.2566] }},
{"zip_code":"18930","country":"US","city":"Kintnersville","state":"Pennsylvania","state_ab":"PA","county":"Bucks","geo_location":{ "type": "Point", "coordinates": [-75.2117, 40.531] }},
{"zip_code":"18943","country":"US","city":"Penns Park","state":"Pennsylvania","state_ab":"PA","county":"Bucks","geo_location":{ "type": "Point", "coordinates": [-75.0094, 40.269] }},
{"zip_code":"18956","country":"US","city":"Rushland","state":"Pennsylvania","state_ab":"PA","county":"Bucks","geo_location":{ "type": "Point", "coordinates": [-75.0157, 40.2628] }},
{"zip_code":"18970","country":"US","city":"Trumbauersville","state":"Pennsylvania","state_ab":"PA","county":"Bucks","geo_location":{ "type": "Point", "coordinates": [-75.1028, 40.3286] }},
{"zip_code":"19030","country":"US","city":"Fairless Hills","state":"Pennsylvania","state_ab":"PA","county":"Bucks","geo_location":{ "type": "Point", "coordinates": [-74.8519, 40.1748] }},
{"zip_code":"19056","country":"US","city":"Levittown","state":"Pennsylvania","state_ab":"PA","county":"Bucks","geo_location":{ "type": "Point", "coordinates": [-74.8826, 40.1519] }},
{"zip_code":"16020","country":"US","city":"Boyers","state":"Pennsylvania","state_ab":"PA","county":"Butler","geo_location":{ "type": "Point", "coordinates": [-79.9047, 41.1092] }},
{"zip_code":"16033","country":"US","city":"Evans City","state":"Pennsylvania","state_ab":"PA","county":"Butler","geo_location":{ "type": "Point", "coordinates": [-80.0592, 40.7808] }},
{"zip_code":"16046","country":"US","city":"Mars","state":"Pennsylvania","state_ab":"PA","county":"Butler","geo_location":{ "type": "Point", "coordinates": [-80.0358, 40.7005] }},
{"zip_code":"16059","country":"US","city":"Valencia","state":"Pennsylvania","state_ab":"PA","county":"Butler","geo_location":{ "type": "Point", "coordinates": [-79.9235, 40.7018] }},
{"zip_code":"15906","country":"US","city":"Johnstown","state":"Pennsylvania","state_ab":"PA","county":"Cambria","geo_location":{ "type": "Point", "coordinates": [-78.9383, 40.3522] }},
{"zip_code":"15946","country":"US","city":"Portage","state":"Pennsylvania","state_ab":"PA","county":"Cambria","geo_location":{ "type": "Point", "coordinates": [-78.6328, 40.3724] }},
{"zip_code":"15960","country":"US","city":"Twin Rocks","state":"Pennsylvania","state_ab":"PA","county":"Cambria","geo_location":{ "type": "Point", "coordinates": [-78.8613, 40.4996] }},
{"zip_code":"16613","country":"US","city":"Ashville","state":"Pennsylvania","state_ab":"PA","county":"Cambria","geo_location":{ "type": "Point", "coordinates": [-78.5346, 40.5513] }},
{"zip_code":"16639","country":"US","city":"Fallentimber","state":"Pennsylvania","state_ab":"PA","county":"Cambria","geo_location":{ "type": "Point", "coordinates": [-78.4659, 40.6719] }},
{"zip_code":"16640","country":"US","city":"Flinton","state":"Pennsylvania","state_ab":"PA","county":"Cambria","geo_location":{ "type": "Point", "coordinates": [-78.5523, 40.6876] }},
{"zip_code":"16820","country":"US","city":"Aaronsburg","state":"Pennsylvania","state_ab":"PA","county":"Centre","geo_location":{ "type": "Point", "coordinates": [-77.4562, 40.8987] }},
{"zip_code":"16859","country":"US","city":"Moshannon","state":"Pennsylvania","state_ab":"PA","county":"Centre","geo_location":{ "type": "Point", "coordinates": [-78.0095, 41.0342] }},
{"zip_code":"19353","country":"US","city":"Lionville","state":"Pennsylvania","state_ab":"PA","county":"Chester","geo_location":{ "type": "Point", "coordinates": [-75.499, 40.0132] }},
{"zip_code":"19366","country":"US","city":"Pocopson","state":"Pennsylvania","state_ab":"PA","county":"Chester","geo_location":{ "type": "Point", "coordinates": [-75.7481, 39.9832] }},
{"zip_code":"19380","country":"US","city":"West Chester","state":"Pennsylvania","state_ab":"PA","county":"Chester","geo_location":{ "type": "Point", "coordinates": [-75.5962, 39.9845] }},
{"zip_code":"19470","country":"US","city":"Saint Peters","state":"Pennsylvania","state_ab":"PA","county":"Chester","geo_location":{ "type": "Point", "coordinates": [-75.7288, 40.1867] }},
{"zip_code":"19496","country":"US","city":"Valley Forge","state":"Pennsylvania","state_ab":"PA","county":"Chester","geo_location":{ "type": "Point", "coordinates": [-75.7481, 39.9832] }},
{"zip_code":"19520","country":"US","city":"Elverson","state":"Pennsylvania","state_ab":"PA","county":"Chester","geo_location":{ "type": "Point", "coordinates": [-75.7866, 40.1568] }},
{"zip_code":"16213","country":"US","city":"Callensburg","state":"Pennsylvania","state_ab":"PA","county":"Clarion","geo_location":{ "type": "Point", "coordinates": [-79.5685, 41.1236] }},
{"zip_code":"16240","country":"US","city":"Mayport","state":"Pennsylvania","state_ab":"PA","county":"Clarion","geo_location":{ "type": "Point", "coordinates": [-79.2617, 40.9906] }},
{"zip_code":"15753","country":"US","city":"La Jose","state":"Pennsylvania","state_ab":"PA","county":"Clearfield","geo_location":{ "type": "Point", "coordinates": [-78.6514, 40.7876] }},
{"zip_code":"15856","country":"US","city":"Rockton","state":"Pennsylvania","state_ab":"PA","county":"Clearfield","geo_location":{ "type": "Point", "coordinates": [-78.6577, 41.0806] }},
{"zip_code":"16666","country":"US","city":"Osceola Mills","state":"Pennsylvania","state_ab":"PA","county":"Clearfield","geo_location":{ "type": "Point", "coordinates": [-78.2757, 40.8722] }},
{"zip_code":"16680","country":"US","city":"Smithmill","state":"Pennsylvania","state_ab":"PA","county":"Clearfield","geo_location":{ "type": "Point", "coordinates": [-78.4012, 40.7507] }},
{"zip_code":"16833","country":"US","city":"Curwensville","state":"Pennsylvania","state_ab":"PA","county":"Clearfield","geo_location":{ "type": "Point", "coordinates": [-78.5272, 40.966] }},
{"zip_code":"16860","country":"US","city":"Munson","state":"Pennsylvania","state_ab":"PA","county":"Clearfield","geo_location":{ "type": "Point", "coordinates": [-78.1718, 40.9468] }},
{"zip_code":"16873","country":"US","city":"Shawville","state":"Pennsylvania","state_ab":"PA","county":"Clearfield","geo_location":{ "type": "Point", "coordinates": [-78.4224, 40.9891] }},
{"zip_code":"17760","country":"US","city":"North Bend","state":"Pennsylvania","state_ab":"PA","county":"Clinton","geo_location":{ "type": "Point", "coordinates": [-77.6641, 41.4083] }},
{"zip_code":"17773","country":"US","city":"Tylersville","state":"Pennsylvania","state_ab":"PA","county":"Clinton","geo_location":{ "type": "Point", "coordinates": [-77.6185, 41.2206] }},
{"zip_code":"16110","country":"US","city":"Adamsville","state":"Pennsylvania","state_ab":"PA","county":"Crawford","geo_location":{ "type": "Point", "coordinates": [-80.3765, 41.5067] }},
{"zip_code":"16316","country":"US","city":"Conneaut Lake","state":"Pennsylvania","state_ab":"PA","county":"Crawford","geo_location":{ "type": "Point", "coordinates": [-80.3086, 41.6189] }},
{"zip_code":"16406","country":"US","city":"Conneautville","state":"Pennsylvania","state_ab":"PA","county":"Crawford","geo_location":{ "type": "Point", "coordinates": [-80.3445, 41.7455] }},
{"zip_code":"16433","country":"US","city":"Saegertown","state":"Pennsylvania","state_ab":"PA","county":"Crawford","geo_location":{ "type": "Point", "coordinates": [-80.1479, 41.7268] }},
{"zip_code":"17050","country":"US","city":"Mechanicsburg","state":"Pennsylvania","state_ab":"PA","county":"Cumberland","geo_location":{ "type": "Point", "coordinates": [-77.0265, 40.2122] }},
{"zip_code":"17089","country":"US","city":"Camp Hill","state":"Pennsylvania","state_ab":"PA","county":"Cumberland","geo_location":{ "type": "Point", "coordinates": [-76.936, 40.2697] }},
{"zip_code":"17023","country":"US","city":"Elizabethville","state":"Pennsylvania","state_ab":"PA","county":"Dauphin","geo_location":{ "type": "Point", "coordinates": [-76.8355, 40.555] }},
{"zip_code":"17036","country":"US","city":"Hummelstown","state":"Pennsylvania","state_ab":"PA","county":"Dauphin","geo_location":{ "type": "Point", "coordinates": [-76.7094, 40.2782] }},
{"zip_code":"17113","country":"US","city":"Harrisburg","state":"Pennsylvania","state_ab":"PA","county":"Dauphin","geo_location":{ "type": "Point", "coordinates": [-76.8416, 40.239] }},
{"zip_code":"17126","country":"US","city":"Harrisburg","state":"Pennsylvania","state_ab":"PA","county":"Dauphin","geo_location":{ "type": "Point", "coordinates": [-76.88, 40.2618] }},
{"zip_code":"17140","country":"US","city":"Harrisburg","state":"Pennsylvania","state_ab":"PA","county":"Dauphin","geo_location":{ "type": "Point", "coordinates": [-76.8464, 40.3086] }},
{"zip_code":"19003","country":"US","city":"Ardmore","state":"Pennsylvania","state_ab":"PA","county":"Delaware","geo_location":{ "type": "Point", "coordinates": [-75.2966, 40.002] }},
{"zip_code":"19016","country":"US","city":"Chester","state":"Pennsylvania","state_ab":"PA","county":"Delaware","geo_location":{ "type": "Point", "coordinates": [-75.406, 39.934] }},
{"zip_code":"19029","country":"US","city":"Essington","state":"Pennsylvania","state_ab":"PA","county":"Delaware","geo_location":{ "type": "Point", "coordinates": [-75.2859, 39.8676] }},
{"zip_code":"19043","country":"US","city":"Holmes","state":"Pennsylvania","state_ab":"PA","county":"Delaware","geo_location":{ "type": "Point", "coordinates": [-75.3087, 39.9003] }},
{"zip_code":"19070","country":"US","city":"Morton","state":"Pennsylvania","state_ab":"PA","county":"Delaware","geo_location":{ "type": "Point", "coordinates": [-75.3238, 39.9063] }},
{"zip_code":"19083","country":"US","city":"Havertown","state":"Pennsylvania","state_ab":"PA","county":"Delaware","geo_location":{ "type": "Point", "coordinates": [-75.3106, 39.9774] }},
{"zip_code":"19339","country":"US","city":"Concordville","state":"Pennsylvania","state_ab":"PA","county":"Delaware","geo_location":{ "type": "Point", "coordinates": [-75.406, 39.934] }},
{"zip_code":"19340","country":"US","city":"Concordville","state":"Pennsylvania","state_ab":"PA","county":"Delaware","geo_location":{ "type": "Point", "coordinates": [-75.406, 39.934] }},
{"zip_code":"15870","country":"US","city":"Wilcox","state":"Pennsylvania","state_ab":"PA","county":"Elk","geo_location":{ "type": "Point", "coordinates": [-78.6823, 41.5735] }},
{"zip_code":"16509","country":"US","city":"Erie","state":"Pennsylvania","state_ab":"PA","county":"Erie","geo_location":{ "type": "Point", "coordinates": [-80.0668, 42.0763] }},
{"zip_code":"16510","country":"US","city":"Erie","state":"Pennsylvania","state_ab":"PA","county":"Erie","geo_location":{ "type": "Point", "coordinates": [-79.9535, 42.1087] }},
{"zip_code":"16550","country":"US","city":"Erie","state":"Pennsylvania","state_ab":"PA","county":"Erie","geo_location":{ "type": "Point", "coordinates": [-80.0649, 42.1827] }},
{"zip_code":"16563","country":"US","city":"Erie","state":"Pennsylvania","state_ab":"PA","county":"Erie","geo_location":{ "type": "Point", "coordinates": [-79.9865, 42.1192] }},
{"zip_code":"15416","country":"US","city":"Brownfield","state":"Pennsylvania","state_ab":"PA","county":"Fayette","geo_location":{ "type": "Point", "coordinates": [-79.6522, 39.9321] }},
{"zip_code":"15430","country":"US","city":"Dickerson Run","state":"Pennsylvania","state_ab":"PA","county":"Fayette","geo_location":{ "type": "Point", "coordinates": [-79.66, 40.0418] }},
{"zip_code":"15443","country":"US","city":"Hibbs","state":"Pennsylvania","state_ab":"PA","county":"Fayette","geo_location":{ "type": "Point", "coordinates": [-79.9013, 39.9263] }},
{"zip_code":"15456","country":"US","city":"Lemont Furnace","state":"Pennsylvania","state_ab":"PA","county":"Fayette","geo_location":{ "type": "Point", "coordinates": [-79.6477, 39.9311] }},
{"zip_code":"15469","country":"US","city":"Normalville","state":"Pennsylvania","state_ab":"PA","county":"Fayette","geo_location":{ "type": "Point", "coordinates": [-79.4151, 40.0418] }},
{"zip_code":"15470","country":"US","city":"Ohiopyle","state":"Pennsylvania","state_ab":"PA","county":"Fayette","geo_location":{ "type": "Point", "coordinates": [-79.523, 39.8507] }},
{"zip_code":"16239","country":"US","city":"Marienville","state":"Pennsylvania","state_ab":"PA","county":"Forest","geo_location":{ "type": "Point", "coordinates": [-79.1306, 41.4622] }},
{"zip_code":"16370","country":"US","city":"West Hickory","state":"Pennsylvania","state_ab":"PA","county":"Forest","geo_location":{ "type": "Point", "coordinates": [-79.2391, 41.4759] }},
{"zip_code":"17256","country":"US","city":"Shady Grove","state":"Pennsylvania","state_ab":"PA","county":"Franklin","geo_location":{ "type": "Point", "coordinates": [-77.6749, 39.7834] }},
{"zip_code":"17270","country":"US","city":"Williamson","state":"Pennsylvania","state_ab":"PA","county":"Franklin","geo_location":{ "type": "Point", "coordinates": [-77.7997, 39.854] }},
{"zip_code":"17229","country":"US","city":"Hustontown","state":"Pennsylvania","state_ab":"PA","county":"Fulton","geo_location":{ "type": "Point", "coordinates": [-78.0148, 40.0441] }},
{"zip_code":"15353","country":"US","city":"Nineveh","state":"Pennsylvania","state_ab":"PA","county":"Greene","geo_location":{ "type": "Point", "coordinates": [-80.2113, 39.8706] }},
{"zip_code":"15380","country":"US","city":"Wind Ridge","state":"Pennsylvania","state_ab":"PA","county":"Greene","geo_location":{ "type": "Point", "coordinates": [-80.4647, 39.8971] }},
{"zip_code":"17243","country":"US","city":"Orbisonia","state":"Pennsylvania","state_ab":"PA","county":"Huntingdon","geo_location":{ "type": "Point", "coordinates": [-77.9069, 40.2389] }},
{"zip_code":"15713","country":"US","city":"Aultman","state":"Pennsylvania","state_ab":"PA","county":"Indiana","geo_location":{ "type": "Point", "coordinates": [-79.2617, 40.5698] }},
{"zip_code":"15739","country":"US","city":"Ernest","state":"Pennsylvania","state_ab":"PA","county":"Indiana","geo_location":{ "type": "Point", "coordinates": [-79.1657, 40.678] }},
{"zip_code":"15920","country":"US","city":"Armagh","state":"Pennsylvania","state_ab":"PA","county":"Indiana","geo_location":{ "type": "Point", "coordinates": [-79.0097, 40.4603] }},
{"zip_code":"15740","country":"US","city":"Frostburg","state":"Pennsylvania","state_ab":"PA","county":"Jefferson","geo_location":{ "type": "Point", "coordinates": [-78.9629, 41.1411] }},
{"zip_code":"15780","country":"US","city":"Valier","state":"Pennsylvania","state_ab":"PA","county":"Jefferson","geo_location":{ "type": "Point", "coordinates": [-79.0568, 40.9161] }},
{"zip_code":"15829","country":"US","city":"Corsica","state":"Pennsylvania","state_ab":"PA","county":"Jefferson","geo_location":{ "type": "Point", "coordinates": [-79.1976, 41.1762] }},
{"zip_code":"17049","country":"US","city":"Mc Alisterville","state":"Pennsylvania","state_ab":"PA","county":"Juniata","geo_location":{ "type": "Point", "coordinates": [-77.2602, 40.6469] }},
{"zip_code":"17076","country":"US","city":"Oakland Mills","state":"Pennsylvania","state_ab":"PA","county":"Juniata","geo_location":{ "type": "Point", "coordinates": [-77.3192, 40.6147] }},
{"zip_code":"18440","country":"US","city":"La Plume","state":"Pennsylvania","state_ab":"PA","county":"Lackawanna","geo_location":{ "type": "Point", "coordinates": [-75.7676, 41.5516] }},
{"zip_code":"18503","country":"US","city":"Scranton","state":"Pennsylvania","state_ab":"PA","county":"Lackawanna","geo_location":{ "type": "Point", "coordinates": [-75.6642, 41.4095] }},
{"zip_code":"17540","country":"US","city":"Leola","state":"Pennsylvania","state_ab":"PA","county":"Lancaster","geo_location":{ "type": "Point", "coordinates": [-76.1921, 40.0964] }},
{"zip_code":"17566","country":"US","city":"Quarryville","state":"Pennsylvania","state_ab":"PA","county":"Lancaster","geo_location":{ "type": "Point", "coordinates": [-76.1465, 39.8949] }},
{"zip_code":"17579","country":"US","city":"Strasburg","state":"Pennsylvania","state_ab":"PA","county":"Lancaster","geo_location":{ "type": "Point", "coordinates": [-76.1848, 39.9701] }},
{"zip_code":"17580","country":"US","city":"Talmage","state":"Pennsylvania","state_ab":"PA","county":"Lancaster","geo_location":{ "type": "Point", "coordinates": [-76.2131, 40.1168] }},
{"zip_code":"17603","country":"US","city":"Lancaster","state":"Pennsylvania","state_ab":"PA","county":"Lancaster","geo_location":{ "type": "Point", "coordinates": [-76.3671, 40.0091] }},
{"zip_code":"17010","country":"US","city":"Campbelltown","state":"Pennsylvania","state_ab":"PA","county":"Lebanon","geo_location":{ "type": "Point", "coordinates": [-76.582, 40.2712] }},
{"zip_code":"18053","country":"US","city":"Germansville","state":"Pennsylvania","state_ab":"PA","county":"Lehigh","geo_location":{ "type": "Point", "coordinates": [-75.7147, 40.7118] }},
{"zip_code":"18066","country":"US","city":"New Tripoli","state":"Pennsylvania","state_ab":"PA","county":"Lehigh","geo_location":{ "type": "Point", "coordinates": [-75.7417, 40.6545] }},
{"zip_code":"18079","country":"US","city":"Slatedale","state":"Pennsylvania","state_ab":"PA","county":"Lehigh","geo_location":{ "type": "Point", "coordinates": [-75.6592, 40.7455] }},
{"zip_code":"18080","country":"US","city":"Slatington","state":"Pennsylvania","state_ab":"PA","county":"Lehigh","geo_location":{ "type": "Point", "coordinates": [-75.6186, 40.7345] }},
{"zip_code":"18103","country":"US","city":"Allentown","state":"Pennsylvania","state_ab":"PA","county":"Lehigh","geo_location":{ "type": "Point", "coordinates": [-75.4645, 40.5891] }},
{"zip_code":"18219","country":"US","city":"Conyngham","state":"Pennsylvania","state_ab":"PA","county":"Luzerne","geo_location":{ "type": "Point", "coordinates": [-76.0564, 40.9907] }},
{"zip_code":"18246","country":"US","city":"Rock Glen","state":"Pennsylvania","state_ab":"PA","county":"Luzerne","geo_location":{ "type": "Point", "coordinates": [-76.1747, 40.954] }},
{"zip_code":"18660","country":"US","city":"Wapwallopen","state":"Pennsylvania","state_ab":"PA","county":"Luzerne","geo_location":{ "type": "Point", "coordinates": [-76.0857, 41.068] }},
{"zip_code":"18709","country":"US","city":"Luzerne","state":"Pennsylvania","state_ab":"PA","county":"Luzerne","geo_location":{ "type": "Point", "coordinates": [-75.8935, 41.2843] }},
{"zip_code":"18710","country":"US","city":"Wilkes Barre","state":"Pennsylvania","state_ab":"PA","county":"Luzerne","geo_location":{ "type": "Point", "coordinates": [-75.8801, 41.2722] }},
{"zip_code":"18763","country":"US","city":"Wilkes Barre","state":"Pennsylvania","state_ab":"PA","county":"Luzerne","geo_location":{ "type": "Point", "coordinates": [-75.8801, 41.2722] }},
{"zip_code":"17720","country":"US","city":"Antes Fort","state":"Pennsylvania","state_ab":"PA","county":"Lycoming","geo_location":{ "type": "Point", "coordinates": [-77.2184, 41.1865] }},
{"zip_code":"17759","country":"US","city":"Nisbet","state":"Pennsylvania","state_ab":"PA","county":"Lycoming","geo_location":{ "type": "Point", "coordinates": [-77.1214, 41.2183] }},
{"zip_code":"16729","country":"US","city":"Duke Center","state":"Pennsylvania","state_ab":"PA","county":"McKean","geo_location":{ "type": "Point", "coordinates": [-78.4923, 41.954] }},
{"zip_code":"16730","country":"US","city":"East Smethport","state":"Pennsylvania","state_ab":"PA","county":"McKean","geo_location":{ "type": "Point", "coordinates": [-78.5797, 41.8011] }},
{"zip_code":"16743","country":"US","city":"Port Allegany","state":"Pennsylvania","state_ab":"PA","county":"McKean","geo_location":{ "type": "Point", "coordinates": [-78.2799, 41.8169] }},
{"zip_code":"16150","country":"US","city":"Sharpsville","state":"Pennsylvania","state_ab":"PA","county":"Mercer","geo_location":{ "type": "Point", "coordinates": [-80.4656, 41.2676] }},
{"zip_code":"17009","country":"US","city":"Burnham","state":"Pennsylvania","state_ab":"PA","county":"Mifflin","geo_location":{ "type": "Point", "coordinates": [-77.5625, 40.6361] }},
{"zip_code":"17063","country":"US","city":"Milroy","state":"Pennsylvania","state_ab":"PA","county":"Mifflin","geo_location":{ "type": "Point", "coordinates": [-77.5567, 40.7203] }},
{"zip_code":"18323","country":"US","city":"Buck Hill Falls","state":"Pennsylvania","state_ab":"PA","county":"Monroe","geo_location":{ "type": "Point", "coordinates": [-75.308, 41.0338] }},
{"zip_code":"18349","country":"US","city":"Pocono Manor","state":"Pennsylvania","state_ab":"PA","county":"Monroe","geo_location":{ "type": "Point", "coordinates": [-75.4588, 41.1226] }},
{"zip_code":"18350","country":"US","city":"Pocono Pines","state":"Pennsylvania","state_ab":"PA","county":"Monroe","geo_location":{ "type": "Point", "coordinates": [-75.476, 41.1054] }},
{"zip_code":"18466","country":"US","city":"Tobyhanna","state":"Pennsylvania","state_ab":"PA","county":"Monroe","geo_location":{ "type": "Point", "coordinates": [-75.3918, 41.1836] }},
{"zip_code":"18969","country":"US","city":"Telford","state":"Pennsylvania","state_ab":"PA","county":"Montgomery","geo_location":{ "type": "Point", "coordinates": [-75.352, 40.3205] }},
{"zip_code":"19096","country":"US","city":"Wynnewood","state":"Pennsylvania","state_ab":"PA","county":"Montgomery","geo_location":{ "type": "Point", "coordinates": [-75.276, 40.0] }},
{"zip_code":"19403","country":"US","city":"Norristown","state":"Pennsylvania","state_ab":"PA","county":"Montgomery","geo_location":{ "type": "Point", "coordinates": [-75.3796, 40.1496] }},
{"zip_code":"19429","country":"US","city":"Conshohocken","state":"Pennsylvania","state_ab":"PA","county":"Montgomery","geo_location":{ "type": "Point", "coordinates": [-75.3559, 40.2119] }},
{"zip_code":"19430","country":"US","city":"Creamery","state":"Pennsylvania","state_ab":"PA","county":"Montgomery","geo_location":{ "type": "Point", "coordinates": [-75.42, 40.1851] }},
{"zip_code":"19443","country":"US","city":"Kulpsville","state":"Pennsylvania","state_ab":"PA","county":"Montgomery","geo_location":{ "type": "Point", "coordinates": [-75.3439, 40.241] }},
{"zip_code":"19456","country":"US","city":"Oaks","state":"Pennsylvania","state_ab":"PA","county":"Montgomery","geo_location":{ "type": "Point", "coordinates": [-75.4536, 40.1334] }},
{"zip_code":"19483","country":"US","city":"Valley Forge","state":"Pennsylvania","state_ab":"PA","county":"Montgomery","geo_location":{ "type": "Point", "coordinates": [-75.3559, 40.2119] }},
{"zip_code":"18013","country":"US","city":"Bangor","state":"Pennsylvania","state_ab":"PA","county":"Northampton","geo_location":{ "type": "Point", "coordinates": [-75.1718, 40.853] }},
{"zip_code":"18040","country":"US","city":"Easton","state":"Pennsylvania","state_ab":"PA","county":"Northampton","geo_location":{ "type": "Point", "coordinates": [-75.2217, 40.7449] }},
{"zip_code":"17823","country":"US","city":"Dornsife","state":"Pennsylvania","state_ab":"PA","county":"Northumberland","geo_location":{ "type": "Point", "coordinates": [-76.7626, 40.7571] }},
{"zip_code":"17836","country":"US","city":"Leck Kill","state":"Pennsylvania","state_ab":"PA","county":"Northumberland","geo_location":{ "type": "Point", "coordinates": [-76.6271, 40.7101] }},
{"zip_code":"17850","country":"US","city":"Montandon","state":"Pennsylvania","state_ab":"PA","county":"Northumberland","geo_location":{ "type": "Point", "coordinates": [-76.8575, 40.9661] }},
{"zip_code":"17939","country":"US","city":"Helfenstein","state":"Pennsylvania","state_ab":"PA","county":"Northumberland County","geo_location":{ "type": "Point", "coordinates": [-76.4536, 40.7492] }},
{"zip_code":"17090","country":"US","city":"Shermans Dale","state":"Pennsylvania","state_ab":"PA","county":"Perry","geo_location":{ "type": "Point", "coordinates": [-77.1809, 40.3299] }},
{"zip_code":"19106","country":"US","city":"Philadelphia","state":"Pennsylvania","state_ab":"PA","county":"Philadelphia","geo_location":{ "type": "Point", "coordinates": [-75.1473, 39.9474] }},
{"zip_code":"19119","country":"US","city":"Philadelphia","state":"Pennsylvania","state_ab":"PA","county":"Philadelphia","geo_location":{ "type": "Point", "coordinates": [-75.1866, 40.0547] }},
{"zip_code":"19120","country":"US","city":"Philadelphia","state":"Pennsylvania","state_ab":"PA","county":"Philadelphia","geo_location":{ "type": "Point", "coordinates": [-75.1213, 40.0343] }},
{"zip_code":"19133","country":"US","city":"Philadelphia","state":"Pennsylvania","state_ab":"PA","county":"Philadelphia","geo_location":{ "type": "Point", "coordinates": [-75.1415, 39.9925] }},
{"zip_code":"19146","country":"US","city":"Philadelphia","state":"Pennsylvania","state_ab":"PA","county":"Philadelphia","geo_location":{ "type": "Point", "coordinates": [-75.1794, 39.9379] }},
{"zip_code":"19160","country":"US","city":"Philadelphia","state":"Pennsylvania","state_ab":"PA","county":"Philadelphia","geo_location":{ "type": "Point", "coordinates": [-75.1179, 40.0018] }},
{"zip_code":"19173","country":"US","city":"Philadelphia","state":"Pennsylvania","state_ab":"PA","county":"Philadelphia","geo_location":{ "type": "Point", "coordinates": [-75.1179, 40.0018] }},
{"zip_code":"18336","country":"US","city":"Matamoras","state":"Pennsylvania","state_ab":"PA","county":"Pike","geo_location":{ "type": "Point", "coordinates": [-74.7154, 41.3674] }},
{"zip_code":"18426","country":"US","city":"Greentown","state":"Pennsylvania","state_ab":"PA","county":"Pike","geo_location":{ "type": "Point", "coordinates": [-75.2819, 41.3321] }},
{"zip_code":"16923","country":"US","city":"Genesee","state":"Pennsylvania","state_ab":"PA","county":"Potter","geo_location":{ "type": "Point", "coordinates": [-77.8725, 41.9401] }},
{"zip_code":"17953","country":"US","city":"Middleport","state":"Pennsylvania","state_ab":"PA","county":"Schuylkill","geo_location":{ "type": "Point", "coordinates": [-76.0858, 40.7331] }},
{"zip_code":"17966","country":"US","city":"Ravine","state":"Pennsylvania","state_ab":"PA","county":"Schuylkill","geo_location":{ "type": "Point", "coordinates": [-76.2296, 40.7226] }},
{"zip_code":"17979","country":"US","city":"Summit Station","state":"Pennsylvania","state_ab":"PA","county":"Schuylkill","geo_location":{ "type": "Point", "coordinates": [-76.2038, 40.5545] }},
{"zip_code":"17980","country":"US","city":"Tower City","state":"Pennsylvania","state_ab":"PA","county":"Schuylkill","geo_location":{ "type": "Point", "coordinates": [-76.55, 40.5845] }},
{"zip_code":"18220","country":"US","city":"Delano","state":"Pennsylvania","state_ab":"PA","county":"Schuylkill","geo_location":{ "type": "Point", "coordinates": [-76.0694, 40.8389] }},
{"zip_code":"17876","country":"US","city":"Shamokin Dam","state":"Pennsylvania","state_ab":"PA","county":"Snyder","geo_location":{ "type": "Point", "coordinates": [-76.8224, 40.8459] }},
{"zip_code":"15520","country":"US","city":"Acosta","state":"Pennsylvania","state_ab":"PA","county":"Somerset","geo_location":{ "type": "Point", "coordinates": [-79.0702, 40.113] }},
{"zip_code":"15546","country":"US","city":"Jenners","state":"Pennsylvania","state_ab":"PA","county":"Somerset","geo_location":{ "type": "Point", "coordinates": [-79.0676, 40.1459] }},
{"zip_code":"15560","country":"US","city":"Shanksville","state":"Pennsylvania","state_ab":"PA","county":"Somerset","geo_location":{ "type": "Point", "coordinates": [-78.9077, 40.0171] }},
{"zip_code":"15959","country":"US","city":"Tire Hill","state":"Pennsylvania","state_ab":"PA","county":"Somerset","geo_location":{ "type": "Point", "coordinates": [-78.9156, 40.268] }},
{"zip_code":"18619","country":"US","city":"Hillsgrove","state":"Pennsylvania","state_ab":"PA","county":"Sullivan","geo_location":{ "type": "Point", "coordinates": [-76.6979, 41.4482] }},
{"zip_code":"18413","country":"US","city":"Clifford","state":"Pennsylvania","state_ab":"PA","county":"Susquehanna","geo_location":{ "type": "Point", "coordinates": [-75.6145, 41.6543] }},
{"zip_code":"18813","country":"US","city":"Brooklyn","state":"Pennsylvania","state_ab":"PA","county":"Susquehanna","geo_location":{ "type": "Point", "coordinates": [-75.8046, 41.8203] }},
{"zip_code":"18826","country":"US","city":"Kingsley","state":"Pennsylvania","state_ab":"PA","county":"Susquehanna","geo_location":{ "type": "Point", "coordinates": [-75.7831, 41.7659] }},
{"zip_code":"18839","country":"US","city":"Rushville","state":"Pennsylvania","state_ab":"PA","county":"Susquehanna","geo_location":{ "type": "Point", "coordinates": [-75.8046, 41.8203] }},
{"zip_code":"16936","country":"US","city":"Millerton","state":"Pennsylvania","state_ab":"PA","county":"Tioga","geo_location":{ "type": "Point", "coordinates": [-76.9748, 41.9625] }},
{"zip_code":"16950","country":"US","city":"Westfield","state":"Pennsylvania","state_ab":"PA","county":"Tioga","geo_location":{ "type": "Point", "coordinates": [-77.523, 41.9193] }},
{"zip_code":"17810","country":"US","city":"Allenwood","state":"Pennsylvania","state_ab":"PA","county":"Union","geo_location":{ "type": "Point", "coordinates": [-76.9724, 41.1264] }},
{"zip_code":"17889","country":"US","city":"Winfield","state":"Pennsylvania","state_ab":"PA","county":"Union","geo_location":{ "type": "Point", "coordinates": [-76.8718, 40.8908] }},
{"zip_code":"16343","country":"US","city":"Reno","state":"Pennsylvania","state_ab":"PA","county":"Venango","geo_location":{ "type": "Point", "coordinates": [-79.7493, 41.411] }},
{"zip_code":"16329","country":"US","city":"Irvine","state":"Pennsylvania","state_ab":"PA","county":"Warren","geo_location":{ "type": "Point", "coordinates": [-79.2643, 41.8117] }},
{"zip_code":"16369","country":"US","city":"Irvine","state":"Pennsylvania","state_ab":"PA","county":"Warren","geo_location":{ "type": "Point", "coordinates": [-79.2643, 41.8117] }},
{"zip_code":"16420","country":"US","city":"Grand Valley","state":"Pennsylvania","state_ab":"PA","county":"Warren","geo_location":{ "type": "Point", "coordinates": [-79.5473, 41.6963] }},
{"zip_code":"15029","country":"US","city":"New Eagle","state":"Pennsylvania","state_ab":"PA","county":"Washington County","geo_location":{ "type": "Point", "coordinates": [-79.9687, 40.2186] }},
{"zip_code":"15313","country":"US","city":"Beallsville","state":"Pennsylvania","state_ab":"PA","county":"Washington","geo_location":{ "type": "Point", "coordinates": [-80.0221, 40.0655] }},
{"zip_code":"15339","country":"US","city":"Hendersonville","state":"Pennsylvania","state_ab":"PA","county":"Washington","geo_location":{ "type": "Point", "coordinates": [-80.1543, 40.3018] }},
{"zip_code":"15340","country":"US","city":"Hickory","state":"Pennsylvania","state_ab":"PA","county":"Washington","geo_location":{ "type": "Point", "coordinates": [-80.3025, 40.2925] }},
{"zip_code":"15366","country":"US","city":"Van Voorhis","state":"Pennsylvania","state_ab":"PA","county":"Washington","geo_location":{ "type": "Point", "coordinates": [-80.0318, 40.1101] }},
{"zip_code":"15379","country":"US","city":"West Middletown","state":"Pennsylvania","state_ab":"PA","county":"Washington","geo_location":{ "type": "Point", "coordinates": [-80.4242, 40.2417] }},
{"zip_code":"15429","country":"US","city":"Denbo","state":"Pennsylvania","state_ab":"PA","county":"Washington","geo_location":{ "type": "Point", "coordinates": [-79.9392, 40.0081] }},
{"zip_code":"15483","country":"US","city":"Stockdale","state":"Pennsylvania","state_ab":"PA","county":"Washington","geo_location":{ "type": "Point", "coordinates": [-79.8501, 40.0826] }},
{"zip_code":"18439","country":"US","city":"Lakewood","state":"Pennsylvania","state_ab":"PA","county":"Wayne","geo_location":{ "type": "Point", "coordinates": [-75.3838, 41.8171] }},
{"zip_code":"18453","country":"US","city":"Pleasant Mount","state":"Pennsylvania","state_ab":"PA","county":"Wayne","geo_location":{ "type": "Point", "coordinates": [-75.3989, 41.7322] }},
{"zip_code":"15069","country":"US","city":"New Kensington","state":"Pennsylvania","state_ab":"PA","county":"Westmoreland","geo_location":{ "type": "Point", "coordinates": [-79.4398, 40.3602] }},
{"zip_code":"15083","country":"US","city":"Sutersville","state":"Pennsylvania","state_ab":"PA","county":"Westmoreland","geo_location":{ "type": "Point", "coordinates": [-79.7922, 40.2382] }},
{"zip_code":"15610","country":"US","city":"Acme","state":"Pennsylvania","state_ab":"PA","county":"Westmoreland","geo_location":{ "type": "Point", "coordinates": [-79.4051, 40.1201] }},
{"zip_code":"15623","country":"US","city":"Claridge","state":"Pennsylvania","state_ab":"PA","county":"Westmoreland","geo_location":{ "type": "Point", "coordinates": [-79.619, 40.3692] }},
{"zip_code":"15636","country":"US","city":"Harrison City","state":"Pennsylvania","state_ab":"PA","county":"Westmoreland","geo_location":{ "type": "Point", "coordinates": [-79.6565, 40.366] }},
{"zip_code":"15650","country":"US","city":"Latrobe","state":"Pennsylvania","state_ab":"PA","county":"Westmoreland","geo_location":{ "type": "Point", "coordinates": [-79.4103, 40.2926] }},
{"zip_code":"15663","country":"US","city":"Madison","state":"Pennsylvania","state_ab":"PA","county":"Westmoreland","geo_location":{ "type": "Point", "coordinates": [-79.676, 40.2467] }},
{"zip_code":"15676","country":"US","city":"Pleasant Unity","state":"Pennsylvania","state_ab":"PA","county":"Westmoreland","geo_location":{ "type": "Point", "coordinates": [-79.4542, 40.2424] }},
{"zip_code":"15689","country":"US","city":"United","state":"Pennsylvania","state_ab":"PA","county":"Westmoreland","geo_location":{ "type": "Point", "coordinates": [-79.4398, 40.3602] }},
{"zip_code":"15690","country":"US","city":"Vandergrift","state":"Pennsylvania","state_ab":"PA","county":"Westmoreland","geo_location":{ "type": "Point", "coordinates": [-79.5399, 40.6418] }},
{"zip_code":"15779","country":"US","city":"Torrance","state":"Pennsylvania","state_ab":"PA","county":"Westmoreland","geo_location":{ "type": "Point", "coordinates": [-79.2177, 40.3992] }},
{"zip_code":"17319","country":"US","city":"Etters","state":"Pennsylvania","state_ab":"PA","county":"York","geo_location":{ "type": "Point", "coordinates": [-76.8019, 40.1545] }},
{"zip_code":"17333","country":"US","city":"Hanover","state":"Pennsylvania","state_ab":"PA","county":"York","geo_location":{ "type": "Point", "coordinates": [-76.6878, 39.973] }}]}