{"value": [{"zip_code":"55599","country":"US","city":"Loretto","state":"Minnesota","state_ab":"MN","county":"Hennepin","geo_location":{ "type": "Point", "coordinates": [-93.4719, 45.0159] }},
{"zip_code":"55919","country":"US","city":"Brownsville","state":"Minnesota","state_ab":"MN","county":"Houston","geo_location":{ "type": "Point", "coordinates": [-91.3012, 43.6707] }},
{"zip_code":"56433","country":"US","city":"Akeley","state":"Minnesota","state_ab":"MN","county":"Hubbard","geo_location":{ "type": "Point", "coordinates": [-94.7234, 47.001] }},
{"zip_code":"55029","country":"US","city":"Grandy","state":"Minnesota","state_ab":"MN","county":"Isanti","geo_location":{ "type": "Point", "coordinates": [-93.2011, 45.6422] }},
{"zip_code":"55753","country":"US","city":"Keewatin","state":"Minnesota","state_ab":"MN","county":"Itasca","geo_location":{ "type": "Point", "coordinates": [-93.0784, 47.398] }},
{"zip_code":"55793","country":"US","city":"Warba","state":"Minnesota","state_ab":"MN","county":"Itasca","geo_location":{ "type": "Point", "coordinates": [-93.2764, 47.1361] }},
{"zip_code":"56639","country":"US","city":"Effie","state":"Minnesota","state_ab":"MN","county":"Itasca","geo_location":{ "type": "Point", "coordinates": [-93.5799, 47.8472] }},
{"zip_code":"56680","country":"US","city":"Spring Lake","state":"Minnesota","state_ab":"MN","county":"Itasca","geo_location":{ "type": "Point", "coordinates": [-93.922, 47.6359] }},
{"zip_code":"56150","country":"US","city":"Lakefield","state":"Minnesota","state_ab":"MN","county":"Jackson","geo_location":{ "type": "Point", "coordinates": [-95.1848, 43.6545] }},
{"zip_code":"56253","country":"US","city":"Lake Lillian","state":"Minnesota","state_ab":"MN","county":"Kandiyohi","geo_location":{ "type": "Point", "coordinates": [-94.9014, 44.966] }},
{"zip_code":"56279","country":"US","city":"Pennock","state":"Minnesota","state_ab":"MN","county":"Kandiyohi","geo_location":{ "type": "Point", "coordinates": [-95.1753, 45.131] }},
{"zip_code":"56729","country":"US","city":"Halma","state":"Minnesota","state_ab":"MN","county":"Kittson","geo_location":{ "type": "Point", "coordinates": [-96.5969, 48.6669] }},
{"zip_code":"56653","country":"US","city":"Littlefork","state":"Minnesota","state_ab":"MN","county":"Koochiching","geo_location":{ "type": "Point", "coordinates": [-93.5399, 48.3852] }},
{"zip_code":"56679","country":"US","city":"South International Falls","state":"Minnesota","state_ab":"MN","county":"Koochiching","geo_location":{ "type": "Point", "coordinates": [-93.7555, 48.2789] }},
{"zip_code":"55609","country":"US","city":"Knife River","state":"Minnesota","state_ab":"MN","county":"Lake","geo_location":{ "type": "Point", "coordinates": [-91.778, 46.9539] }},
{"zip_code":"56136","country":"US","city":"Hendricks","state":"Minnesota","state_ab":"MN","county":"Lincoln","geo_location":{ "type": "Point", "coordinates": [-96.4078, 44.4995] }},
{"zip_code":"56149","country":"US","city":"Lake Benton","state":"Minnesota","state_ab":"MN","county":"Lincoln","geo_location":{ "type": "Point", "coordinates": [-96.291, 44.2782] }},
{"zip_code":"56239","country":"US","city":"Ghent","state":"Minnesota","state_ab":"MN","county":"Lyon","geo_location":{ "type": "Point", "coordinates": [-95.8936, 44.5078] }},
{"zip_code":"56589","country":"US","city":"Waubun","state":"Minnesota","state_ab":"MN","county":"Mahnomen","geo_location":{ "type": "Point", "coordinates": [-95.8871, 47.192] }},
{"zip_code":"56176","country":"US","city":"Trimont","state":"Minnesota","state_ab":"MN","county":"Martin","geo_location":{ "type": "Point", "coordinates": [-94.7186, 43.7827] }},
{"zip_code":"56330","country":"US","city":"Foreston","state":"Minnesota","state_ab":"MN","county":"Mille Lacs","geo_location":{ "type": "Point", "coordinates": [-93.6958, 45.7028] }},
{"zip_code":"55933","country":"US","city":"Elkton","state":"Minnesota","state_ab":"MN","county":"Mower","geo_location":{ "type": "Point", "coordinates": [-92.7104, 43.6348] }},
{"zip_code":"55973","country":"US","city":"Sargeant","state":"Minnesota","state_ab":"MN","county":"Mower","geo_location":{ "type": "Point", "coordinates": [-92.7595, 43.809] }},
{"zip_code":"56123","country":"US","city":"Currie","state":"Minnesota","state_ab":"MN","county":"Murray","geo_location":{ "type": "Point", "coordinates": [-95.6953, 44.0946] }},
{"zip_code":"56110","country":"US","city":"Adrian","state":"Minnesota","state_ab":"MN","county":"Nobles","geo_location":{ "type": "Point", "coordinates": [-95.9273, 43.6197] }},
{"zip_code":"56510","country":"US","city":"Ada","state":"Minnesota","state_ab":"MN","county":"Norman","geo_location":{ "type": "Point", "coordinates": [-96.5973, 47.3253] }},
{"zip_code":"56550","country":"US","city":"Hendrum","state":"Minnesota","state_ab":"MN","county":"Norman","geo_location":{ "type": "Point", "coordinates": [-96.7987, 47.2689] }},
{"zip_code":"55906","country":"US","city":"Rochester","state":"Minnesota","state_ab":"MN","county":"Olmsted","geo_location":{ "type": "Point", "coordinates": [-92.4053, 44.1078] }},
{"zip_code":"55920","country":"US","city":"Byron","state":"Minnesota","state_ab":"MN","county":"Olmsted","geo_location":{ "type": "Point", "coordinates": [-92.6308, 44.0373] }},
{"zip_code":"55960","country":"US","city":"Oronoco","state":"Minnesota","state_ab":"MN","county":"Olmsted","geo_location":{ "type": "Point", "coordinates": [-92.485, 44.1489] }},
{"zip_code":"56576","country":"US","city":"Richville","state":"Minnesota","state_ab":"MN","county":"Otter Tail","geo_location":{ "type": "Point", "coordinates": [-95.7924, 46.4434] }},
{"zip_code":"55030","country":"US","city":"Grasston","state":"Minnesota","state_ab":"MN","county":"Pine","geo_location":{ "type": "Point", "coordinates": [-93.0813, 45.8566] }},
{"zip_code":"56523","country":"US","city":"Climax","state":"Minnesota","state_ab":"MN","county":"Polk","geo_location":{ "type": "Point", "coordinates": [-96.8715, 47.6837] }},
{"zip_code":"56716","country":"US","city":"Crookston","state":"Minnesota","state_ab":"MN","county":"Polk","geo_location":{ "type": "Point", "coordinates": [-96.5931, 47.7797] }},
{"zip_code":"55106","country":"US","city":"Saint Paul","state":"Minnesota","state_ab":"MN","county":"Ramsey","geo_location":{ "type": "Point", "coordinates": [-93.0488, 44.9684] }},
{"zip_code":"55119","country":"US","city":"Saint Paul","state":"Minnesota","state_ab":"MN","county":"Ramsey","geo_location":{ "type": "Point", "coordinates": [-93.0107, 44.9414] }},
{"zip_code":"55133","country":"US","city":"Saint Paul","state":"Minnesota","state_ab":"MN","county":"Ramsey","geo_location":{ "type": "Point", "coordinates": [-93.1059, 45.0059] }},
{"zip_code":"55146","country":"US","city":"Saint Paul","state":"Minnesota","state_ab":"MN","county":"Ramsey","geo_location":{ "type": "Point", "coordinates": [-93.0828, 44.9427] }},
{"zip_code":"55199","country":"US","city":"Saint Paul","state":"Minnesota","state_ab":"MN","county":"Ramsey County","geo_location":{ "type": "Point", "coordinates": [-93.0932, 44.9445] }},
{"zip_code":"56266","country":"US","city":"Morgan","state":"Minnesota","state_ab":"MN","county":"Redwood","geo_location":{ "type": "Point", "coordinates": [-94.9218, 44.3926] }},
{"zip_code":"56293","country":"US","city":"Wabasso","state":"Minnesota","state_ab":"MN","county":"Redwood","geo_location":{ "type": "Point", "coordinates": [-95.2632, 44.4059] }},
{"zip_code":"56756","country":"US","city":"Salol","state":"Minnesota","state_ab":"MN","county":"Roseau","geo_location":{ "type": "Point", "coordinates": [-95.5356, 48.8522] }},
{"zip_code":"55713","country":"US","city":"Buhl","state":"Minnesota","state_ab":"MN","county":"St. Louis","geo_location":{ "type": "Point", "coordinates": [-92.7643, 47.4932] }},
{"zip_code":"55740","country":"US","city":"Gheen","state":"Minnesota","state_ab":"MN","county":"Saint Louis County","geo_location":{ "type": "Point", "coordinates": [-92.9069, 47.9465] }},
{"zip_code":"55766","country":"US","city":"Melrude","state":"Minnesota","state_ab":"MN","county":"St. Louis","geo_location":{ "type": "Point", "coordinates": [-92.4123, 47.2496] }},
{"zip_code":"55779","country":"US","city":"Saginaw","state":"Minnesota","state_ab":"MN","county":"St. Louis","geo_location":{ "type": "Point", "coordinates": [-92.3917, 46.8795] }},
{"zip_code":"55803","country":"US","city":"Duluth","state":"Minnesota","state_ab":"MN","county":"St. Louis","geo_location":{ "type": "Point", "coordinates": [-92.0941, 46.8749] }},
{"zip_code":"55816","country":"US","city":"Duluth","state":"Minnesota","state_ab":"MN","county":"St. Louis","geo_location":{ "type": "Point", "coordinates": [-92.4428, 47.6404] }},
{"zip_code":"55379","country":"US","city":"Shakopee","state":"Minnesota","state_ab":"MN","county":"Scott","geo_location":{ "type": "Point", "coordinates": [-93.5197, 44.7793] }},
{"zip_code":"55366","country":"US","city":"New Auburn","state":"Minnesota","state_ab":"MN","county":"Sibley","geo_location":{ "type": "Point", "coordinates": [-94.2293, 44.6735] }},
{"zip_code":"55353","country":"US","city":"Kimball","state":"Minnesota","state_ab":"MN","county":"Stearns","geo_location":{ "type": "Point", "coordinates": [-94.3028, 45.3436] }},
{"zip_code":"56303","country":"US","city":"Saint Cloud","state":"Minnesota","state_ab":"MN","county":"Stearns","geo_location":{ "type": "Point", "coordinates": [-94.2036, 45.5713] }},
{"zip_code":"56316","country":"US","city":"Brooten","state":"Minnesota","state_ab":"MN","county":"Stearns","geo_location":{ "type": "Point", "coordinates": [-95.09, 45.4932] }},
{"zip_code":"56356","country":"US","city":"New Munich","state":"Minnesota","state_ab":"MN","county":"Stearns","geo_location":{ "type": "Point", "coordinates": [-94.7519, 45.6297] }},
{"zip_code":"56369","country":"US","city":"Rockville","state":"Minnesota","state_ab":"MN","county":"Stearns","geo_location":{ "type": "Point", "coordinates": [-94.3406, 45.4687] }},
{"zip_code":"56396","country":"US","city":"Saint Cloud","state":"Minnesota","state_ab":"MN","county":"Stearns","geo_location":{ "type": "Point", "coordinates": [-94.5933, 45.5289] }},
{"zip_code":"56046","country":"US","city":"Hope","state":"Minnesota","state_ab":"MN","county":"Steele","geo_location":{ "type": "Point", "coordinates": [-93.274, 43.9551] }},
{"zip_code":"56226","country":"US","city":"Clontarf","state":"Minnesota","state_ab":"MN","county":"Swift","geo_location":{ "type": "Point", "coordinates": [-95.8389, 45.3059] }},
{"zip_code":"56446","country":"US","city":"Eagle Bend","state":"Minnesota","state_ab":"MN","county":"Todd","geo_location":{ "type": "Point", "coordinates": [-95.0961, 46.117] }},
{"zip_code":"55003","country":"US","city":"Bayport","state":"Minnesota","state_ab":"MN","county":"Washington","geo_location":{ "type": "Point", "coordinates": [-92.7844, 45.0214] }},
{"zip_code":"55016","country":"US","city":"Cottage Grove","state":"Minnesota","state_ab":"MN","county":"Washington","geo_location":{ "type": "Point", "coordinates": [-92.9393, 44.8308] }},
{"zip_code":"55043","country":"US","city":"Lakeland","state":"Minnesota","state_ab":"MN","county":"Washington","geo_location":{ "type": "Point", "coordinates": [-92.7716, 44.9394] }},
{"zip_code":"55083","country":"US","city":"Stillwater","state":"Minnesota","state_ab":"MN","county":"Washington","geo_location":{ "type": "Point", "coordinates": [-92.9837, 45.021] }},
{"zip_code":"56060","country":"US","city":"Lewisville","state":"Minnesota","state_ab":"MN","county":"Watonwan","geo_location":{ "type": "Point", "coordinates": [-94.4289, 43.9209] }},
{"zip_code":"55959","country":"US","city":"Minnesota City","state":"Minnesota","state_ab":"MN","county":"Winona","geo_location":{ "type": "Point", "coordinates": [-91.7418, 44.0832] }},
{"zip_code":"55986","country":"US","city":"Whalan","state":"Minnesota","state_ab":"MN","county":"Winona County","geo_location":{ "type": "Point", "coordinates": [-91.9188, 43.7174] }},
{"zip_code":"55313","country":"US","city":"Buffalo","state":"Minnesota","state_ab":"MN","county":"Wright","geo_location":{ "type": "Point", "coordinates": [-93.8635, 45.1814] }},
{"zip_code":"55380","country":"US","city":"Silver Creek","state":"Minnesota","state_ab":"MN","county":"Wright","geo_location":{ "type": "Point", "coordinates": [-93.9798, 45.3158] }},
{"zip_code":"55393","country":"US","city":"Maple Plain","state":"Minnesota","state_ab":"MN","county":"Wright","geo_location":{ "type": "Point", "coordinates": [-93.8881, 45.2009] }},
{"zip_code":"55586","country":"US","city":"Monticello","state":"Minnesota","state_ab":"MN","county":"Wright","geo_location":{ "type": "Point", "coordinates": [-93.8881, 45.2009] }},
{"zip_code":"56280","country":"US","city":"Porter","state":"Minnesota","state_ab":"MN","county":"Yellow Medicine","geo_location":{ "type": "Point", "coordinates": [-96.1581, 44.6565] }},
{"zip_code":"64483","country":"US","city":"Rosendale","state":"Missouri","state_ab":"MO","county":"Andrew","geo_location":{ "type": "Point", "coordinates": [-94.8328, 40.0399] }},
{"zip_code":"64506","country":"US","city":"Saint Joseph","state":"Missouri","state_ab":"MO","county":"Andrew","geo_location":{ "type": "Point", "coordinates": [-94.8043, 39.7893] }},
{"zip_code":"64496","country":"US","city":"Watson","state":"Missouri","state_ab":"MO","county":"Atchison","geo_location":{ "type": "Point", "coordinates": [-95.6193, 40.478] }},
{"zip_code":"65280","country":"US","city":"Rush Hill","state":"Missouri","state_ab":"MO","county":"Audrain","geo_location":{ "type": "Point", "coordinates": [-91.7087, 39.2115] }},
{"zip_code":"64766","country":"US","city":"Milford","state":"Missouri","state_ab":"MO","county":"Barton","geo_location":{ "type": "Point", "coordinates": [-94.3456, 37.5015] }},
{"zip_code":"64779","country":"US","city":"Rich Hill","state":"Missouri","state_ab":"MO","county":"Bates","geo_location":{ "type": "Point", "coordinates": [-94.3635, 38.0944] }},
{"zip_code":"64780","country":"US","city":"Rockville","state":"Missouri","state_ab":"MO","county":"Bates","geo_location":{ "type": "Point", "coordinates": [-94.1299, 38.0766] }},
{"zip_code":"63750","country":"US","city":"Gipsy","state":"Missouri","state_ab":"MO","county":"Bollinger","geo_location":{ "type": "Point", "coordinates": [-90.1941, 37.1311] }},
{"zip_code":"65240","country":"US","city":"Centralia","state":"Missouri","state_ab":"MO","county":"Boone","geo_location":{ "type": "Point", "coordinates": [-92.1472, 39.1961] }},
{"zip_code":"65279","country":"US","city":"Rocheport","state":"Missouri","state_ab":"MO","county":"Boone","geo_location":{ "type": "Point", "coordinates": [-92.5079, 38.9756] }},
{"zip_code":"64443","country":"US","city":"Easton","state":"Missouri","state_ab":"MO","county":"Buchanan","geo_location":{ "type": "Point", "coordinates": [-94.6582, 39.7517] }},
{"zip_code":"64649","country":"US","city":"Kidder","state":"Missouri","state_ab":"MO","county":"Caldwell","geo_location":{ "type": "Point", "coordinates": [-94.0848, 39.7348] }},
{"zip_code":"64650","country":"US","city":"Kingston","state":"Missouri","state_ab":"MO","county":"Caldwell","geo_location":{ "type": "Point", "coordinates": [-94.0827, 39.6508] }},
{"zip_code":"65059","country":"US","city":"Mokane","state":"Missouri","state_ab":"MO","county":"Callaway","geo_location":{ "type": "Point", "coordinates": [-91.8868, 38.6998] }},
{"zip_code":"65020","country":"US","city":"Camdenton","state":"Missouri","state_ab":"MO","county":"Camden","geo_location":{ "type": "Point", "coordinates": [-92.7677, 38.0185] }},
{"zip_code":"64623","country":"US","city":"Bosworth","state":"Missouri","state_ab":"MO","county":"Carroll","geo_location":{ "type": "Point", "coordinates": [-93.3335, 39.4767] }},
{"zip_code":"63943","country":"US","city":"Grandin","state":"Missouri","state_ab":"MO","county":"Carter","geo_location":{ "type": "Point", "coordinates": [-90.7942, 36.828] }},
{"zip_code":"64083","country":"US","city":"Raymore","state":"Missouri","state_ab":"MO","county":"Cass","geo_location":{ "type": "Point", "coordinates": [-94.4529, 38.8019] }},
{"zip_code":"64739","country":"US","city":"Creighton","state":"Missouri","state_ab":"MO","county":"Cass","geo_location":{ "type": "Point", "coordinates": [-94.0926, 38.5078] }},
{"zip_code":"64676","country":"US","city":"Rothville","state":"Missouri","state_ab":"MO","county":"Chariton","geo_location":{ "type": "Point", "coordinates": [-93.0467, 39.6627] }},
{"zip_code":"63453","country":"US","city":"Luray","state":"Missouri","state_ab":"MO","county":"Clark","geo_location":{ "type": "Point", "coordinates": [-91.8912, 40.4931] }},
{"zip_code":"63466","country":"US","city":"Saint Patrick","state":"Missouri","state_ab":"MO","county":"Clark","geo_location":{ "type": "Point", "coordinates": [-91.6851, 40.4312] }},
{"zip_code":"64069","country":"US","city":"Liberty","state":"Missouri","state_ab":"MO","county":"Clay","geo_location":{ "type": "Point", "coordinates": [-94.409, 39.2829] }},
{"zip_code":"64119","country":"US","city":"Kansas City","state":"Missouri","state_ab":"MO","county":"Clay","geo_location":{ "type": "Point", "coordinates": [-94.5199, 39.1979] }},
{"zip_code":"64160","country":"US","city":"Kansas City","state":"Missouri","state_ab":"MO","county":"Clay","geo_location":{ "type": "Point", "coordinates": [-94.409, 39.2829] }},
{"zip_code":"64429","country":"US","city":"Cameron","state":"Missouri","state_ab":"MO","county":"Clinton","geo_location":{ "type": "Point", "coordinates": [-94.2437, 39.7309] }},
{"zip_code":"65109","country":"US","city":"Jefferson City","state":"Missouri","state_ab":"MO","county":"Cole","geo_location":{ "type": "Point", "coordinates": [-92.2443, 38.5773] }},
{"zip_code":"65110","country":"US","city":"Jefferson City","state":"Missouri","state_ab":"MO","county":"Cole","geo_location":{ "type": "Point", "coordinates": [-92.2493, 38.5309] }},
{"zip_code":"65446","country":"US","city":"Cherryville","state":"Missouri","state_ab":"MO","county":"Crawford","geo_location":{ "type": "Point", "coordinates": [-91.2348, 37.8066] }},
{"zip_code":"65590","country":"US","city":"Long Lane","state":"Missouri","state_ab":"MO","county":"Dallas","geo_location":{ "type": "Point", "coordinates": [-92.9309, 37.5808] }},
{"zip_code":"65783","country":"US","city":"Windyville","state":"Missouri","state_ab":"MO","county":"Dallas","geo_location":{ "type": "Point", "coordinates": [-92.9379, 37.7182] }},
{"zip_code":"64636","country":"US","city":"Coffey","state":"Missouri","state_ab":"MO","county":"Daviess","geo_location":{ "type": "Point", "coordinates": [-94.0252, 40.0999] }},
{"zip_code":"64689","country":"US","city":"Winston","state":"Missouri","state_ab":"MO","county":"Daviess","geo_location":{ "type": "Point", "coordinates": [-94.1487, 39.8499] }},
{"zip_code":"64430","country":"US","city":"Clarksdale","state":"Missouri","state_ab":"MO","county":"DeKalb","geo_location":{ "type": "Point", "coordinates": [-94.5421, 39.8137] }},
{"zip_code":"64469","country":"US","city":"Maysville","state":"Missouri","state_ab":"MO","county":"DeKalb","geo_location":{ "type": "Point", "coordinates": [-94.3548, 39.9112] }},
{"zip_code":"63880","country":"US","city":"Whiteoak","state":"Missouri","state_ab":"MO","county":"Dunklin","geo_location":{ "type": "Point", "coordinates": [-90.1658, 36.3133] }},
{"zip_code":"63013","country":"US","city":"Beaufort","state":"Missouri","state_ab":"MO","county":"Franklin","geo_location":{ "type": "Point", "coordinates": [-91.1709, 38.4294] }},
{"zip_code":"63039","country":"US","city":"Gray Summit","state":"Missouri","state_ab":"MO","county":"Franklin","geo_location":{ "type": "Point", "coordinates": [-90.8292, 38.503] }},
{"zip_code":"63079","country":"US","city":"Stanton","state":"Missouri","state_ab":"MO","county":"Franklin","geo_location":{ "type": "Point", "coordinates": [-91.0855, 38.2744] }},
{"zip_code":"63080","country":"US","city":"Sullivan","state":"Missouri","state_ab":"MO","county":"Franklin","geo_location":{ "type": "Point", "coordinates": [-91.1567, 38.2307] }},
{"zip_code":"65770","country":"US","city":"Walnut Grove","state":"Missouri","state_ab":"MO","county":"Greene","geo_location":{ "type": "Point", "coordinates": [-93.5044, 37.3943] }},
{"zip_code":"65806","country":"US","city":"Springfield","state":"Missouri","state_ab":"MO","county":"Greene","geo_location":{ "type": "Point", "coordinates": [-93.2971, 37.2031] }},
{"zip_code":"65899","country":"US","city":"Springfield","state":"Missouri","state_ab":"MO","county":"Greene","geo_location":{ "type": "Point", "coordinates": [-93.2596, 37.1815] }},
{"zip_code":"58079","country":"US","city":"Wheatland","state":"North Dakota","state_ab":"ND","county":"Cass","geo_location":{ "type": "Point", "coordinates": [-97.3461, 46.8326] }},
{"zip_code":"58103","country":"US","city":"Fargo","state":"North Dakota","state_ab":"ND","county":"Cass","geo_location":{ "type": "Point", "coordinates": [-96.8123, 46.8564] }},
{"zip_code":"58260","country":"US","city":"Milton","state":"North Dakota","state_ab":"ND","county":"Cavalier","geo_location":{ "type": "Point", "coordinates": [-98.0183, 48.617] }},
{"zip_code":"58323","country":"US","city":"Calvin","state":"North Dakota","state_ab":"ND","county":"Cavalier","geo_location":{ "type": "Point", "coordinates": [-98.8808, 48.851] }},
{"zip_code":"58439","country":"US","city":"Forbes","state":"North Dakota","state_ab":"ND","county":"Dickey","geo_location":{ "type": "Point", "coordinates": [-98.8124, 46.0109] }},
{"zip_code":"58206","country":"US","city":"Grand Forks","state":"North Dakota","state_ab":"ND","county":"Grand Forks","geo_location":{ "type": "Point", "coordinates": [-97.3944, 47.9335] }},
{"zip_code":"58529","country":"US","city":"Carson","state":"North Dakota","state_ab":"ND","county":"Grant","geo_location":{ "type": "Point", "coordinates": [-101.5387, 46.4624] }},
{"zip_code":"58569","country":"US","city":"Shields","state":"North Dakota","state_ab":"ND","county":"Grant","geo_location":{ "type": "Point", "coordinates": [-101.2589, 46.1838] }},
{"zip_code":"58646","country":"US","city":"Mott","state":"North Dakota","state_ab":"ND","county":"Hettinger","geo_location":{ "type": "Point", "coordinates": [-102.327, 46.3696] }},
{"zip_code":"58466","country":"US","city":"Marion","state":"North Dakota","state_ab":"ND","county":"LaMoure","geo_location":{ "type": "Point", "coordinates": [-98.369, 46.5514] }},
{"zip_code":"58440","country":"US","city":"Fredonia","state":"North Dakota","state_ab":"ND","county":"Logan","geo_location":{ "type": "Point", "coordinates": [-99.1733, 46.3701] }},
{"zip_code":"58710","country":"US","city":"Anamoose","state":"North Dakota","state_ab":"ND","county":"McHenry","geo_location":{ "type": "Point", "coordinates": [-100.2529, 47.8703] }},
{"zip_code":"58736","country":"US","city":"Drake","state":"North Dakota","state_ab":"ND","county":"McHenry","geo_location":{ "type": "Point", "coordinates": [-100.379, 47.9024] }},
{"zip_code":"58789","country":"US","city":"Upham","state":"North Dakota","state_ab":"ND","county":"McHenry","geo_location":{ "type": "Point", "coordinates": [-100.7323, 48.5816] }},
{"zip_code":"58790","country":"US","city":"Velva","state":"North Dakota","state_ab":"ND","county":"McHenry","geo_location":{ "type": "Point", "coordinates": [-100.9346, 48.0675] }},
{"zip_code":"58413","country":"US","city":"Ashley","state":"North Dakota","state_ab":"ND","county":"McIntosh","geo_location":{ "type": "Point", "coordinates": [-99.3164, 46.0537] }},
{"zip_code":"58723","country":"US","city":"Butte","state":"North Dakota","state_ab":"ND","county":"McLean","geo_location":{ "type": "Point", "coordinates": [-100.6604, 47.8119] }},
{"zip_code":"58763","country":"US","city":"New Town","state":"North Dakota","state_ab":"ND","county":"Mountrail","geo_location":{ "type": "Point", "coordinates": [-102.4716, 47.9718] }},
{"zip_code":"58776","country":"US","city":"Ross","state":"North Dakota","state_ab":"ND","county":"Mountrail","geo_location":{ "type": "Point", "coordinates": [-102.5307, 48.3162] }},
{"zip_code":"58259","country":"US","city":"Michigan","state":"North Dakota","state_ab":"ND","county":"Nelson","geo_location":{ "type": "Point", "coordinates": [-98.1186, 48.0204] }},
{"zip_code":"58530","country":"US","city":"Center","state":"North Dakota","state_ab":"ND","county":"Oliver","geo_location":{ "type": "Point", "coordinates": [-101.1594, 47.1459] }},
{"zip_code":"58220","country":"US","city":"Cavalier","state":"North Dakota","state_ab":"ND","county":"Pembina","geo_location":{ "type": "Point", "coordinates": [-97.7143, 48.7935] }},
{"zip_code":"58039","country":"US","city":"Great Bend","state":"North Dakota","state_ab":"ND","county":"Richland","geo_location":{ "type": "Point", "coordinates": [-96.8171, 46.1544] }},
{"zip_code":"58053","country":"US","city":"Lidgerwood","state":"North Dakota","state_ab":"ND","county":"Richland","geo_location":{ "type": "Point", "coordinates": [-97.1799, 46.0641] }},
{"zip_code":"58310","country":"US","city":"Agate","state":"North Dakota","state_ab":"ND","county":"Rolette","geo_location":{ "type": "Point", "coordinates": [-99.7727, 48.7709] }},
{"zip_code":"58013","country":"US","city":"Cayuga","state":"North Dakota","state_ab":"ND","county":"Sargent","geo_location":{ "type": "Point", "coordinates": [-97.4059, 46.1326] }},
{"zip_code":"58040","country":"US","city":"Gwinner","state":"North Dakota","state_ab":"ND","county":"Sargent","geo_location":{ "type": "Point", "coordinates": [-97.7677, 46.1527] }},
{"zip_code":"58570","country":"US","city":"Solen","state":"North Dakota","state_ab":"ND","county":"Sioux","geo_location":{ "type": "Point", "coordinates": [-100.7831, 46.3656] }},
{"zip_code":"58620","country":"US","city":"Amidon","state":"North Dakota","state_ab":"ND","county":"Slope","geo_location":{ "type": "Point", "coordinates": [-103.2647, 46.456] }},
{"zip_code":"58426","country":"US","city":"Courtenay","state":"North Dakota","state_ab":"ND","county":"Stutsman","geo_location":{ "type": "Point", "coordinates": [-98.5489, 47.2272] }},
{"zip_code":"58363","country":"US","city":"Perth","state":"North Dakota","state_ab":"ND","county":"Towner","geo_location":{ "type": "Point", "coordinates": [-99.4384, 48.7546] }},
{"zip_code":"58219","country":"US","city":"Caledonia","state":"North Dakota","state_ab":"ND","county":"Traill","geo_location":{ "type": "Point", "coordinates": [-96.879, 47.4776] }},
{"zip_code":"58233","country":"US","city":"Forest River","state":"North Dakota","state_ab":"ND","county":"Walsh","geo_location":{ "type": "Point", "coordinates": [-97.4605, 48.2251] }},
{"zip_code":"58273","country":"US","city":"Pisek","state":"North Dakota","state_ab":"ND","county":"Walsh","geo_location":{ "type": "Point", "coordinates": [-97.7029, 48.2971] }},
{"zip_code":"58853","country":"US","city":"Trenton","state":"North Dakota","state_ab":"ND","county":"Williams","geo_location":{ "type": "Point", "coordinates": [-103.4381, 48.2951] }},
{"zip_code":"68973","country":"US","city":"Roseland","state":"Nebraska","state_ab":"NE","county":"Adams","geo_location":{ "type": "Point", "coordinates": [-98.5551, 40.4591] }},
{"zip_code":"68636","country":"US","city":"Elgin","state":"Nebraska","state_ab":"NE","county":"Antelope","geo_location":{ "type": "Point", "coordinates": [-98.0751, 41.9732] }},
{"zip_code":"68726","country":"US","city":"Clearwater","state":"Nebraska","state_ab":"NE","county":"Antelope","geo_location":{ "type": "Point", "coordinates": [-98.1868, 42.1266] }},
{"zip_code":"68869","country":"US","city":"Ravenna","state":"Nebraska","state_ab":"NE","county":"Buffalo","geo_location":{ "type": "Point", "coordinates": [-98.9041, 41.0233] }},
{"zip_code":"68870","country":"US","city":"Riverdale","state":"Nebraska","state_ab":"NE","county":"Buffalo","geo_location":{ "type": "Point", "coordinates": [-99.1611, 40.8524] }},
{"zip_code":"68650","country":"US","city":"Octavia","state":"Nebraska","state_ab":"NE","county":"Butler County","geo_location":{ "type": "Point", "coordinates": [-97.0678, 41.3561] }},
{"zip_code":"68016","country":"US","city":"Cedar Creek","state":"Nebraska","state_ab":"NE","county":"Cass","geo_location":{ "type": "Point", "coordinates": [-96.1044, 41.0425] }},
{"zip_code":"68366","country":"US","city":"Greenwood","state":"Nebraska","state_ab":"NE","county":"Cass","geo_location":{ "type": "Point", "coordinates": [-96.4258, 40.9706] }},
{"zip_code":"68403","country":"US","city":"Manley","state":"Nebraska","state_ab":"NE","county":"Cass","geo_location":{ "type": "Point", "coordinates": [-96.168, 40.9207] }},
{"zip_code":"68739","country":"US","city":"Hartington","state":"Nebraska","state_ab":"NE","county":"Cedar","geo_location":{ "type": "Point", "coordinates": [-97.2837, 42.6235] }},
{"zip_code":"69033","country":"US","city":"Imperial","state":"Nebraska","state_ab":"NE","county":"Chase","geo_location":{ "type": "Point", "coordinates": [-101.6468, 40.5251] }},
{"zip_code":"69149","country":"US","city":"Lodgepole","state":"Nebraska","state_ab":"NE","county":"Cheyenne","geo_location":{ "type": "Point", "coordinates": [-102.657, 41.1697] }},
{"zip_code":"68933","country":"US","city":"Clay Center","state":"Nebraska","state_ab":"NE","county":"Clay","geo_location":{ "type": "Point", "coordinates": [-98.0386, 40.5113] }},
{"zip_code":"68856","country":"US","city":"Merna","state":"Nebraska","state_ab":"NE","county":"Custer","geo_location":{ "type": "Point", "coordinates": [-99.8036, 41.4435] }},
{"zip_code":"68030","country":"US","city":"Homer","state":"Nebraska","state_ab":"NE","county":"Dakota","geo_location":{ "type": "Point", "coordinates": [-96.4656, 42.3322] }},
{"zip_code":"68649","country":"US","city":"North Bend","state":"Nebraska","state_ab":"NE","county":"Dodge","geo_location":{ "type": "Point", "coordinates": [-96.7813, 41.4689] }},
{"zip_code":"68069","country":"US","city":"Waterloo","state":"Nebraska","state_ab":"NE","county":"Douglas","geo_location":{ "type": "Point", "coordinates": [-96.3063, 41.2702] }},
{"zip_code":"68106","country":"US","city":"Omaha","state":"Nebraska","state_ab":"NE","county":"Douglas","geo_location":{ "type": "Point", "coordinates": [-95.998, 41.2403] }},
{"zip_code":"68119","country":"US","city":"Omaha","state":"Nebraska","state_ab":"NE","county":"Douglas","geo_location":{ "type": "Point", "coordinates": [-96.1711, 41.2917] }},
{"zip_code":"68120","country":"US","city":"Omaha","state":"Nebraska","state_ab":"NE","county":"Douglas","geo_location":{ "type": "Point", "coordinates": [-96.1711, 41.2917] }},
{"zip_code":"68416","country":"US","city":"Ohiowa","state":"Nebraska","state_ab":"NE","county":"Fillmore","geo_location":{ "type": "Point", "coordinates": [-97.4427, 40.4065] }},
{"zip_code":"68960","country":"US","city":"Naponee","state":"Nebraska","state_ab":"NE","county":"Franklin","geo_location":{ "type": "Point", "coordinates": [-99.1277, 40.1258] }},
{"zip_code":"68946","country":"US","city":"Hendley","state":"Nebraska","state_ab":"NE","county":"Furnas","geo_location":{ "type": "Point", "coordinates": [-99.9715, 40.1063] }},
{"zip_code":"69046","country":"US","city":"Wilsonville","state":"Nebraska","state_ab":"NE","county":"Furnas","geo_location":{ "type": "Point", "coordinates": [-100.1211, 40.1089] }},
{"zip_code":"69190","country":"US","city":"Oshkosh","state":"Nebraska","state_ab":"NE","county":"Garden","geo_location":{ "type": "Point", "coordinates": [-102.3318, 41.6153] }},
{"zip_code":"68803","country":"US","city":"Grand Island","state":"Nebraska","state_ab":"NE","county":"Hall","geo_location":{ "type": "Point", "coordinates": [-98.3873, 40.9286] }},
{"zip_code":"68883","country":"US","city":"Wood River","state":"Nebraska","state_ab":"NE","county":"Hall","geo_location":{ "type": "Point", "coordinates": [-98.6065, 40.8106] }},
{"zip_code":"68843","country":"US","city":"Hampton","state":"Nebraska","state_ab":"NE","county":"Hamilton","geo_location":{ "type": "Point", "coordinates": [-97.8841, 40.9236] }},
{"zip_code":"68920","country":"US","city":"Alma","state":"Nebraska","state_ab":"NE","county":"Harlan","geo_location":{ "type": "Point", "coordinates": [-99.3601, 40.1189] }},
{"zip_code":"68713","country":"US","city":"Atkinson","state":"Nebraska","state_ab":"NE","county":"Holt","geo_location":{ "type": "Point", "coordinates": [-98.9761, 42.5483] }},
{"zip_code":"68766","country":"US","city":"Page","state":"Nebraska","state_ab":"NE","county":"Holt","geo_location":{ "type": "Point", "coordinates": [-98.3964, 42.4119] }},
{"zip_code":"68780","country":"US","city":"Stuart","state":"Nebraska","state_ab":"NE","county":"Holt","geo_location":{ "type": "Point", "coordinates": [-99.1396, 42.5713] }},
{"zip_code":"68829","country":"US","city":"Cotesfield","state":"Nebraska","state_ab":"NE","county":"Howard County","geo_location":{ "type": "Point", "coordinates": [-98.6641, 41.339] }},
{"zip_code":"68443","country":"US","city":"Sterling","state":"Nebraska","state_ab":"NE","county":"Johnson","geo_location":{ "type": "Point", "coordinates": [-96.3867, 40.4637] }},
{"zip_code":"68959","country":"US","city":"Minden","state":"Nebraska","state_ab":"NE","county":"Kearney","geo_location":{ "type": "Point", "coordinates": [-98.9383, 40.5091] }},
{"zip_code":"68753","country":"US","city":"Mills","state":"Nebraska","state_ab":"NE","county":"Keya Paha","geo_location":{ "type": "Point", "coordinates": [-99.4466, 42.9225] }},
{"zip_code":"68339","country":"US","city":"Denton","state":"Nebraska","state_ab":"NE","county":"Lancaster","geo_location":{ "type": "Point", "coordinates": [-96.8532, 40.7009] }},
{"zip_code":"68430","country":"US","city":"Roca","state":"Nebraska","state_ab":"NE","county":"Lancaster","geo_location":{ "type": "Point", "coordinates": [-96.6391, 40.6702] }},
{"zip_code":"68506","country":"US","city":"Lincoln","state":"Nebraska","state_ab":"NE","county":"Lancaster","geo_location":{ "type": "Point", "coordinates": [-96.6431, 40.7848] }},
{"zip_code":"68520","country":"US","city":"Lincoln","state":"Nebraska","state_ab":"NE","county":"Lancaster","geo_location":{ "type": "Point", "coordinates": [-96.5693, 40.7744] }},
{"zip_code":"69123","country":"US","city":"Brady","state":"Nebraska","state_ab":"NE","county":"Lincoln","geo_location":{ "type": "Point", "coordinates": [-100.3736, 41.0515] }},
{"zip_code":"69163","country":"US","city":"Stapleton","state":"Nebraska","state_ab":"NE","county":"Logan","geo_location":{ "type": "Point", "coordinates": [-100.4831, 41.4888] }},
{"zip_code":"68663","country":"US","city":"Silver Creek","state":"Nebraska","state_ab":"NE","county":"Merrick","geo_location":{ "type": "Point", "coordinates": [-97.6671, 41.319] }},
{"zip_code":"68816","country":"US","city":"Archer","state":"Nebraska","state_ab":"NE","county":"Merrick","geo_location":{ "type": "Point", "coordinates": [-98.1182, 41.1782] }},
{"zip_code":"68623","country":"US","city":"Belgrade","state":"Nebraska","state_ab":"NE","county":"Nance","geo_location":{ "type": "Point", "coordinates": [-98.0866, 41.4611] }},
{"zip_code":"68379","country":"US","city":"Julian","state":"Nebraska","state_ab":"NE","county":"Nemaha County","geo_location":{ "type": "Point", "coordinates": [-95.8674, 40.5199] }},
{"zip_code":"68380","country":"US","city":"Lewiston","state":"Nebraska","state_ab":"NE","county":"Pawnee","geo_location":{ "type": "Point", "coordinates": [-96.4049, 40.2309] }},
{"zip_code":"69150","country":"US","city":"Madrid","state":"Nebraska","state_ab":"NE","county":"Perkins","geo_location":{ "type": "Point", "coordinates": [-101.5371, 40.8544] }},
{"zip_code":"69020","country":"US","city":"Bartley","state":"Nebraska","state_ab":"NE","county":"Red Willow","geo_location":{ "type": "Point", "coordinates": [-100.2908, 40.2581] }},
{"zip_code":"68056","country":"US","city":"St Columbans","state":"Nebraska","state_ab":"NE","county":"Sarpy","geo_location":{ "type": "Point", "coordinates": [-96.0905, 41.0927] }},
{"zip_code":"68133","country":"US","city":"Papillion","state":"Nebraska","state_ab":"NE","county":"Sarpy","geo_location":{ "type": "Point", "coordinates": [-96.0131, 41.1416] }},
{"zip_code":"68003","country":"US","city":"Ashland","state":"Nebraska","state_ab":"NE","county":"Saunders","geo_location":{ "type": "Point", "coordinates": [-96.3904, 41.0541] }},
{"zip_code":"68070","country":"US","city":"Weston","state":"Nebraska","state_ab":"NE","county":"Saunders","geo_location":{ "type": "Point", "coordinates": [-96.7691, 41.1811] }},
{"zip_code":"69356","country":"US","city":"Minatare","state":"Nebraska","state_ab":"NE","county":"Scotts Bluff","geo_location":{ "type": "Point", "coordinates": [-103.489, 41.8493] }},
{"zip_code":"68313","country":"US","city":"Beaver Crossing","state":"Nebraska","state_ab":"NE","county":"Seward","geo_location":{ "type": "Point", "coordinates": [-97.2914, 40.7887] }},
{"zip_code":"68456","country":"US","city":"Utica","state":"Nebraska","state_ab":"NE","county":"Seward","geo_location":{ "type": "Point", "coordinates": [-97.3344, 40.9168] }},
{"zip_code":"69343","country":"US","city":"Gordon","state":"Nebraska","state_ab":"NE","county":"Sheridan","geo_location":{ "type": "Point", "coordinates": [-102.2049, 42.8068] }},
{"zip_code":"68779","country":"US","city":"Stanton","state":"Nebraska","state_ab":"NE","county":"Stanton","geo_location":{ "type": "Point", "coordinates": [-97.214, 41.9076] }},
{"zip_code":"68326","country":"US","city":"Carleton","state":"Nebraska","state_ab":"NE","county":"Thayer","geo_location":{ "type": "Point", "coordinates": [-97.6719, 40.3005] }},
{"zip_code":"68340","country":"US","city":"Deshler","state":"Nebraska","state_ab":"NE","county":"Thayer","geo_location":{ "type": "Point", "coordinates": [-97.73, 40.1387] }},
{"zip_code":"68429","country":"US","city":"Reynolds","state":"Nebraska","state_ab":"NE","county":"Thayer","geo_location":{ "type": "Point", "coordinates": [-97.3806, 40.0598] }},
{"zip_code":"68029","country":"US","city":"Herman","state":"Nebraska","state_ab":"NE","county":"Washington","geo_location":{ "type": "Point", "coordinates": [-96.2869, 41.6524] }},
{"zip_code":"68740","country":"US","city":"Hoskins","state":"Nebraska","state_ab":"NE","county":"Wayne","geo_location":{ "type": "Point", "coordinates": [-97.3084, 42.1408] }},
{"zip_code":"3226","country":"US","city":"Center Harbor","state":"New Hampshire","state_ab":"NH","county":"Belknap","geo_location":{ "type": "Point", "coordinates": [-71.4797, 43.7107] }},
{"zip_code":"3253","country":"US","city":"Meredith","state":"New Hampshire","state_ab":"NH","county":"Belknap","geo_location":{ "type": "Point", "coordinates": [-71.4997, 43.6311] }},
{"zip_code":"3846","country":"US","city":"Jackson","state":"New Hampshire","state_ab":"NH","county":"Carroll","geo_location":{ "type": "Point", "coordinates": [-71.1878, 44.167] }},
{"zip_code":"3860","country":"US","city":"North Conway","state":"New Hampshire","state_ab":"NH","county":"Carroll","geo_location":{ "type": "Point", "coordinates": [-71.1238, 44.0336] }},
{"zip_code":"3886","country":"US","city":"Tamworth","state":"New Hampshire","state_ab":"NH","county":"Carroll","geo_location":{ "type": "Point", "coordinates": [-71.2645, 43.862] }},
{"zip_code":"3446","country":"US","city":"Swanzey","state":"New Hampshire","state_ab":"NH","county":"Cheshire","geo_location":{ "type": "Point", "coordinates": [-72.3301, 42.8411] }},
{"zip_code":"3576","country":"US","city":"Colebrook","state":"New Hampshire","state_ab":"NH","county":"Coos","geo_location":{ "type": "Point", "coordinates": [-71.4793, 44.9078] }},
{"zip_code":"3589","country":"US","city":"Mount Washington","state":"New Hampshire","state_ab":"NH","county":"Coos","geo_location":{ "type": "Point", "coordinates": [-71.3874, 44.6956] }},
{"zip_code":"3590","country":"US","city":"North Stratford","state":"New Hampshire","state_ab":"NH","county":"Coos","geo_location":{ "type": "Point", "coordinates": [-71.5644, 44.7149] }},
{"zip_code":"3240","country":"US","city":"Grafton","state":"New Hampshire","state_ab":"NH","county":"Grafton","geo_location":{ "type": "Point", "coordinates": [-71.9634, 43.5727] }},
{"zip_code":"3266","country":"US","city":"Rumney","state":"New Hampshire","state_ab":"NH","county":"Grafton","geo_location":{ "type": "Point", "coordinates": [-71.848, 43.8044] }},
{"zip_code":"3279","country":"US","city":"Warren","state":"New Hampshire","state_ab":"NH","county":"Grafton","geo_location":{ "type": "Point", "coordinates": [-71.8901, 43.9447] }},
{"zip_code":"3293","country":"US","city":"Woodstock","state":"New Hampshire","state_ab":"NH","county":"Grafton","geo_location":{ "type": "Point", "coordinates": [-71.8409, 43.9675] }},
{"zip_code":"3756","country":"US","city":"Lebanon","state":"New Hampshire","state_ab":"NH","county":"Grafton","geo_location":{ "type": "Point", "coordinates": [-71.8409, 43.9675] }},
{"zip_code":"3769","country":"US","city":"Lyme Center","state":"New Hampshire","state_ab":"NH","county":"Grafton","geo_location":{ "type": "Point", "coordinates": [-72.1205, 43.7863] }},
{"zip_code":"3033","country":"US","city":"Brookline","state":"New Hampshire","state_ab":"NH","county":"Hillsborough","geo_location":{ "type": "Point", "coordinates": [-71.6663, 42.7384] }},
{"zip_code":"3060","country":"US","city":"Nashua","state":"New Hampshire","state_ab":"NH","county":"Hillsborough","geo_location":{ "type": "Point", "coordinates": [-71.4667, 42.7564] }},
{"zip_code":"3086","country":"US","city":"Wilton","state":"New Hampshire","state_ab":"NH","county":"Hillsborough","geo_location":{ "type": "Point", "coordinates": [-71.7541, 42.8368] }},
{"zip_code":"3109","country":"US","city":"Manchester","state":"New Hampshire","state_ab":"NH","county":"Hillsborough","geo_location":{ "type": "Point", "coordinates": [-71.4135, 42.9713] }},
{"zip_code":"3110","country":"US","city":"Bedford","state":"New Hampshire","state_ab":"NH","county":"Hillsborough","geo_location":{ "type": "Point", "coordinates": [-71.5213, 42.9403] }},
{"zip_code":"3046","country":"US","city":"Dunbarton","state":"New Hampshire","state_ab":"NH","county":"Merrimack County","geo_location":{ "type": "Point", "coordinates": [-71.6169, 43.1025] }},
{"zip_code":"3303","country":"US","city":"Concord","state":"New Hampshire","state_ab":"NH","county":"Merrimack","geo_location":{ "type": "Point", "coordinates": [-71.6595, 43.2817] }},
{"zip_code":"212","country":"US","city":"Portsmouth","state":"New Hampshire","state_ab":"NH","county":"Rockingham","geo_location":{ "type": "Point", "coordinates": [-71.0132, 43.0059] }},
{"zip_code":"3073","country":"US","city":"North Salem","state":"New Hampshire","state_ab":"NH","county":"Rockingham","geo_location":{ "type": "Point", "coordinates": [-71.0132, 43.0059] }},
{"zip_code":"3819","country":"US","city":"Danville","state":"New Hampshire","state_ab":"NH","county":"Rockingham","geo_location":{ "type": "Point", "coordinates": [-71.121, 42.9234] }},
{"zip_code":"3833","country":"US","city":"Exeter","state":"New Hampshire","state_ab":"NH","county":"Rockingham","geo_location":{ "type": "Point", "coordinates": [-70.9223, 42.9513] }},
{"zip_code":"3859","country":"US","city":"Newton Junction","state":"New Hampshire","state_ab":"NH","county":"Rockingham","geo_location":{ "type": "Point", "coordinates": [-71.04, 42.8619] }},
{"zip_code":"3873","country":"US","city":"Sandown","state":"New Hampshire","state_ab":"NH","county":"Rockingham","geo_location":{ "type": "Point", "coordinates": [-71.1861, 42.9308] }},
{"zip_code":"3820","country":"US","city":"Dover","state":"New Hampshire","state_ab":"NH","county":"Strafford","geo_location":{ "type": "Point", "coordinates": [-70.8868, 43.1888] }},
{"zip_code":"3280","country":"US","city":"Washington","state":"New Hampshire","state_ab":"NH","county":"Sullivan","geo_location":{ "type": "Point", "coordinates": [-72.0824, 43.1747] }},
{"zip_code":"3743","country":"US","city":"Claremont","state":"New Hampshire","state_ab":"NH","county":"Sullivan","geo_location":{ "type": "Point", "coordinates": [-72.3422, 43.3679] }},
{"zip_code":"3770","country":"US","city":"Meriden","state":"New Hampshire","state_ab":"NH","county":"Sullivan","geo_location":{ "type": "Point", "coordinates": [-72.2756, 43.5299] }},
{"zip_code":"8203","country":"US","city":"Brigantine","state":"New Jersey","state_ab":"NJ","county":"Atlantic","geo_location":{ "type": "Point", "coordinates": [-74.494, 39.3702] }},
{"zip_code":"8319","country":"US","city":"Estell Manor","state":"New Jersey","state_ab":"NJ","county":"Atlantic","geo_location":{ "type": "Point", "coordinates": [-74.8165, 39.3783] }},
{"zip_code":"8346","country":"US","city":"Newtonville","state":"New Jersey","state_ab":"NJ","county":"Atlantic","geo_location":{ "type": "Point", "coordinates": [-74.859, 39.5645] }},
{"zip_code":"7020","country":"US","city":"Edgewater","state":"New Jersey","state_ab":"NJ","county":"Bergen","geo_location":{ "type": "Point", "coordinates": [-73.9738, 40.8317] }},
{"zip_code":"7073","country":"US","city":"East Rutherford","state":"New Jersey","state_ab":"NJ","county":"Bergen","geo_location":{ "type": "Point", "coordinates": [-74.1041, 40.8385] }},
{"zip_code":"7446","country":"US","city":"Ramsey","state":"New Jersey","state_ab":"NJ","county":"Bergen","geo_location":{ "type": "Point", "coordinates": [-74.1445, 41.0577] }},
{"zip_code":"7626","country":"US","city":"Cresskill","state":"New Jersey","state_ab":"NJ","county":"Bergen","geo_location":{ "type": "Point", "coordinates": [-73.9652, 40.9418] }},
{"zip_code":"7640","country":"US","city":"Harrington Park","state":"New Jersey","state_ab":"NJ","county":"Bergen","geo_location":{ "type": "Point", "coordinates": [-73.98, 40.9918] }},
{"zip_code":"7653","country":"US","city":"Paramus","state":"New Jersey","state_ab":"NJ","county":"Bergen","geo_location":{ "type": "Point", "coordinates": [-74.0832, 40.9481] }},
{"zip_code":"7666","country":"US","city":"Teaneck","state":"New Jersey","state_ab":"NJ","county":"Bergen","geo_location":{ "type": "Point", "coordinates": [-74.0119, 40.8915] }},
{"zip_code":"8010","country":"US","city":"Beverly","state":"New Jersey","state_ab":"NJ","county":"Burlington","geo_location":{ "type": "Point", "coordinates": [-74.9114, 40.0565] }},
{"zip_code":"8036","country":"US","city":"Hainesport","state":"New Jersey","state_ab":"NJ","county":"Burlington","geo_location":{ "type": "Point", "coordinates": [-74.8293, 39.9872] }},
{"zip_code":"8076","country":"US","city":"Riverton","state":"New Jersey","state_ab":"NJ","county":"Burlington","geo_location":{ "type": "Point", "coordinates": [-74.7251, 39.8624] }},
{"zip_code":"8009","country":"US","city":"Berlin","state":"New Jersey","state_ab":"NJ","county":"Camden","geo_location":{ "type": "Point", "coordinates": [-74.9308, 39.7788] }},
{"zip_code":"8049","country":"US","city":"Magnolia","state":"New Jersey","state_ab":"NJ","county":"Camden","geo_location":{ "type": "Point", "coordinates": [-75.0393, 39.8538] }},
{"zip_code":"8089","country":"US","city":"Waterford Works","state":"New Jersey","state_ab":"NJ","county":"Camden","geo_location":{ "type": "Point", "coordinates": [-74.8609, 39.7215] }},
{"zip_code":"8100","country":"US","city":"Camden","state":"New Jersey","state_ab":"NJ","county":"Camden County","geo_location":{ "type": "Point", "coordinates": [-75.0722, 39.9532] }},
{"zip_code":"8230","country":"US","city":"Ocean View","state":"New Jersey","state_ab":"NJ","county":"Cape May","geo_location":{ "type": "Point", "coordinates": [-74.7075, 39.2154] }},
{"zip_code":"8243","country":"US","city":"Sea Isle City","state":"New Jersey","state_ab":"NJ","county":"Cape May","geo_location":{ "type": "Point", "coordinates": [-74.7005, 39.154] }},
{"zip_code":"8270","country":"US","city":"Woodbine","state":"New Jersey","state_ab":"NJ","county":"Cape May","geo_location":{ "type": "Point", "coordinates": [-74.7968, 39.2716] }},
{"zip_code":"8320","country":"US","city":"Fairton","state":"New Jersey","state_ab":"NJ","county":"Cumberland","geo_location":{ "type": "Point", "coordinates": [-75.2217, 39.3799] }},
{"zip_code":"8360","country":"US","city":"Vineland","state":"New Jersey","state_ab":"NJ","county":"Cumberland","geo_location":{ "type": "Point", "coordinates": [-75.0091, 39.4818] }},
{"zip_code":"7006","country":"US","city":"Caldwell","state":"New Jersey","state_ab":"NJ","county":"Essex","geo_location":{ "type": "Point", "coordinates": [-74.2789, 40.8545] }},
{"zip_code":"7019","country":"US","city":"East Orange","state":"New Jersey","state_ab":"NJ","county":"Essex","geo_location":{ "type": "Point", "coordinates": [-74.2452, 40.7918] }},
{"zip_code":"7109","country":"US","city":"Belleville","state":"New Jersey","state_ab":"NJ","county":"Essex","geo_location":{ "type": "Point", "coordinates": [-74.1631, 40.7946] }},
{"zip_code":"7110","country":"US","city":"Nutley","state":"New Jersey","state_ab":"NJ","county":"Essex","geo_location":{ "type": "Point", "coordinates": [-74.1589, 40.8185] }},
{"zip_code":"7189","country":"US","city":"Newark","state":"New Jersey","state_ab":"NJ","county":"Essex","geo_location":{ "type": "Point", "coordinates": [-74.2452, 40.7918] }},
{"zip_code":"8063","country":"US","city":"National Park","state":"New Jersey","state_ab":"NJ","county":"Gloucester","geo_location":{ "type": "Point", "coordinates": [-75.1794, 39.8664] }},
{"zip_code":"8090","country":"US","city":"Wenonah","state":"New Jersey","state_ab":"NJ","county":"Gloucester","geo_location":{ "type": "Point", "coordinates": [-75.1536, 39.7993] }},
{"zip_code":"7086","country":"US","city":"Weehawken","state":"New Jersey","state_ab":"NJ","county":"Hudson County","geo_location":{ "type": "Point", "coordinates": [-74.0208, 40.7681] }},
{"zip_code":"7099","country":"US","city":"Kearny","state":"New Jersey","state_ab":"NJ","county":"Hudson","geo_location":{ "type": "Point", "coordinates": [-74.0755, 40.7328] }},
{"zip_code":"7303","country":"US","city":"Jersey City","state":"New Jersey","state_ab":"NJ","county":"Hudson","geo_location":{ "type": "Point", "coordinates": [-74.0755, 40.7328] }},
{"zip_code":"8809","country":"US","city":"Clinton","state":"New Jersey","state_ab":"NJ","county":"Hunterdon","geo_location":{ "type": "Point", "coordinates": [-74.9088, 40.6412] }},
{"zip_code":"8889","country":"US","city":"Whitehouse Station","state":"New Jersey","state_ab":"NJ","county":"Hunterdon","geo_location":{ "type": "Point", "coordinates": [-74.7724, 40.6156] }},
{"zip_code":"8540","country":"US","city":"Princeton","state":"New Jersey","state_ab":"NJ","county":"Mercer","geo_location":{ "type": "Point", "coordinates": [-74.6408, 40.3666] }},
{"zip_code":"8603","country":"US","city":"Trenton","state":"New Jersey","state_ab":"NJ","county":"Mercer","geo_location":{ "type": "Point", "coordinates": [-74.712, 40.2805] }},
{"zip_code":"8629","country":"US","city":"Trenton","state":"New Jersey","state_ab":"NJ","county":"Mercer","geo_location":{ "type": "Point", "coordinates": [-74.7334, 40.2196] }},
{"zip_code":"8810","country":"US","city":"Dayton","state":"New Jersey","state_ab":"NJ","county":"Middlesex","geo_location":{ "type": "Point", "coordinates": [-74.5111, 40.3825] }},
{"zip_code":"8850","country":"US","city":"Milltown","state":"New Jersey","state_ab":"NJ","county":"Middlesex","geo_location":{ "type": "Point", "coordinates": [-74.439, 40.4493] }},
{"zip_code":"8863","country":"US","city":"Fords","state":"New Jersey","state_ab":"NJ","county":"Middlesex","geo_location":{ "type": "Point", "coordinates": [-74.3117, 40.5393] }},
{"zip_code":"7703","country":"US","city":"Fort Monmouth","state":"New Jersey","state_ab":"NJ","county":"Monmouth","geo_location":{ "type": "Point", "coordinates": [-74.039, 40.3177] }},
{"zip_code":"7716","country":"US","city":"Atlantic Highlands","state":"New Jersey","state_ab":"NJ","county":"Monmouth","geo_location":{ "type": "Point", "coordinates": [-74.0309, 40.4015] }},
{"zip_code":"7730","country":"US","city":"Hazlet","state":"New Jersey","state_ab":"NJ","county":"Monmouth","geo_location":{ "type": "Point", "coordinates": [-74.1799, 40.4226] }},
{"zip_code":"7756","country":"US","city":"Ocean Grove","state":"New Jersey","state_ab":"NJ","county":"Monmouth","geo_location":{ "type": "Point", "coordinates": [-74.0093, 40.2116] }},
{"zip_code":"8526","country":"US","city":"Imlaystown","state":"New Jersey","state_ab":"NJ","county":"Monmouth","geo_location":{ "type": "Point", "coordinates": [-74.4759, 40.1623] }},
{"zip_code":"8720","country":"US","city":"Allenwood","state":"New Jersey","state_ab":"NJ","county":"Monmouth","geo_location":{ "type": "Point", "coordinates": [-74.1122, 40.1389] }},
{"zip_code":"7046","country":"US","city":"Mountain Lakes","state":"New Jersey","state_ab":"NJ","county":"Morris","geo_location":{ "type": "Point", "coordinates": [-74.4415, 40.8904] }},
{"zip_code":"7806","country":"US","city":"Picatinny Arsenal","state":"New Jersey","state_ab":"NJ","county":"Morris","geo_location":{ "type": "Point", "coordinates": [-74.5783, 40.8673] }},
{"zip_code":"7936","country":"US","city":"East Hanover","state":"New Jersey","state_ab":"NJ","county":"Morris","geo_location":{ "type": "Point", "coordinates": [-74.3636, 40.8192] }},
{"zip_code":"7950","country":"US","city":"Morris Plains","state":"New Jersey","state_ab":"NJ","county":"Morris","geo_location":{ "type": "Point", "coordinates": [-74.4824, 40.8445] }},
{"zip_code":"7963","country":"US","city":"Morristown","state":"New Jersey","state_ab":"NJ","county":"Morris","geo_location":{ "type": "Point", "coordinates": [-74.5783, 40.8673] }},
{"zip_code":"7976","country":"US","city":"New Vernon","state":"New Jersey","state_ab":"NJ","county":"Morris","geo_location":{ "type": "Point", "coordinates": [-74.4845, 40.7347] }},
{"zip_code":"8050","country":"US","city":"Manahawkin","state":"New Jersey","state_ab":"NJ","county":"Ocean","geo_location":{ "type": "Point", "coordinates": [-74.2604, 39.705] }},
{"zip_code":"8733","country":"US","city":"Lakehurst","state":"New Jersey","state_ab":"NJ","county":"Ocean","geo_location":{ "type": "Point", "coordinates": [-74.3254, 40.0263] }},
{"zip_code":"8759","country":"US","city":"Whiting","state":"New Jersey","state_ab":"NJ","county":"Ocean","geo_location":{ "type": "Point", "coordinates": [-74.3607, 39.951] }},
{"zip_code":"7420","country":"US","city":"Haskell","state":"New Jersey","state_ab":"NJ","county":"Passaic","geo_location":{ "type": "Point", "coordinates": [-74.2965, 41.0301] }},
{"zip_code":"7509","country":"US","city":"Paterson","state":"New Jersey","state_ab":"NJ","county":"Passaic","geo_location":{ "type": "Point", "coordinates": [-74.3048, 41.0114] }},
{"zip_code":"7510","country":"US","city":"Paterson","state":"New Jersey","state_ab":"NJ","county":"Passaic","geo_location":{ "type": "Point", "coordinates": [-74.3048, 41.0114] }},
{"zip_code":"8023","country":"US","city":"Deepwater","state":"New Jersey","state_ab":"NJ","county":"Salem","geo_location":{ "type": "Point", "coordinates": [-75.4934, 39.6815] }},
{"zip_code":"7059","country":"US","city":"Warren","state":"New Jersey","state_ab":"NJ","county":"Somerset","geo_location":{ "type": "Point", "coordinates": [-74.5105, 40.6318] }},
{"zip_code":"8553","country":"US","city":"Rocky Hill","state":"New Jersey","state_ab":"NJ","county":"Somerset","geo_location":{ "type": "Point", "coordinates": [-74.64, 40.401] }},
{"zip_code":"8823","country":"US","city":"Franklin Park","state":"New Jersey","state_ab":"NJ","county":"Somerset","geo_location":{ "type": "Point", "coordinates": [-74.5369, 40.4421] }},
{"zip_code":"8836","country":"US","city":"Martinsville","state":"New Jersey","state_ab":"NJ","county":"Somerset","geo_location":{ "type": "Point", "coordinates": [-74.5572, 40.6] }},
{"zip_code":"8876","country":"US","city":"Somerville","state":"New Jersey","state_ab":"NJ","county":"Somerset","geo_location":{ "type": "Point", "coordinates": [-74.6874, 40.588] }},
{"zip_code":"8890","country":"US","city":"Zarephath","state":"New Jersey","state_ab":"NJ","county":"Somerset","geo_location":{ "type": "Point", "coordinates": [-74.5789, 40.5361] }},
{"zip_code":"7419","country":"US","city":"Hamburg","state":"New Jersey","state_ab":"NJ","county":"Sussex","geo_location":{ "type": "Point", "coordinates": [-74.5874, 41.1467] }},
{"zip_code":"7460","country":"US","city":"Stockholm","state":"New Jersey","state_ab":"NJ","county":"Sussex","geo_location":{ "type": "Point", "coordinates": [-74.5283, 41.0992] }},
{"zip_code":"7860","country":"US","city":"Newton","state":"New Jersey","state_ab":"NJ","county":"Sussex","geo_location":{ "type": "Point", "coordinates": [-74.8069, 41.0695] }},
{"zip_code":"7033","country":"US","city":"Kenilworth","state":"New Jersey","state_ab":"NJ","county":"Union","geo_location":{ "type": "Point", "coordinates": [-74.2944, 40.6759] }},
{"zip_code":"7060","country":"US","city":"Plainfield","state":"New Jersey","state_ab":"NJ","county":"Union","geo_location":{ "type": "Point", "coordinates": [-74.415, 40.6152] }},
{"zip_code":"13449","country":"US","city":"Rome","state":"New York","state_ab":"NY","county":"Oneida","geo_location":{ "type": "Point", "coordinates": [-75.478, 43.2393] }},
{"zip_code":"13476","country":"US","city":"Vernon","state":"New York","state_ab":"NY","county":"Oneida","geo_location":{ "type": "Point", "coordinates": [-75.5627, 43.0945] }},
{"zip_code":"13490","country":"US","city":"Westmoreland","state":"New York","state_ab":"NY","county":"Oneida","geo_location":{ "type": "Point", "coordinates": [-75.4533, 43.1017] }},
{"zip_code":"13063","country":"US","city":"Fabius","state":"New York","state_ab":"NY","county":"Onondaga","geo_location":{ "type": "Point", "coordinates": [-75.9836, 42.8531] }},
{"zip_code":"13089","country":"US","city":"Liverpool","state":"New York","state_ab":"NY","county":"Onondaga","geo_location":{ "type": "Point", "coordinates": [-76.1977, 43.0214] }},
{"zip_code":"13090","country":"US","city":"Liverpool","state":"New York","state_ab":"NY","county":"Onondaga","geo_location":{ "type": "Point", "coordinates": [-76.2235, 43.1528] }},
{"zip_code":"13153","country":"US","city":"Skaneateles Falls","state":"New York","state_ab":"NY","county":"Onondaga","geo_location":{ "type": "Point", "coordinates": [-76.4511, 42.9911] }},
{"zip_code":"13203","country":"US","city":"Syracuse","state":"New York","state_ab":"NY","county":"Onondaga","geo_location":{ "type": "Point", "coordinates": [-76.1369, 43.0607] }},
{"zip_code":"14453","country":"US","city":"Fishers","state":"New York","state_ab":"NY","county":"Ontario","geo_location":{ "type": "Point", "coordinates": [-77.4705, 43.0109] }},
{"zip_code":"10916","country":"US","city":"Campbell Hall","state":"New York","state_ab":"NY","county":"Orange","geo_location":{ "type": "Point", "coordinates": [-74.2505, 41.443] }},
{"zip_code":"10930","country":"US","city":"Highland Mills","state":"New York","state_ab":"NY","county":"Orange","geo_location":{ "type": "Point", "coordinates": [-74.1197, 41.3536] }},
{"zip_code":"10943","country":"US","city":"Middletown","state":"New York","state_ab":"NY","county":"Orange","geo_location":{ "type": "Point", "coordinates": [-74.3547, 41.3878] }},
{"zip_code":"10969","country":"US","city":"Pine Island","state":"New York","state_ab":"NY","county":"Orange","geo_location":{ "type": "Point", "coordinates": [-74.4888, 41.2926] }},
{"zip_code":"10996","country":"US","city":"West Point","state":"New York","state_ab":"NY","county":"Orange","geo_location":{ "type": "Point", "coordinates": [-73.9737, 41.3945] }},
{"zip_code":"12549","country":"US","city":"Montgomery","state":"New York","state_ab":"NY","county":"Orange","geo_location":{ "type": "Point", "coordinates": [-74.2534, 41.5333] }},
{"zip_code":"12550","country":"US","city":"Newburgh","state":"New York","state_ab":"NY","county":"Orange","geo_location":{ "type": "Point", "coordinates": [-74.0526, 41.5372] }},
{"zip_code":"12729","country":"US","city":"Cuddebackville","state":"New York","state_ab":"NY","county":"Orange","geo_location":{ "type": "Point", "coordinates": [-74.5976, 41.4776] }},
{"zip_code":"14103","country":"US","city":"Medina","state":"New York","state_ab":"NY","county":"Orleans","geo_location":{ "type": "Point", "coordinates": [-78.3874, 43.2184] }},
{"zip_code":"14479","country":"US","city":"Knowlesville","state":"New York","state_ab":"NY","county":"Orleans","geo_location":{ "type": "Point", "coordinates": [-78.3138, 43.2363] }},
{"zip_code":"13036","country":"US","city":"Central Square","state":"New York","state_ab":"NY","county":"Oswego","geo_location":{ "type": "Point", "coordinates": [-76.1849, 43.309] }},
{"zip_code":"13076","country":"US","city":"Hastings","state":"New York","state_ab":"NY","county":"Oswego","geo_location":{ "type": "Point", "coordinates": [-76.1477, 43.3527] }},
{"zip_code":"13126","country":"US","city":"Oswego","state":"New York","state_ab":"NY","county":"Oswego","geo_location":{ "type": "Point", "coordinates": [-76.4613, 43.4394] }},
{"zip_code":"13320","country":"US","city":"Cherry Valley","state":"New York","state_ab":"NY","county":"Otsego","geo_location":{ "type": "Point", "coordinates": [-74.7444, 42.7823] }},
{"zip_code":"13333","country":"US","city":"East Springfield","state":"New York","state_ab":"NY","county":"Otsego","geo_location":{ "type": "Point", "coordinates": [-74.8233, 42.8336] }},
{"zip_code":"13450","country":"US","city":"Roseboom","state":"New York","state_ab":"NY","county":"Otsego","geo_location":{ "type": "Point", "coordinates": [-74.8025, 42.708] }},
{"zip_code":"13810","country":"US","city":"Mount Vision","state":"New York","state_ab":"NY","county":"Otsego","geo_location":{ "type": "Point", "coordinates": [-75.1264, 42.6068] }},
{"zip_code":"13849","country":"US","city":"Unadilla","state":"New York","state_ab":"NY","county":"Otsego","geo_location":{ "type": "Point", "coordinates": [-75.3366, 42.3252] }},
{"zip_code":"10516","country":"US","city":"Cold Spring","state":"New York","state_ab":"NY","county":"Putnam","geo_location":{ "type": "Point", "coordinates": [-73.9335, 41.4414] }},
{"zip_code":"12563","country":"US","city":"Patterson","state":"New York","state_ab":"NY","county":"Putnam","geo_location":{ "type": "Point", "coordinates": [-73.5815, 41.4888] }},
{"zip_code":"11106","country":"US","city":"Astoria","state":"New York","state_ab":"NY","county":"Queens","geo_location":{ "type": "Point", "coordinates": [-73.9295, 40.7608] }},
{"zip_code":"11120","country":"US","city":"Long Island City","state":"New York","state_ab":"NY","county":"Queens","geo_location":{ "type": "Point", "coordinates": [-73.8708, 40.6514] }},
{"zip_code":"11353","country":"US","city":"Flushing","state":"New York","state_ab":"NY","county":"Queens","geo_location":{ "type": "Point", "coordinates": [-73.8708, 40.6514] }},
{"zip_code":"11366","country":"US","city":"Fresh Meadows","state":"New York","state_ab":"NY","county":"Queens","geo_location":{ "type": "Point", "coordinates": [-73.7949, 40.7272] }},
{"zip_code":"11379","country":"US","city":"Middle Village","state":"New York","state_ab":"NY","county":"Queens","geo_location":{ "type": "Point", "coordinates": [-73.8792, 40.7173] }},
{"zip_code":"11380","country":"US","city":"Elmhurst","state":"New York","state_ab":"NY","county":"Queens","geo_location":{ "type": "Point", "coordinates": [-73.8708, 40.6514] }},
{"zip_code":"11416","country":"US","city":"Ozone Park","state":"New York","state_ab":"NY","county":"Queens","geo_location":{ "type": "Point", "coordinates": [-73.8514, 40.6838] }},
{"zip_code":"11429","country":"US","city":"Queens Village","state":"New York","state_ab":"NY","county":"Queens","geo_location":{ "type": "Point", "coordinates": [-73.7401, 40.709] }},
{"zip_code":"11430","country":"US","city":"Jamaica","state":"New York","state_ab":"NY","county":"Queens","geo_location":{ "type": "Point", "coordinates": [-73.7827, 40.6472] }},
{"zip_code":"11470","country":"US","city":"Jamaica","state":"New York","state_ab":"NY","county":"Queens County","geo_location":{ "type": "Point", "coordinates": [-73.8061, 40.6914] }},
{"zip_code":"11690","country":"US","city":"Far Rockaway","state":"New York","state_ab":"NY","county":"Queens","geo_location":{ "type": "Point", "coordinates": [-73.8708, 40.6514] }},
{"zip_code":"12033","country":"US","city":"Castleton On Hudson","state":"New York","state_ab":"NY","county":"Rensselaer","geo_location":{ "type": "Point", "coordinates": [-73.7071, 42.5376] }},
{"zip_code":"12123","country":"US","city":"Nassau","state":"New York","state_ab":"NY","county":"Rensselaer","geo_location":{ "type": "Point", "coordinates": [-73.6118, 42.5271] }},
{"zip_code":"10309","country":"US","city":"Staten Island","state":"New York","state_ab":"NY","county":"Richmond","geo_location":{ "type": "Point", "coordinates": [-74.2116, 40.5352] }},
{"zip_code":"10310","country":"US","city":"Staten Island","state":"New York","state_ab":"NY","county":"Richmond","geo_location":{ "type": "Point", "coordinates": [-74.1171, 40.6324] }},
{"zip_code":"10956","country":"US","city":"New City","state":"New York","state_ab":"NY","county":"Rockland","geo_location":{ "type": "Point", "coordinates": [-73.9962, 41.1472] }},
{"zip_code":"10970","country":"US","city":"Pomona","state":"New York","state_ab":"NY","county":"Rockland","geo_location":{ "type": "Point", "coordinates": [-74.0436, 41.1901] }},
{"zip_code":"10983","country":"US","city":"Tappan","state":"New York","state_ab":"NY","county":"Rockland","geo_location":{ "type": "Point", "coordinates": [-73.9491, 41.0278] }},
{"zip_code":"12949","country":"US","city":"Lawrenceville","state":"New York","state_ab":"NY","county":"St. Lawrence","geo_location":{ "type": "Point", "coordinates": [-74.6604, 44.7469] }},
{"zip_code":"13630","country":"US","city":"De Kalb Junction","state":"New York","state_ab":"NY","county":"St. Lawrence","geo_location":{ "type": "Point", "coordinates": [-75.2871, 44.4896] }},
{"zip_code":"13669","country":"US","city":"Ogdensburg","state":"New York","state_ab":"NY","county":"St. Lawrence","geo_location":{ "type": "Point", "coordinates": [-75.4774, 44.6902] }},
{"zip_code":"13670","country":"US","city":"Oswegatchie","state":"New York","state_ab":"NY","county":"St. Lawrence","geo_location":{ "type": "Point", "coordinates": [-75.0659, 44.1933] }},
{"zip_code":"13683","country":"US","city":"Rooseveltown","state":"New York","state_ab":"NY","county":"St. Lawrence","geo_location":{ "type": "Point", "coordinates": [-75.1929, 44.5331] }},
{"zip_code":"13696","country":"US","city":"West Stockholm","state":"New York","state_ab":"NY","county":"St. Lawrence","geo_location":{ "type": "Point", "coordinates": [-74.9, 44.6956] }},
{"zip_code":"12019","country":"US","city":"Ballston Lake","state":"New York","state_ab":"NY","county":"Saratoga","geo_location":{ "type": "Point", "coordinates": [-73.8552, 42.9192] }},
{"zip_code":"12020","country":"US","city":"Ballston Spa","state":"New York","state_ab":"NY","county":"Saratoga","geo_location":{ "type": "Point", "coordinates": [-73.8486, 43.005] }},
{"zip_code":"12833","country":"US","city":"Greenfield Center","state":"New York","state_ab":"NY","county":"Saratoga","geo_location":{ "type": "Point", "coordinates": [-73.8398, 43.1401] }},
{"zip_code":"12859","country":"US","city":"Porter Corners","state":"New York","state_ab":"NY","county":"Saratoga","geo_location":{ "type": "Point", "coordinates": [-73.8839, 43.1724] }},
{"zip_code":"12150","country":"US","city":"Rotterdam Junction","state":"New York","state_ab":"NY","county":"Schenectady","geo_location":{ "type": "Point", "coordinates": [-74.0501, 42.87] }},
{"zip_code":"12303","country":"US","city":"Schenectady","state":"New York","state_ab":"NY","county":"Schenectady","geo_location":{ "type": "Point", "coordinates": [-73.9448, 42.7823] }},
{"zip_code":"12073","country":"US","city":"Gallupville","state":"New York","state_ab":"NY","county":"Schoharie","geo_location":{ "type": "Point", "coordinates": [-74.4381, 42.5923] }},
{"zip_code":"12149","country":"US","city":"Richmondville","state":"New York","state_ab":"NY","county":"Schoharie","geo_location":{ "type": "Point", "coordinates": [-74.571, 42.6424] }},
{"zip_code":"14893","country":"US","city":"Wayne","state":"New York","state_ab":"NY","county":"Schuyler","geo_location":{ "type": "Point", "coordinates": [-77.0977, 42.4741] }},
{"zip_code":"14529","country":"US","city":"Perkinsville","state":"New York","state_ab":"NY","county":"Steuben","geo_location":{ "type": "Point", "coordinates": [-77.6289, 42.5354] }},
{"zip_code":"14826","country":"US","city":"Cohocton","state":"New York","state_ab":"NY","county":"Steuben","geo_location":{ "type": "Point", "coordinates": [-77.4998, 42.5003] }},
{"zip_code":"14839","country":"US","city":"Greenwood","state":"New York","state_ab":"NY","county":"Steuben","geo_location":{ "type": "Point", "coordinates": [-77.636, 42.1398] }},
{"zip_code":"14840","country":"US","city":"Hammondsport","state":"New York","state_ab":"NY","county":"Steuben","geo_location":{ "type": "Point", "coordinates": [-77.1977, 42.4312] }},
{"zip_code":"14879","country":"US","city":"Savona","state":"New York","state_ab":"NY","county":"Steuben","geo_location":{ "type": "Point", "coordinates": [-77.2083, 42.3041] }},
{"zip_code":"11713","country":"US","city":"Bellport","state":"New York","state_ab":"NY","county":"Suffolk","geo_location":{ "type": "Point", "coordinates": [-72.9469, 40.7733] }},
{"zip_code":"11726","country":"US","city":"Copiague","state":"New York","state_ab":"NY","county":"Suffolk","geo_location":{ "type": "Point", "coordinates": [-73.3963, 40.6778] }},
{"zip_code":"11739","country":"US","city":"Great River","state":"New York","state_ab":"NY","county":"Suffolk","geo_location":{ "type": "Point", "coordinates": [-73.1607, 40.7297] }},
{"zip_code":"11740","country":"US","city":"Greenlawn","state":"New York","state_ab":"NY","county":"Suffolk","geo_location":{ "type": "Point", "coordinates": [-73.3646, 40.8621] }},
{"zip_code":"11766","country":"US","city":"Mount Sinai","state":"New York","state_ab":"NY","county":"Suffolk","geo_location":{ "type": "Point", "coordinates": [-73.0127, 40.9271] }},
{"zip_code":"11779","country":"US","city":"Ronkonkoma","state":"New York","state_ab":"NY","county":"Suffolk","geo_location":{ "type": "Point", "coordinates": [-73.1305, 40.8083] }},
{"zip_code":"11780","country":"US","city":"Saint James","state":"New York","state_ab":"NY","county":"Suffolk","geo_location":{ "type": "Point", "coordinates": [-73.1591, 40.8813] }},
{"zip_code":"11933","country":"US","city":"Calverton","state":"New York","state_ab":"NY","county":"Suffolk","geo_location":{ "type": "Point", "coordinates": [-72.7423, 40.9297] }},
{"zip_code":"11946","country":"US","city":"Hampton Bays","state":"New York","state_ab":"NY","county":"Suffolk","geo_location":{ "type": "Point", "coordinates": [-72.5202, 40.8726] }},
{"zip_code":"11959","country":"US","city":"Quogue","state":"New York","state_ab":"NY","county":"Suffolk","geo_location":{ "type": "Point", "coordinates": [-72.6012, 40.8226] }},
{"zip_code":"11960","country":"US","city":"Remsenburg","state":"New York","state_ab":"NY","county":"Suffolk","geo_location":{ "type": "Point", "coordinates": [-72.7064, 40.8086] }},
{"zip_code":"11973","country":"US","city":"Upton","state":"New York","state_ab":"NY","county":"Suffolk","geo_location":{ "type": "Point", "coordinates": [-72.8822, 40.8678] }},
{"zip_code":"12743","country":"US","city":"Highland Lake","state":"New York","state_ab":"NY","county":"Sullivan","geo_location":{ "type": "Point", "coordinates": [-74.8516, 41.5309] }},
{"zip_code":"12769","country":"US","city":"Phillipsport","state":"New York","state_ab":"NY","county":"Sullivan","geo_location":{ "type": "Point", "coordinates": [-74.4362, 41.6515] }},
{"zip_code":"12770","country":"US","city":"Pond Eddy","state":"New York","state_ab":"NY","county":"Sullivan","geo_location":{ "type": "Point", "coordinates": [-74.841, 41.4511] }},
{"zip_code":"12783","country":"US","city":"Swan Lake","state":"New York","state_ab":"NY","county":"Sullivan","geo_location":{ "type": "Point", "coordinates": [-74.8341, 41.7285] }},
{"zip_code":"14853","country":"US","city":"Ithaca","state":"New York","state_ab":"NY","county":"Tompkins","geo_location":{ "type": "Point", "coordinates": [-76.4837, 42.4474] }},
{"zip_code":"12419","country":"US","city":"Cottekill","state":"New York","state_ab":"NY","county":"Ulster","geo_location":{ "type": "Point", "coordinates": [-74.1038, 41.8467] }},
{"zip_code":"12420","country":"US","city":"Cragsmoor","state":"New York","state_ab":"NY","county":"Ulster","geo_location":{ "type": "Point", "coordinates": [-74.3801, 41.6698] }},
{"zip_code":"12433","country":"US","city":"Glenford","state":"New York","state_ab":"NY","county":"Ulster","geo_location":{ "type": "Point", "coordinates": [-74.1532, 42.0053] }},
{"zip_code":"12446","country":"US","city":"Kerhonkson","state":"New York","state_ab":"NY","county":"Ulster","geo_location":{ "type": "Point", "coordinates": [-74.3035, 41.7939] }},
{"zip_code":"12486","country":"US","city":"Tillson","state":"New York","state_ab":"NY","county":"Ulster","geo_location":{ "type": "Point", "coordinates": [-74.0626, 41.8338] }},
{"zip_code":"12589","country":"US","city":"Wallkill","state":"New York","state_ab":"NY","county":"Ulster","geo_location":{ "type": "Point", "coordinates": [-74.1439, 41.616] }},
{"zip_code":"12820","country":"US","city":"Cleverdale","state":"New York","state_ab":"NY","county":"Warren","geo_location":{ "type": "Point", "coordinates": [-73.6393, 43.4718] }},
{"zip_code":"12846","country":"US","city":"Lake Luzerne","state":"New York","state_ab":"NY","county":"Warren","geo_location":{ "type": "Point", "coordinates": [-73.8228, 43.3165] }},
{"zip_code":"12860","country":"US","city":"Pottersville","state":"New York","state_ab":"NY","county":"Warren","geo_location":{ "type": "Point", "coordinates": [-73.7844, 43.5928] }},
{"zip_code":"12886","country":"US","city":"Wevertown","state":"New York","state_ab":"NY","county":"Warren","geo_location":{ "type": "Point", "coordinates": [-73.9364, 43.6313] }},
{"zip_code":"12819","country":"US","city":"Clemons","state":"New York","state_ab":"NY","county":"Washington","geo_location":{ "type": "Point", "coordinates": [-73.4326, 43.6435] }},
{"zip_code":"12873","country":"US","city":"Shushan","state":"New York","state_ab":"NY","county":"Washington","geo_location":{ "type": "Point", "coordinates": [-73.3231, 43.1106] }},
{"zip_code":"14413","country":"US","city":"Alton","state":"New York","state_ab":"NY","county":"Wayne","geo_location":{ "type": "Point", "coordinates": [-76.9821, 43.2227] }},
{"zip_code":"14516","country":"US","city":"North Rose","state":"New York","state_ab":"NY","county":"Wayne","geo_location":{ "type": "Point", "coordinates": [-76.9152, 43.1964] }},
{"zip_code":"10503","country":"US","city":"Ardsley On Hudson","state":"New York","state_ab":"NY","county":"Westchester","geo_location":{ "type": "Point", "coordinates": [-73.8718, 41.0259] }},
{"zip_code":"10530","country":"US","city":"Hartsdale","state":"New York","state_ab":"NY","county":"Westchester","geo_location":{ "type": "Point", "coordinates": [-73.8074, 41.0197] }},
{"zip_code":"10543","country":"US","city":"Mamaroneck","state":"New York","state_ab":"NY","county":"Westchester","geo_location":{ "type": "Point", "coordinates": [-73.735, 40.9525] }},
{"zip_code":"10570","country":"US","city":"Pleasantville","state":"New York","state_ab":"NY","county":"Westchester","geo_location":{ "type": "Point", "coordinates": [-73.7845, 41.135] }},
{"zip_code":"10583","country":"US","city":"Scarsdale","state":"New York","state_ab":"NY","county":"Westchester","geo_location":{ "type": "Point", "coordinates": [-73.7995, 40.9927] }},
{"zip_code":"10596","country":"US","city":"Verplanck","state":"New York","state_ab":"NY","county":"Westchester","geo_location":{ "type": "Point", "coordinates": [-73.9587, 41.2548] }},
{"zip_code":"10606","country":"US","city":"White Plains","state":"New York","state_ab":"NY","county":"Westchester","geo_location":{ "type": "Point", "coordinates": [-73.7781, 41.0247] }},
{"zip_code":"10633","country":"US","city":"White Plains","state":"New York","state_ab":"NY","county":"Westchester","geo_location":{ "type": "Point", "coordinates": [-73.733, 41.119] }},
{"zip_code":"10709","country":"US","city":"Eastchester","state":"New York","state_ab":"NY","county":"Westchester","geo_location":{ "type": "Point", "coordinates": [-73.8086, 40.955] }},
{"zip_code":"10710","country":"US","city":"Yonkers","state":"New York","state_ab":"NY","county":"Westchester","geo_location":{ "type": "Point", "coordinates": [-73.8434, 40.9656] }},
{"zip_code":"14039","country":"US","city":"Dale","state":"New York","state_ab":"NY","county":"Wyoming","geo_location":{ "type": "Point", "coordinates": [-78.1749, 42.8263] }},
{"zip_code":"14066","country":"US","city":"Gainesville","state":"New York","state_ab":"NY","county":"Wyoming","geo_location":{ "type": "Point", "coordinates": [-78.1795, 42.619] }},
{"zip_code":"14130","country":"US","city":"Pike","state":"New York","state_ab":"NY","county":"Wyoming","geo_location":{ "type": "Point", "coordinates": [-78.1538, 42.5431] }},
{"zip_code":"14530","country":"US","city":"Perry","state":"New York","state_ab":"NY","county":"Wyoming","geo_location":{ "type": "Point", "coordinates": [-78.0059, 42.7229] }},
{"zip_code":"14569","country":"US","city":"Warsaw","state":"New York","state_ab":"NY","county":"Wyoming","geo_location":{ "type": "Point", "coordinates": [-78.1429, 42.741] }},
{"zip_code":"45660","country":"US","city":"Peebles","state":"Ohio","state_ab":"OH","county":"Adams","geo_location":{ "type": "Point", "coordinates": [-83.3687, 38.9869] }},
{"zip_code":"44010","country":"US","city":"Austinburg","state":"Ohio","state_ab":"OH","county":"Ashtabula","geo_location":{ "type": "Point", "coordinates": [-80.8584, 41.7554] }},
{"zip_code":"44076","country":"US","city":"Orwell","state":"Ohio","state_ab":"OH","county":"Ashtabula","geo_location":{ "type": "Point", "coordinates": [-80.8208, 41.5293] }},
{"zip_code":"45710","country":"US","city":"Albany","state":"Ohio","state_ab":"OH","county":"Athens","geo_location":{ "type": "Point", "coordinates": [-82.2177, 39.2097] }},
{"zip_code":"45723","country":"US","city":"Coolville","state":"Ohio","state_ab":"OH","county":"Athens","geo_location":{ "type": "Point", "coordinates": [-81.8329, 39.2141] }},
{"zip_code":"45776","country":"US","city":"Shade","state":"Ohio","state_ab":"OH","county":"Athens","geo_location":{ "type": "Point", "coordinates": [-82.0218, 39.2129] }},
{"zip_code":"43909","country":"US","city":"Blaine","state":"Ohio","state_ab":"OH","county":"Belmont","geo_location":{ "type": "Point", "coordinates": [-80.8176, 40.0701] }},
{"zip_code":"43950","country":"US","city":"Saint Clairsville","state":"Ohio","state_ab":"OH","county":"Belmont","geo_location":{ "type": "Point", "coordinates": [-80.9788, 40.0778] }},
{"zip_code":"45130","country":"US","city":"Hamersville","state":"Ohio","state_ab":"OH","county":"Brown","geo_location":{ "type": "Point", "coordinates": [-83.9931, 38.92] }},
{"zip_code":"45013","country":"US","city":"Hamilton","state":"Ohio","state_ab":"OH","county":"Butler","geo_location":{ "type": "Point", "coordinates": [-84.6185, 39.4361] }},
{"zip_code":"45026","country":"US","city":"Hamilton","state":"Ohio","state_ab":"OH","county":"Butler","geo_location":{ "type": "Point", "coordinates": [-84.5757, 39.441] }},
{"zip_code":"45053","country":"US","city":"Okeana","state":"Ohio","state_ab":"OH","county":"Butler","geo_location":{ "type": "Point", "coordinates": [-84.7761, 39.3537] }},
{"zip_code":"43060","country":"US","city":"North Lewisburg","state":"Ohio","state_ab":"OH","county":"Champaign","geo_location":{ "type": "Point", "coordinates": [-83.5615, 40.2229] }},
{"zip_code":"45389","country":"US","city":"Christiansburg","state":"Ohio","state_ab":"OH","county":"Champaign","geo_location":{ "type": "Point", "coordinates": [-84.0254, 40.0564] }},
{"zip_code":"45323","country":"US","city":"Enon","state":"Ohio","state_ab":"OH","county":"Clark","geo_location":{ "type": "Point", "coordinates": [-83.9385, 39.8663] }},
{"zip_code":"45349","country":"US","city":"North Hampton","state":"Ohio","state_ab":"OH","county":"Clark","geo_location":{ "type": "Point", "coordinates": [-83.9389, 39.9893] }},
{"zip_code":"45503","country":"US","city":"Springfield","state":"Ohio","state_ab":"OH","county":"Clark","geo_location":{ "type": "Point", "coordinates": [-83.7804, 39.9528] }},
{"zip_code":"45103","country":"US","city":"Batavia","state":"Ohio","state_ab":"OH","county":"Clermont","geo_location":{ "type": "Point", "coordinates": [-84.1451, 39.0957] }},
{"zip_code":"45156","country":"US","city":"Neville","state":"Ohio","state_ab":"OH","county":"Clermont","geo_location":{ "type": "Point", "coordinates": [-84.2049, 38.8156] }},
{"zip_code":"45169","country":"US","city":"Sabina","state":"Ohio","state_ab":"OH","county":"Clinton","geo_location":{ "type": "Point", "coordinates": [-83.6503, 39.49] }},
{"zip_code":"44423","country":"US","city":"Hanoverton","state":"Ohio","state_ab":"OH","county":"Columbiana","geo_location":{ "type": "Point", "coordinates": [-80.9144, 40.7731] }},
{"zip_code":"44490","country":"US","city":"Washingtonville","state":"Ohio","state_ab":"OH","county":"Columbiana","geo_location":{ "type": "Point", "coordinates": [-80.7631, 40.8973] }},
{"zip_code":"44113","country":"US","city":"Cleveland","state":"Ohio","state_ab":"OH","county":"Cuyahoga","geo_location":{ "type": "Point", "coordinates": [-81.7018, 41.4816] }},
{"zip_code":"44126","country":"US","city":"Cleveland","state":"Ohio","state_ab":"OH","county":"Cuyahoga","geo_location":{ "type": "Point", "coordinates": [-81.853, 41.4429] }},
{"zip_code":"44139","country":"US","city":"Solon","state":"Ohio","state_ab":"OH","county":"Cuyahoga","geo_location":{ "type": "Point", "coordinates": [-81.4421, 41.3866] }},
{"zip_code":"44140","country":"US","city":"Bay Village","state":"Ohio","state_ab":"OH","county":"Cuyahoga","geo_location":{ "type": "Point", "coordinates": [-81.9289, 41.4841] }},
{"zip_code":"44179","country":"US","city":"Cleveland","state":"Ohio","state_ab":"OH","county":"Cuyahoga","geo_location":{ "type": "Point", "coordinates": [-81.6728, 41.6857] }},
{"zip_code":"44193","country":"US","city":"Cleveland","state":"Ohio","state_ab":"OH","county":"Cuyahoga","geo_location":{ "type": "Point", "coordinates": [-81.6728, 41.6857] }},
{"zip_code":"45350","country":"US","city":"North Star","state":"Ohio","state_ab":"OH","county":"Darke","geo_location":{ "type": "Point", "coordinates": [-84.5737, 40.3243] }},
{"zip_code":"45390","country":"US","city":"Union City","state":"Ohio","state_ab":"OH","county":"Darke","geo_location":{ "type": "Point", "coordinates": [-84.7832, 40.2018] }},
{"zip_code":"43536","country":"US","city":"Mark Center","state":"Ohio","state_ab":"OH","county":"Defiance","geo_location":{ "type": "Point", "coordinates": [-84.6278, 41.2917] }},
{"zip_code":"43549","country":"US","city":"Ney","state":"Ohio","state_ab":"OH","county":"Defiance","geo_location":{ "type": "Point", "coordinates": [-84.5269, 41.3781] }},
{"zip_code":"44089","country":"US","city":"Vermilion","state":"Ohio","state_ab":"OH","county":"Erie","geo_location":{ "type": "Point", "coordinates": [-82.3554, 41.41] }},
{"zip_code":"43046","country":"US","city":"Millersport","state":"Ohio","state_ab":"OH","county":"Fairfield","geo_location":{ "type": "Point", "coordinates": [-82.5283, 39.8993] }},
{"zip_code":"43110","country":"US","city":"Canal Winchester","state":"Ohio","state_ab":"OH","county":"Fairfield","geo_location":{ "type": "Point", "coordinates": [-82.8044, 39.8349] }},
{"zip_code":"43136","country":"US","city":"Lithopolis","state":"Ohio","state_ab":"OH","county":"Fairfield","geo_location":{ "type": "Point", "coordinates": [-82.8125, 39.8013] }},
{"zip_code":"43150","country":"US","city":"Rushville","state":"Ohio","state_ab":"OH","county":"Fairfield","geo_location":{ "type": "Point", "coordinates": [-82.428, 39.7674] }},
{"zip_code":"43163","country":"US","city":"West Rushville","state":"Ohio","state_ab":"OH","county":"Fairfield","geo_location":{ "type": "Point", "coordinates": [-82.447, 39.7631] }},
{"zip_code":"43086","country":"US","city":"Westerville","state":"Ohio","state_ab":"OH","county":"Franklin","geo_location":{ "type": "Point", "coordinates": [-83.0114, 39.969] }},
{"zip_code":"43099","country":"US","city":"Blacklick","state":"Ohio","state_ab":"OH","county":"Franklin County","geo_location":{ "type": "Point", "coordinates": [-82.8114, 39.9956] }},
{"zip_code":"43109","country":"US","city":"Brice","state":"Ohio","state_ab":"OH","county":"Franklin","geo_location":{ "type": "Point", "coordinates": [-82.8461, 39.9242] }},
{"zip_code":"43123","country":"US","city":"Grove City","state":"Ohio","state_ab":"OH","county":"Franklin","geo_location":{ "type": "Point", "coordinates": [-83.0839, 39.8814] }},
{"zip_code":"43213","country":"US","city":"Columbus","state":"Ohio","state_ab":"OH","county":"Franklin","geo_location":{ "type": "Point", "coordinates": [-82.8329, 39.9727] }},
{"zip_code":"43226","country":"US","city":"Columbus","state":"Ohio","state_ab":"OH","county":"Franklin","geo_location":{ "type": "Point", "coordinates": [-83.0114, 39.969] }},
{"zip_code":"43240","country":"US","city":"Columbus","state":"Ohio","state_ab":"OH","county":"Franklin","geo_location":{ "type": "Point", "coordinates": [-82.9817, 40.1454] }},
{"zip_code":"43266","country":"US","city":"Columbus","state":"Ohio","state_ab":"OH","county":"Franklin","geo_location":{ "type": "Point", "coordinates": [-83.0114, 39.969] }},
{"zip_code":"43279","country":"US","city":"Columbus","state":"Ohio","state_ab":"OH","county":"Franklin","geo_location":{ "type": "Point", "coordinates": [-83.0114, 39.969] }},
{"zip_code":"45620","country":"US","city":"Cheshire","state":"Ohio","state_ab":"OH","county":"Gallia","geo_location":{ "type": "Point", "coordinates": [-82.1235, 38.9587] }},
{"zip_code":"45686","country":"US","city":"Vinton","state":"Ohio","state_ab":"OH","county":"Gallia","geo_location":{ "type": "Point", "coordinates": [-82.357, 38.9783] }},
{"zip_code":"44023","country":"US","city":"Chagrin Falls","state":"Ohio","state_ab":"OH","county":"Geauga","geo_location":{ "type": "Point", "coordinates": [-81.3042, 41.3872] }},
{"zip_code":"45206","country":"US","city":"Cincinnati","state":"Ohio","state_ab":"OH","county":"Hamilton","geo_location":{ "type": "Point", "coordinates": [-84.4853, 39.1269] }},
{"zip_code":"45219","country":"US","city":"Cincinnati","state":"Ohio","state_ab":"OH","county":"Hamilton","geo_location":{ "type": "Point", "coordinates": [-84.5131, 39.127] }},
{"zip_code":"45220","country":"US","city":"Cincinnati","state":"Ohio","state_ab":"OH","county":"Hamilton","geo_location":{ "type": "Point", "coordinates": [-84.5217, 39.1432] }},
{"zip_code":"45233","country":"US","city":"Cincinnati","state":"Ohio","state_ab":"OH","county":"Hamilton","geo_location":{ "type": "Point", "coordinates": [-84.6594, 39.111] }},
{"zip_code":"45246","country":"US","city":"Cincinnati","state":"Ohio","state_ab":"OH","county":"Hamilton","geo_location":{ "type": "Point", "coordinates": [-84.4744, 39.2839] }},
{"zip_code":"45273","country":"US","city":"Cincinnati","state":"Ohio","state_ab":"OH","county":"Hamilton","geo_location":{ "type": "Point", "coordinates": [-84.5382, 39.1668] }},
{"zip_code":"45299","country":"US","city":"Cincinnati","state":"Ohio","state_ab":"OH","county":"Hamilton","geo_location":{ "type": "Point", "coordinates": [-84.5093, 39.2622] }},
{"zip_code":"45839","country":"US","city":"Findlay","state":"Ohio","state_ab":"OH","county":"Hancock","geo_location":{ "type": "Point", "coordinates": [-83.6507, 40.9933] }},
{"zip_code":"45840","country":"US","city":"Findlay","state":"Ohio","state_ab":"OH","county":"Hancock","geo_location":{ "type": "Point", "coordinates": [-83.6457, 41.0449] }},
{"zip_code":"43976","country":"US","city":"Hopedale","state":"Ohio","state_ab":"OH","county":"Harrison","geo_location":{ "type": "Point", "coordinates": [-80.9021, 40.3496] }},
{"zip_code":"43989","country":"US","city":"Short Creek","state":"Ohio","state_ab":"OH","county":"Harrison","geo_location":{ "type": "Point", "coordinates": [-81.1025, 40.2965] }},
{"zip_code":"43510","country":"US","city":"Colton","state":"Ohio","state_ab":"OH","county":"Henry","geo_location":{ "type": "Point", "coordinates": [-84.0137, 41.4199] }},
{"zip_code":"43523","country":"US","city":"Grelton","state":"Ohio","state_ab":"OH","county":"Henry","geo_location":{ "type": "Point", "coordinates": [-84.0005, 41.3411] }},
{"zip_code":"43550","country":"US","city":"Okolona","state":"Ohio","state_ab":"OH","county":"Henry","geo_location":{ "type": "Point", "coordinates": [-84.1117, 41.3267] }},
{"zip_code":"43149","country":"US","city":"Rockbridge","state":"Ohio","state_ab":"OH","county":"Hocking","geo_location":{ "type": "Point", "coordinates": [-82.5626, 39.5509] }},
{"zip_code":"44850","country":"US","city":"New Haven","state":"Ohio","state_ab":"OH","county":"Huron","geo_location":{ "type": "Point", "coordinates": [-82.677, 41.035] }},
{"zip_code":"44889","country":"US","city":"Wakeman","state":"Ohio","state_ab":"OH","county":"Huron","geo_location":{ "type": "Point", "coordinates": [-82.3782, 41.2637] }},
{"zip_code":"44890","country":"US","city":"Willard","state":"Ohio","state_ab":"OH","county":"Huron","geo_location":{ "type": "Point", "coordinates": [-82.7288, 41.0628] }},
{"zip_code":"43910","country":"US","city":"Bloomingdale","state":"Ohio","state_ab":"OH","county":"Jefferson","geo_location":{ "type": "Point", "coordinates": [-80.8072, 40.3742] }},
{"zip_code":"43963","country":"US","city":"Tiltonsville","state":"Ohio","state_ab":"OH","county":"Jefferson","geo_location":{ "type": "Point", "coordinates": [-80.6996, 40.1681] }},
{"zip_code":"43006","country":"US","city":"Brinkhaven","state":"Ohio","state_ab":"OH","county":"Knox","geo_location":{ "type": "Point", "coordinates": [-82.1553, 40.4583] }},
{"zip_code":"43019","country":"US","city":"Fredericktown","state":"Ohio","state_ab":"OH","county":"Knox","geo_location":{ "type": "Point", "coordinates": [-82.5857, 40.4976] }},
{"zip_code":"45619","country":"US","city":"Chesapeake","state":"Ohio","state_ab":"OH","county":"Lawrence","geo_location":{ "type": "Point", "coordinates": [-82.4504, 38.4551] }}]}