{"value": [{"zip_code":"73901","country":"US","city":"Adams","state":"Oklahoma","state_ab":"OK","county":"Texas","geo_location":{ "type": "Point", "coordinates": [-101.078, 36.755] }},
{"zip_code":"74104","country":"US","city":"Tulsa","state":"Oklahoma","state_ab":"OK","county":"Tulsa","geo_location":{ "type": "Point", "coordinates": [-95.9526, 36.1464] }},
{"zip_code":"74117","country":"US","city":"Tulsa","state":"Oklahoma","state_ab":"OK","county":"Tulsa","geo_location":{ "type": "Point", "coordinates": [-95.8979, 36.2393] }},
{"zip_code":"74157","country":"US","city":"Tulsa","state":"Oklahoma","state_ab":"OK","county":"Tulsa","geo_location":{ "type": "Point", "coordinates": [-96.0297, 36.1398] }},
{"zip_code":"74171","country":"US","city":"Tulsa","state":"Oklahoma","state_ab":"OK","county":"Tulsa","geo_location":{ "type": "Point", "coordinates": [-95.9577, 36.0543] }},
{"zip_code":"74184","country":"US","city":"Tulsa","state":"Oklahoma","state_ab":"OK","county":"Tulsa","geo_location":{ "type": "Point", "coordinates": [-96.0297, 36.1398] }},
{"zip_code":"74014","country":"US","city":"Broken Arrow","state":"Oklahoma","state_ab":"OK","county":"Wagoner","geo_location":{ "type": "Point", "coordinates": [-95.7223, 36.0544] }},
{"zip_code":"74454","country":"US","city":"Porter","state":"Oklahoma","state_ab":"OK","county":"Wagoner","geo_location":{ "type": "Point", "coordinates": [-95.5082, 35.8567] }},
{"zip_code":"74467","country":"US","city":"Wagoner","state":"Oklahoma","state_ab":"OK","county":"Wagoner","geo_location":{ "type": "Point", "coordinates": [-95.354, 35.9549] }},
{"zip_code":"73024","country":"US","city":"Corn","state":"Oklahoma","state_ab":"OK","county":"Washita","geo_location":{ "type": "Point", "coordinates": [-98.7818, 35.3784] }},
{"zip_code":"97884","country":"US","city":"Unity","state":"Oregon","state_ab":"OR","county":"Baker","geo_location":{ "type": "Point", "coordinates": [-118.1627, 44.4491] }},
{"zip_code":"97907","country":"US","city":"Huntington","state":"Oregon","state_ab":"OR","county":"Baker","geo_location":{ "type": "Point", "coordinates": [-117.3097, 44.3811] }},
{"zip_code":"97004","country":"US","city":"Beavercreek","state":"Oregon","state_ab":"OR","county":"Clackamas","geo_location":{ "type": "Point", "coordinates": [-122.4751, 45.2597] }},
{"zip_code":"97017","country":"US","city":"Colton","state":"Oregon","state_ab":"OR","county":"Clackamas","geo_location":{ "type": "Point", "coordinates": [-122.4248, 45.1573] }},
{"zip_code":"97121","country":"US","city":"Hammond","state":"Oregon","state_ab":"OR","county":"Clatsop","geo_location":{ "type": "Point", "coordinates": [-123.9527, 46.198] }},
{"zip_code":"97754","country":"US","city":"Prineville","state":"Oregon","state_ab":"OR","county":"Crook","geo_location":{ "type": "Point", "coordinates": [-120.8336, 44.3045] }},
{"zip_code":"97444","country":"US","city":"Gold Beach","state":"Oregon","state_ab":"OR","county":"Curry","geo_location":{ "type": "Point", "coordinates": [-124.3344, 42.4101] }},
{"zip_code":"97701","country":"US","city":"Bend","state":"Oregon","state_ab":"OR","county":"Deschutes","geo_location":{ "type": "Point", "coordinates": [-121.2936, 44.0928] }},
{"zip_code":"97417","country":"US","city":"Canyonville","state":"Oregon","state_ab":"OR","county":"Douglas","geo_location":{ "type": "Point", "coordinates": [-123.278, 42.9307] }},
{"zip_code":"97457","country":"US","city":"Myrtle Creek","state":"Oregon","state_ab":"OR","county":"Douglas","geo_location":{ "type": "Point", "coordinates": [-123.2851, 43.0162] }},
{"zip_code":"97471","country":"US","city":"Roseburg","state":"Oregon","state_ab":"OR","county":"Douglas","geo_location":{ "type": "Point", "coordinates": [-123.5158, 43.227] }},
{"zip_code":"97484","country":"US","city":"Tiller","state":"Oregon","state_ab":"OR","county":"Douglas","geo_location":{ "type": "Point", "coordinates": [-122.9079, 42.9177] }},
{"zip_code":"97817","country":"US","city":"Bates","state":"Oregon","state_ab":"OR","county":"Grant","geo_location":{ "type": "Point", "coordinates": [-118.6469, 44.7138] }},
{"zip_code":"97831","country":"US","city":"Fox","state":"Oregon","state_ab":"OR","county":"Grant","geo_location":{ "type": "Point", "coordinates": [-118.9478, 44.4778] }},
{"zip_code":"97031","country":"US","city":"Hood River","state":"Oregon","state_ab":"OR","county":"Hood River","geo_location":{ "type": "Point", "coordinates": [-121.5391, 45.6711] }},
{"zip_code":"97044","country":"US","city":"Odell","state":"Oregon","state_ab":"OR","county":"Hood River","geo_location":{ "type": "Point", "coordinates": [-121.5367, 45.6437] }},
{"zip_code":"97741","country":"US","city":"Madras","state":"Oregon","state_ab":"OR","county":"Jefferson","geo_location":{ "type": "Point", "coordinates": [-121.1349, 44.6376] }},
{"zip_code":"97497","country":"US","city":"Wolf Creek","state":"Oregon","state_ab":"OR","county":"Josephine","geo_location":{ "type": "Point", "coordinates": [-123.425, 42.6522] }},
{"zip_code":"97534","country":"US","city":"O Brien","state":"Oregon","state_ab":"OR","county":"Josephine","geo_location":{ "type": "Point", "coordinates": [-123.689, 42.0879] }},
{"zip_code":"97624","country":"US","city":"Chiloquin","state":"Oregon","state_ab":"OR","county":"Klamath","geo_location":{ "type": "Point", "coordinates": [-121.745, 42.5463] }},
{"zip_code":"97637","country":"US","city":"Plush","state":"Oregon","state_ab":"OR","county":"Lake","geo_location":{ "type": "Point", "coordinates": [-119.8947, 42.5035] }},
{"zip_code":"97404","country":"US","city":"Eugene","state":"Oregon","state_ab":"OR","county":"Lane","geo_location":{ "type": "Point", "coordinates": [-123.1334, 44.1005] }},
{"zip_code":"97431","country":"US","city":"Dexter","state":"Oregon","state_ab":"OR","county":"Lane","geo_location":{ "type": "Point", "coordinates": [-122.8424, 43.9217] }},
{"zip_code":"97341","country":"US","city":"Depoe Bay","state":"Oregon","state_ab":"OR","county":"Lincoln","geo_location":{ "type": "Point", "coordinates": [-124.0503, 44.8322] }},
{"zip_code":"97367","country":"US","city":"Lincoln City","state":"Oregon","state_ab":"OR","county":"Lincoln","geo_location":{ "type": "Point", "coordinates": [-123.9888, 44.9089] }},
{"zip_code":"97394","country":"US","city":"Waldport","state":"Oregon","state_ab":"OR","county":"Lincoln","geo_location":{ "type": "Point", "coordinates": [-124.0351, 44.4085] }},
{"zip_code":"97327","country":"US","city":"Brownsville","state":"Oregon","state_ab":"OR","county":"Linn","geo_location":{ "type": "Point", "coordinates": [-122.9485, 44.377] }},
{"zip_code":"97071","country":"US","city":"Woodburn","state":"Oregon","state_ab":"OR","county":"Marion","geo_location":{ "type": "Point", "coordinates": [-122.8583, 45.1446] }},
{"zip_code":"97301","country":"US","city":"Salem","state":"Oregon","state_ab":"OR","county":"Marion","geo_location":{ "type": "Point", "coordinates": [-123.004, 44.949] }},
{"zip_code":"97314","country":"US","city":"Salem","state":"Oregon","state_ab":"OR","county":"Marion","geo_location":{ "type": "Point", "coordinates": [-123.0066, 44.9655] }},
{"zip_code":"97381","country":"US","city":"Silverton","state":"Oregon","state_ab":"OR","county":"Marion","geo_location":{ "type": "Point", "coordinates": [-122.7627, 44.991] }},
{"zip_code":"97844","country":"US","city":"Irrigon","state":"Oregon","state_ab":"OR","county":"Morrow","geo_location":{ "type": "Point", "coordinates": [-119.507, 45.8877] }},
{"zip_code":"97211","country":"US","city":"Portland","state":"Oregon","state_ab":"OR","county":"Multnomah","geo_location":{ "type": "Point", "coordinates": [-122.6448, 45.5653] }},
{"zip_code":"97251","country":"US","city":"Portland","state":"Oregon","state_ab":"OR","county":"Multnomah","geo_location":{ "type": "Point", "coordinates": [-122.3748, 45.5806] }},
{"zip_code":"97107","country":"US","city":"Bay City","state":"Oregon","state_ab":"OR","county":"Tillamook","geo_location":{ "type": "Point", "coordinates": [-123.8761, 45.5197] }},
{"zip_code":"97134","country":"US","city":"Oceanside","state":"Oregon","state_ab":"OR","county":"Tillamook","geo_location":{ "type": "Point", "coordinates": [-123.965, 45.4549] }},
{"zip_code":"97147","country":"US","city":"Wheeler","state":"Oregon","state_ab":"OR","county":"Tillamook","geo_location":{ "type": "Point", "coordinates": [-123.8816, 45.6888] }},
{"zip_code":"97857","country":"US","city":"Lostine","state":"Oregon","state_ab":"OR","county":"Wallowa","geo_location":{ "type": "Point", "coordinates": [-117.4359, 45.4939] }},
{"zip_code":"97057","country":"US","city":"Shaniko","state":"Oregon","state_ab":"OR","county":"Wasco","geo_location":{ "type": "Point", "coordinates": [-120.75, 45.0027] }},
{"zip_code":"97224","country":"US","city":"Portland","state":"Oregon","state_ab":"OR","county":"Washington","geo_location":{ "type": "Point", "coordinates": [-122.8014, 45.4094] }},
{"zip_code":"97291","country":"US","city":"Portland","state":"Oregon","state_ab":"OR","county":"Washington","geo_location":{ "type": "Point", "coordinates": [-123.1147, 45.5486] }},
{"zip_code":"17301","country":"US","city":"Abbottstown","state":"Pennsylvania","state_ab":"PA","county":"Adams","geo_location":{ "type": "Point", "coordinates": [-76.9931, 39.8881] }},
{"zip_code":"15024","country":"US","city":"Cheswick","state":"Pennsylvania","state_ab":"PA","county":"Allegheny","geo_location":{ "type": "Point", "coordinates": [-79.841, 40.5681] }},
{"zip_code":"15037","country":"US","city":"Elizabeth","state":"Pennsylvania","state_ab":"PA","county":"Allegheny","geo_location":{ "type": "Point", "coordinates": [-79.8568, 40.2656] }},
{"zip_code":"15051","country":"US","city":"Indianola","state":"Pennsylvania","state_ab":"PA","county":"Allegheny","geo_location":{ "type": "Point", "coordinates": [-80.0248, 40.4344] }},
{"zip_code":"15064","country":"US","city":"Morgan","state":"Pennsylvania","state_ab":"PA","county":"Allegheny","geo_location":{ "type": "Point", "coordinates": [-80.1415, 40.3559] }},
{"zip_code":"15091","country":"US","city":"Wildwood","state":"Pennsylvania","state_ab":"PA","county":"Allegheny","geo_location":{ "type": "Point", "coordinates": [-80.0248, 40.4344] }},
{"zip_code":"15101","country":"US","city":"Allison Park","state":"Pennsylvania","state_ab":"PA","county":"Allegheny","geo_location":{ "type": "Point", "coordinates": [-79.9665, 40.57] }},
{"zip_code":"15127","country":"US","city":"Ingomar","state":"Pennsylvania","state_ab":"PA","county":"Allegheny","geo_location":{ "type": "Point", "coordinates": [-80.0248, 40.4344] }},
{"zip_code":"15204","country":"US","city":"Pittsburgh","state":"Pennsylvania","state_ab":"PA","county":"Allegheny","geo_location":{ "type": "Point", "coordinates": [-80.0644, 40.4554] }},
{"zip_code":"15217","country":"US","city":"Pittsburgh","state":"Pennsylvania","state_ab":"PA","county":"Allegheny","geo_location":{ "type": "Point", "coordinates": [-79.9205, 40.4308] }},
{"zip_code":"15231","country":"US","city":"Pittsburgh","state":"Pennsylvania","state_ab":"PA","county":"Allegheny","geo_location":{ "type": "Point", "coordinates": [-80.0248, 40.4344] }},
{"zip_code":"15244","country":"US","city":"Pittsburgh","state":"Pennsylvania","state_ab":"PA","county":"Allegheny","geo_location":{ "type": "Point", "coordinates": [-80.0248, 40.4344] }},
{"zip_code":"15257","country":"US","city":"Pittsburgh","state":"Pennsylvania","state_ab":"PA","county":"Allegheny","geo_location":{ "type": "Point", "coordinates": [-80.0248, 40.4344] }},
{"zip_code":"15774","country":"US","city":"Shelocta","state":"Pennsylvania","state_ab":"PA","county":"Armstrong","geo_location":{ "type": "Point", "coordinates": [-79.3191, 40.6388] }},
{"zip_code":"49861","country":"US","city":"Michigamme","state":"Michigan","state_ab":"MI","county":"Marquette","geo_location":{ "type": "Point", "coordinates": [-88.0914, 46.5308] }},
{"zip_code":"49821","country":"US","city":"Daggett","state":"Michigan","state_ab":"MI","county":"Menominee","geo_location":{ "type": "Point", "coordinates": [-87.6079, 45.4887] }},
{"zip_code":"49847","country":"US","city":"Hermansville","state":"Michigan","state_ab":"MI","county":"Menominee","geo_location":{ "type": "Point", "coordinates": [-87.6227, 45.7149] }},
{"zip_code":"49874","country":"US","city":"Powers","state":"Michigan","state_ab":"MI","county":"Menominee","geo_location":{ "type": "Point", "coordinates": [-87.5319, 45.6792] }},
{"zip_code":"49887","country":"US","city":"Stephenson","state":"Michigan","state_ab":"MI","county":"Menominee","geo_location":{ "type": "Point", "coordinates": [-87.6258, 45.4166] }},
{"zip_code":"49667","country":"US","city":"Merritt","state":"Michigan","state_ab":"MI","county":"Missaukee","geo_location":{ "type": "Point", "coordinates": [-84.9446, 44.3433] }},
{"zip_code":"48161","country":"US","city":"Monroe","state":"Michigan","state_ab":"MI","county":"Monroe","geo_location":{ "type": "Point", "coordinates": [-83.4719, 41.908] }},
{"zip_code":"49267","country":"US","city":"Ottawa Lake","state":"Michigan","state_ab":"MI","county":"Monroe","geo_location":{ "type": "Point", "coordinates": [-83.6856, 41.7683] }},
{"zip_code":"48884","country":"US","city":"Sheridan","state":"Michigan","state_ab":"MI","county":"Montcalm","geo_location":{ "type": "Point", "coordinates": [-85.0468, 43.2126] }},
{"zip_code":"49461","country":"US","city":"Whitehall","state":"Michigan","state_ab":"MI","county":"Muskegon","geo_location":{ "type": "Point", "coordinates": [-86.3315, 43.3904] }},
{"zip_code":"48017","country":"US","city":"Clawson","state":"Michigan","state_ab":"MI","county":"Oakland","geo_location":{ "type": "Point", "coordinates": [-83.1503, 42.5365] }},
{"zip_code":"48071","country":"US","city":"Madison Heights","state":"Michigan","state_ab":"MI","county":"Oakland","geo_location":{ "type": "Point", "coordinates": [-83.1027, 42.5016] }},
{"zip_code":"48084","country":"US","city":"Troy","state":"Michigan","state_ab":"MI","county":"Oakland","geo_location":{ "type": "Point", "coordinates": [-83.1799, 42.5627] }},
{"zip_code":"48237","country":"US","city":"Oak Park","state":"Michigan","state_ab":"MI","county":"Oakland","geo_location":{ "type": "Point", "coordinates": [-83.184, 42.4662] }},
{"zip_code":"48301","country":"US","city":"Bloomfield Hills","state":"Michigan","state_ab":"MI","county":"Oakland","geo_location":{ "type": "Point", "coordinates": [-83.2792, 42.5445] }},
{"zip_code":"48327","country":"US","city":"Waterford","state":"Michigan","state_ab":"MI","county":"Oakland","geo_location":{ "type": "Point", "coordinates": [-83.4076, 42.6438] }},
{"zip_code":"48341","country":"US","city":"Pontiac","state":"Michigan","state_ab":"MI","county":"Oakland","geo_location":{ "type": "Point", "coordinates": [-83.3041, 42.6294] }},
{"zip_code":"48367","country":"US","city":"Leonard","state":"Michigan","state_ab":"MI","county":"Oakland","geo_location":{ "type": "Point", "coordinates": [-83.1406, 42.8437] }},
{"zip_code":"48381","country":"US","city":"Milford","state":"Michigan","state_ab":"MI","county":"Oakland","geo_location":{ "type": "Point", "coordinates": [-83.5924, 42.5758] }},
{"zip_code":"49421","country":"US","city":"Hesperia","state":"Michigan","state_ab":"MI","county":"Oceana","geo_location":{ "type": "Point", "coordinates": [-86.0607, 43.5965] }},
{"zip_code":"49797","country":"US","city":"Waters","state":"Michigan","state_ab":"MI","county":"Otsego","geo_location":{ "type": "Point", "coordinates": [-84.6598, 44.8702] }},
{"zip_code":"49434","country":"US","city":"Macatawa","state":"Michigan","state_ab":"MI","county":"Ottawa","geo_location":{ "type": "Point", "coordinates": [-86.2055, 42.7697] }},
{"zip_code":"48651","country":"US","city":"Prudenville","state":"Michigan","state_ab":"MI","county":"Roscommon","geo_location":{ "type": "Point", "coordinates": [-84.6627, 44.2974] }},
{"zip_code":"48417","country":"US","city":"Burt","state":"Michigan","state_ab":"MI","county":"Saginaw","geo_location":{ "type": "Point", "coordinates": [-83.9511, 43.2404] }},
{"zip_code":"48637","country":"US","city":"Merrill","state":"Michigan","state_ab":"MI","county":"Saginaw","geo_location":{ "type": "Point", "coordinates": [-84.3308, 43.3939] }},
{"zip_code":"48004","country":"US","city":"Anchorville","state":"Michigan","state_ab":"MI","county":"St. Clair","geo_location":{ "type": "Point", "coordinates": [-82.6652, 42.8241] }},
{"zip_code":"48097","country":"US","city":"Yale","state":"Michigan","state_ab":"MI","county":"St. Clair","geo_location":{ "type": "Point", "coordinates": [-82.8295, 43.126] }},
{"zip_code":"48471","country":"US","city":"Sandusky","state":"Michigan","state_ab":"MI","county":"Sanilac","geo_location":{ "type": "Point", "coordinates": [-82.8409, 43.4055] }},
{"zip_code":"48817","country":"US","city":"Corunna","state":"Michigan","state_ab":"MI","county":"Shiawassee","geo_location":{ "type": "Point", "coordinates": [-84.0276, 43.0414] }},
{"zip_code":"48857","country":"US","city":"Morrice","state":"Michigan","state_ab":"MI","county":"Shiawassee","geo_location":{ "type": "Point", "coordinates": [-84.1768, 42.8385] }},
{"zip_code":"48701","country":"US","city":"Akron","state":"Michigan","state_ab":"MI","county":"Tuscola","geo_location":{ "type": "Point", "coordinates": [-83.5393, 43.5844] }},
{"zip_code":"48741","country":"US","city":"Kingston","state":"Michigan","state_ab":"MI","county":"Tuscola","geo_location":{ "type": "Point", "coordinates": [-83.1847, 43.3982] }},
{"zip_code":"48767","country":"US","city":"Unionville","state":"Michigan","state_ab":"MI","county":"Tuscola","geo_location":{ "type": "Point", "coordinates": [-83.4699, 43.6473] }},
{"zip_code":"48107","country":"US","city":"Ann Arbor","state":"Michigan","state_ab":"MI","county":"Washtenaw","geo_location":{ "type": "Point", "coordinates": [-83.8366, 42.2535] }},
{"zip_code":"48121","country":"US","city":"Dearborn","state":"Michigan","state_ab":"MI","county":"Wayne","geo_location":{ "type": "Point", "coordinates": [-83.1508, 42.2399] }},
{"zip_code":"48134","country":"US","city":"Flat Rock","state":"Michigan","state_ab":"MI","county":"Wayne","geo_location":{ "type": "Point", "coordinates": [-83.2795, 42.1055] }},
{"zip_code":"48174","country":"US","city":"Romulus","state":"Michigan","state_ab":"MI","county":"Wayne","geo_location":{ "type": "Point", "coordinates": [-83.3583, 42.2203] }},
{"zip_code":"48187","country":"US","city":"Canton","state":"Michigan","state_ab":"MI","county":"Wayne","geo_location":{ "type": "Point", "coordinates": [-83.4695, 42.332] }},
{"zip_code":"48211","country":"US","city":"Detroit","state":"Michigan","state_ab":"MI","county":"Wayne","geo_location":{ "type": "Point", "coordinates": [-83.0409, 42.3809] }},
{"zip_code":"48224","country":"US","city":"Detroit","state":"Michigan","state_ab":"MI","county":"Wayne","geo_location":{ "type": "Point", "coordinates": [-82.9441, 42.4098] }},
{"zip_code":"48264","country":"US","city":"Detroit","state":"Michigan","state_ab":"MI","county":"Wayne","geo_location":{ "type": "Point", "coordinates": [-83.1508, 42.2399] }},
{"zip_code":"48277","country":"US","city":"Detroit","state":"Michigan","state_ab":"MI","county":"Wayne","geo_location":{ "type": "Point", "coordinates": [-83.1508, 42.2399] }},
{"zip_code":"49601","country":"US","city":"Cadillac","state":"Michigan","state_ab":"MI","county":"Wexford","geo_location":{ "type": "Point", "coordinates": [-85.43, 44.2504] }},
{"zip_code":"55787","country":"US","city":"Tamarack","state":"Minnesota","state_ab":"MN","county":"Aitkin","geo_location":{ "type": "Point", "coordinates": [-93.2134, 46.6303] }},
{"zip_code":"55011","country":"US","city":"Cedar","state":"Minnesota","state_ab":"MN","county":"Anoka","geo_location":{ "type": "Point", "coordinates": [-93.235, 45.3414] }},
{"zip_code":"56544","country":"US","city":"Frazee","state":"Minnesota","state_ab":"MN","county":"Becker","geo_location":{ "type": "Point", "coordinates": [-95.5212, 46.7565] }},
{"zip_code":"56647","country":"US","city":"Hines","state":"Minnesota","state_ab":"MN","county":"Beltrami","geo_location":{ "type": "Point", "coordinates": [-94.6477, 47.7324] }},
{"zip_code":"56674","country":"US","city":"Saum","state":"Minnesota","state_ab":"MN","county":"Beltrami County","geo_location":{ "type": "Point", "coordinates": [-94.6447, 47.9748] }},
{"zip_code":"56687","country":"US","city":"Wilton","state":"Minnesota","state_ab":"MN","county":"Beltrami","geo_location":{ "type": "Point", "coordinates": [-95.0087, 47.975] }},
{"zip_code":"56001","country":"US","city":"Mankato","state":"Minnesota","state_ab":"MN","county":"Blue Earth","geo_location":{ "type": "Point", "coordinates": [-93.996, 44.1538] }},
{"zip_code":"56041","country":"US","city":"Hanska","state":"Minnesota","state_ab":"MN","county":"Brown","geo_location":{ "type": "Point", "coordinates": [-94.4933, 44.1527] }},
{"zip_code":"55707","country":"US","city":"Barnum","state":"Minnesota","state_ab":"MN","county":"Carlton","geo_location":{ "type": "Point", "coordinates": [-92.6292, 46.5196] }},
{"zip_code":"55387","country":"US","city":"Waconia","state":"Minnesota","state_ab":"MN","county":"Carver","geo_location":{ "type": "Point", "coordinates": [-93.7784, 44.851] }},
{"zip_code":"55554","country":"US","city":"Norwood","state":"Minnesota","state_ab":"MN","county":"Carver","geo_location":{ "type": "Point", "coordinates": [-93.7665, 44.8055] }},
{"zip_code":"55567","country":"US","city":"Young America","state":"Minnesota","state_ab":"MN","county":"Carver","geo_location":{ "type": "Point", "coordinates": [-93.7665, 44.8055] }},
{"zip_code":"55594","country":"US","city":"Young America","state":"Minnesota","state_ab":"MN","county":"Carver","geo_location":{ "type": "Point", "coordinates": [-93.7665, 44.8055] }},
{"zip_code":"56621","country":"US","city":"Bagley","state":"Minnesota","state_ab":"MN","county":"Clearwater","geo_location":{ "type": "Point", "coordinates": [-95.4133, 47.487] }},
{"zip_code":"56634","country":"US","city":"Clearbrook","state":"Minnesota","state_ab":"MN","county":"Clearwater","geo_location":{ "type": "Point", "coordinates": [-95.3752, 47.7146] }},
{"zip_code":"55604","country":"US","city":"Grand Marais","state":"Minnesota","state_ab":"MN","county":"Cook","geo_location":{ "type": "Point", "coordinates": [-90.3391, 47.7758] }},
{"zip_code":"56401","country":"US","city":"Brainerd","state":"Minnesota","state_ab":"MN","county":"Crow Wing","geo_location":{ "type": "Point", "coordinates": [-94.1, 46.3502] }},
{"zip_code":"56441","country":"US","city":"Crosby","state":"Minnesota","state_ab":"MN","county":"Crow Wing","geo_location":{ "type": "Point", "coordinates": [-93.9874, 46.5091] }},
{"zip_code":"55024","country":"US","city":"Farmington","state":"Minnesota","state_ab":"MN","county":"Dakota","geo_location":{ "type": "Point", "coordinates": [-93.1539, 44.6628] }},
{"zip_code":"55077","country":"US","city":"Inver Grove Heights","state":"Minnesota","state_ab":"MN","county":"Dakota","geo_location":{ "type": "Point", "coordinates": [-93.094, 44.8283] }},
{"zip_code":"55927","country":"US","city":"Dodge Center","state":"Minnesota","state_ab":"MN","county":"Dodge","geo_location":{ "type": "Point", "coordinates": [-92.8554, 44.0325] }},
{"zip_code":"56014","country":"US","city":"Bricelyn","state":"Minnesota","state_ab":"MN","county":"Faribault","geo_location":{ "type": "Point", "coordinates": [-93.8211, 43.5746] }},
{"zip_code":"56027","country":"US","city":"Elmore","state":"Minnesota","state_ab":"MN","county":"Faribault","geo_location":{ "type": "Point", "coordinates": [-94.0984, 43.5201] }},
{"zip_code":"55954","country":"US","city":"Mabel","state":"Minnesota","state_ab":"MN","county":"Fillmore","geo_location":{ "type": "Point", "coordinates": [-91.7806, 43.5446] }},
{"zip_code":"56274","country":"US","city":"Norcross","state":"Minnesota","state_ab":"MN","county":"Grant","geo_location":{ "type": "Point", "coordinates": [-96.1342, 45.8858] }},
{"zip_code":"56311","country":"US","city":"Barrett","state":"Minnesota","state_ab":"MN","county":"Grant","geo_location":{ "type": "Point", "coordinates": [-95.8754, 45.8996] }},
{"zip_code":"56531","country":"US","city":"Elbow Lake","state":"Minnesota","state_ab":"MN","county":"Grant","geo_location":{ "type": "Point", "coordinates": [-95.9671, 45.9953] }},
{"zip_code":"55347","country":"US","city":"Eden Prairie","state":"Minnesota","state_ab":"MN","county":"Hennepin","geo_location":{ "type": "Point", "coordinates": [-93.4389, 44.8342] }},
{"zip_code":"55361","country":"US","city":"Minnetonka Beach","state":"Minnesota","state_ab":"MN","county":"Hennepin","geo_location":{ "type": "Point", "coordinates": [-93.5927, 44.9402] }},
{"zip_code":"55374","country":"US","city":"Rogers","state":"Minnesota","state_ab":"MN","county":"Hennepin","geo_location":{ "type": "Point", "coordinates": [-93.5814, 45.1715] }},
{"zip_code":"55411","country":"US","city":"Minneapolis","state":"Minnesota","state_ab":"MN","county":"Hennepin","geo_location":{ "type": "Point", "coordinates": [-93.3005, 44.9996] }},
{"zip_code":"55424","country":"US","city":"Minneapolis","state":"Minnesota","state_ab":"MN","county":"Hennepin","geo_location":{ "type": "Point", "coordinates": [-93.3403, 44.9052] }},
{"zip_code":"55437","country":"US","city":"Minneapolis","state":"Minnesota","state_ab":"MN","county":"Hennepin","geo_location":{ "type": "Point", "coordinates": [-93.3538, 44.8261] }},
{"zip_code":"55941","country":"US","city":"Hokah","state":"Minnesota","state_ab":"MN","county":"Houston","geo_location":{ "type": "Point", "coordinates": [-91.3455, 43.7509] }},
{"zip_code":"56467","country":"US","city":"Nevis","state":"Minnesota","state_ab":"MN","county":"Hubbard","geo_location":{ "type": "Point", "coordinates": [-94.846, 46.9319] }},
{"zip_code":"55721","country":"US","city":"Cohasset","state":"Minnesota","state_ab":"MN","county":"Itasca","geo_location":{ "type": "Point", "coordinates": [-93.6392, 47.2691] }},
{"zip_code":"55051","country":"US","city":"Mora","state":"Minnesota","state_ab":"MN","county":"Kanabec","geo_location":{ "type": "Point", "coordinates": [-93.2942, 45.8958] }},
{"zip_code":"56661","country":"US","city":"Northome","state":"Minnesota","state_ab":"MN","county":"Koochiching","geo_location":{ "type": "Point", "coordinates": [-94.2043, 47.844] }},
{"zip_code":"56711","country":"US","city":"Angle Inlet","state":"Minnesota","state_ab":"MN","county":"Lake of the Woods","geo_location":{ "type": "Point", "coordinates": [-94.8857, 48.8752] }},
{"zip_code":"56157","country":"US","city":"Lynd","state":"Minnesota","state_ab":"MN","county":"Lyon","geo_location":{ "type": "Point", "coordinates": [-95.9233, 44.4032] }},
{"zip_code":"56557","country":"US","city":"Mahnomen","state":"Minnesota","state_ab":"MN","county":"Mahnomen","geo_location":{ "type": "Point", "coordinates": [-95.8856, 47.3362] }},
{"zip_code":"56724","country":"US","city":"Gatzke","state":"Minnesota","state_ab":"MN","county":"Marshall","geo_location":{ "type": "Point", "coordinates": [-95.7903, 48.4104] }},
{"zip_code":"56737","country":"US","city":"Middle River","state":"Minnesota","state_ab":"MN","county":"Marshall","geo_location":{ "type": "Point", "coordinates": [-96.1232, 48.4426] }},
{"zip_code":"56171","country":"US","city":"Sherburn","state":"Minnesota","state_ab":"MN","county":"Martin","geo_location":{ "type": "Point", "coordinates": [-94.7269, 43.6611] }},
{"zip_code":"56364","country":"US","city":"Pierz","state":"Minnesota","state_ab":"MN","county":"Morrison","geo_location":{ "type": "Point", "coordinates": [-94.0853, 46.0081] }},
{"zip_code":"55967","country":"US","city":"Racine","state":"Minnesota","state_ab":"MN","county":"Mower","geo_location":{ "type": "Point", "coordinates": [-92.531, 43.79] }},
{"zip_code":"56131","country":"US","city":"Fulda","state":"Minnesota","state_ab":"MN","county":"Murray","geo_location":{ "type": "Point", "coordinates": [-95.5979, 43.8753] }},
{"zip_code":"56054","country":"US","city":"Lafayette","state":"Minnesota","state_ab":"MN","county":"Nicollet","geo_location":{ "type": "Point", "coordinates": [-94.4365, 44.4073] }},
{"zip_code":"56117","country":"US","city":"Bigelow","state":"Minnesota","state_ab":"MN","county":"Nobles","geo_location":{ "type": "Point", "coordinates": [-95.6515, 43.5336] }},
{"zip_code":"56584","country":"US","city":"Twin Valley","state":"Minnesota","state_ab":"MN","county":"Norman","geo_location":{ "type": "Point", "coordinates": [-96.2464, 47.2509] }},
{"zip_code":"55901","country":"US","city":"Rochester","state":"Minnesota","state_ab":"MN","county":"Olmsted","geo_location":{ "type": "Point", "coordinates": [-92.4896, 44.0496] }},
{"zip_code":"56324","country":"US","city":"Dalton","state":"Minnesota","state_ab":"MN","county":"Otter Tail","geo_location":{ "type": "Point", "coordinates": [-95.85, 46.1544] }},
{"zip_code":"56571","country":"US","city":"Ottertail","state":"Minnesota","state_ab":"MN","county":"Otter Tail","geo_location":{ "type": "Point", "coordinates": [-95.5436, 46.4177] }},
{"zip_code":"55037","country":"US","city":"Hinckley","state":"Minnesota","state_ab":"MN","county":"Pine","geo_location":{ "type": "Point", "coordinates": [-92.8993, 46.0189] }},
{"zip_code":"56144","country":"US","city":"Jasper","state":"Minnesota","state_ab":"MN","county":"Pipestone","geo_location":{ "type": "Point", "coordinates": [-96.385, 43.8568] }},
{"zip_code":"56517","country":"US","city":"Beltrami","state":"Minnesota","state_ab":"MN","county":"Polk","geo_location":{ "type": "Point", "coordinates": [-96.4549, 47.5721] }},
{"zip_code":"55101","country":"US","city":"Saint Paul","state":"Minnesota","state_ab":"MN","county":"Ramsey","geo_location":{ "type": "Point", "coordinates": [-93.0902, 44.9512] }},
{"zip_code":"55114","country":"US","city":"Saint Paul","state":"Minnesota","state_ab":"MN","county":"Ramsey","geo_location":{ "type": "Point", "coordinates": [-93.1981, 44.968] }},
{"zip_code":"55127","country":"US","city":"Saint Paul","state":"Minnesota","state_ab":"MN","county":"Ramsey","geo_location":{ "type": "Point", "coordinates": [-93.0875, 45.0803] }},
{"zip_code":"56287","country":"US","city":"Seaforth","state":"Minnesota","state_ab":"MN","county":"Redwood","geo_location":{ "type": "Point", "coordinates": [-95.3282, 44.4613] }},
{"zip_code":"56751","country":"US","city":"Roseau","state":"Minnesota","state_ab":"MN","county":"Roseau","geo_location":{ "type": "Point", "coordinates": [-95.7504, 48.7048] }},
{"zip_code":"55734","country":"US","city":"Eveleth","state":"Minnesota","state_ab":"MN","county":"St. Louis","geo_location":{ "type": "Point", "coordinates": [-92.528, 47.451] }},
{"zip_code":"55747","country":"US","city":"Hibbing","state":"Minnesota","state_ab":"MN","county":"St. Louis","geo_location":{ "type": "Point", "coordinates": [-92.4428, 47.6404] }},
{"zip_code":"55761","country":"US","city":"McKinley","state":"Minnesota","state_ab":"MN","county":"Saint Louis County","geo_location":{ "type": "Point", "coordinates": [-92.4104, 47.513] }},
{"zip_code":"55811","country":"US","city":"Duluth","state":"Minnesota","state_ab":"MN","county":"St. Louis","geo_location":{ "type": "Point", "coordinates": [-92.1998, 46.8147] }},
{"zip_code":"55307","country":"US","city":"Arlington","state":"Minnesota","state_ab":"MN","county":"Sibley","geo_location":{ "type": "Point", "coordinates": [-94.0762, 44.6153] }},
{"zip_code":"55334","country":"US","city":"Gaylord","state":"Minnesota","state_ab":"MN","county":"Sibley","geo_location":{ "type": "Point", "coordinates": [-94.1955, 44.5463] }},
{"zip_code":"56377","country":"US","city":"Sartell","state":"Minnesota","state_ab":"MN","county":"Stearns","geo_location":{ "type": "Point", "coordinates": [-94.2136, 45.6318] }},
{"zip_code":"56067","country":"US","city":"Meriden","state":"Minnesota","state_ab":"MN","county":"Steele County","geo_location":{ "type": "Point", "coordinates": [-93.3512, 44.0699] }},
{"zip_code":"56207","country":"US","city":"Alberta","state":"Minnesota","state_ab":"MN","county":"Stevens","geo_location":{ "type": "Point", "coordinates": [-96.0498, 45.5571] }},
{"zip_code":"56221","country":"US","city":"Chokio","state":"Minnesota","state_ab":"MN","county":"Stevens","geo_location":{ "type": "Point", "coordinates": [-96.1733, 45.5524] }},
{"zip_code":"55981","country":"US","city":"Wabasha","state":"Minnesota","state_ab":"MN","county":"Wabasha","geo_location":{ "type": "Point", "coordinates": [-92.0361, 44.3703] }},
{"zip_code":"56481","country":"US","city":"Verndale","state":"Minnesota","state_ab":"MN","county":"Wadena","geo_location":{ "type": "Point", "coordinates": [-94.9676, 46.5065] }},
{"zip_code":"56081","country":"US","city":"Saint James","state":"Minnesota","state_ab":"MN","county":"Watonwan","geo_location":{ "type": "Point", "coordinates": [-94.6229, 43.9875] }},
{"zip_code":"55321","country":"US","city":"Cokato","state":"Minnesota","state_ab":"MN","county":"Wright","geo_location":{ "type": "Point", "coordinates": [-94.1911, 45.0748] }},
{"zip_code":"55581","country":"US","city":"Monticello","state":"Minnesota","state_ab":"MN","county":"Wright","geo_location":{ "type": "Point", "coordinates": [-93.8881, 45.2009] }},
{"zip_code":"56247","country":"US","city":"Hazel Run","state":"Minnesota","state_ab":"MN","county":"Yellow Medicine County","geo_location":{ "type": "Point", "coordinates": [-95.6968, 44.7481] }},
{"zip_code":"64491","country":"US","city":"Tarkio","state":"Missouri","state_ab":"MO","county":"Atchison","geo_location":{ "type": "Point", "coordinates": [-95.3786, 40.4418] }},
{"zip_code":"65647","country":"US","city":"Exeter","state":"Missouri","state_ab":"MO","county":"Barry","geo_location":{ "type": "Point", "coordinates": [-93.9702, 36.6815] }},
{"zip_code":"64501","country":"US","city":"Saint Joseph","state":"Missouri","state_ab":"MO","county":"Buchanan","geo_location":{ "type": "Point", "coordinates": [-94.8385, 39.7688] }},
{"zip_code":"64644","country":"US","city":"Hamilton","state":"Missouri","state_ab":"MO","county":"Caldwell","geo_location":{ "type": "Point", "coordinates": [-93.9909, 39.7364] }},
{"zip_code":"64671","country":"US","city":"Polo","state":"Missouri","state_ab":"MO","county":"Caldwell","geo_location":{ "type": "Point", "coordinates": [-94.0743, 39.5647] }},
{"zip_code":"65067","country":"US","city":"Portland","state":"Missouri","state_ab":"MO","county":"Callaway","geo_location":{ "type": "Point", "coordinates": [-91.7006, 38.7847] }},
{"zip_code":"65324","country":"US","city":"Climax Springs","state":"Missouri","state_ab":"MO","county":"Camden","geo_location":{ "type": "Point", "coordinates": [-92.9537, 38.1396] }},
{"zip_code":"63744","country":"US","city":"Delta","state":"Missouri","state_ab":"MO","county":"Cape Girardeau","geo_location":{ "type": "Point", "coordinates": [-89.7394, 37.1973] }},
{"zip_code":"63937","country":"US","city":"Ellsinore","state":"Missouri","state_ab":"MO","county":"Carter","geo_location":{ "type": "Point", "coordinates": [-90.7485, 36.9453] }},
{"zip_code":"64734","country":"US","city":"Cleveland","state":"Missouri","state_ab":"MO","county":"Cass","geo_location":{ "type": "Point", "coordinates": [-94.5695, 38.6898] }},
{"zip_code":"64747","country":"US","city":"Garden City","state":"Missouri","state_ab":"MO","county":"Cass","geo_location":{ "type": "Point", "coordinates": [-94.1825, 38.5681] }},
{"zip_code":"65607","country":"US","city":"Caplinger Mills","state":"Missouri","state_ab":"MO","county":"Cedar","geo_location":{ "type": "Point", "coordinates": [-93.8425, 37.7369] }},
{"zip_code":"65261","country":"US","city":"Keytesville","state":"Missouri","state_ab":"MO","county":"Chariton","geo_location":{ "type": "Point", "coordinates": [-92.9302, 39.4794] }},
{"zip_code":"63474","country":"US","city":"Wyaconda","state":"Missouri","state_ab":"MO","county":"Clark","geo_location":{ "type": "Point", "coordinates": [-91.9071, 40.3721] }},
{"zip_code":"64024","country":"US","city":"Excelsior Springs","state":"Missouri","state_ab":"MO","county":"Clay","geo_location":{ "type": "Point", "coordinates": [-94.2746, 39.3326] }},
{"zip_code":"64167","country":"US","city":"Kansas City","state":"Missouri","state_ab":"MO","county":"Clay","geo_location":{ "type": "Point", "coordinates": [-94.4877, 39.32] }},
{"zip_code":"64477","country":"US","city":"Plattsburg","state":"Missouri","state_ab":"MO","county":"Clinton","geo_location":{ "type": "Point", "coordinates": [-94.4338, 39.5705] }},
{"zip_code":"65104","country":"US","city":"Jefferson City","state":"Missouri","state_ab":"MO","county":"Cole","geo_location":{ "type": "Point", "coordinates": [-92.2493, 38.5309] }},
{"zip_code":"65287","country":"US","city":"Wooldridge","state":"Missouri","state_ab":"MO","county":"Cooper","geo_location":{ "type": "Point", "coordinates": [-92.5667, 38.8983] }},
{"zip_code":"65441","country":"US","city":"Bourbon","state":"Missouri","state_ab":"MO","county":"Crawford","geo_location":{ "type": "Point", "coordinates": [-91.2225, 38.172] }},
{"zip_code":"65661","country":"US","city":"Greenfield","state":"Missouri","state_ab":"MO","county":"Dade","geo_location":{ "type": "Point", "coordinates": [-93.8407, 37.4197] }},
{"zip_code":"65764","country":"US","city":"Tunas","state":"Missouri","state_ab":"MO","county":"Dallas","geo_location":{ "type": "Point", "coordinates": [-92.9808, 37.8392] }},
{"zip_code":"63821","country":"US","city":"Arbyrd","state":"Missouri","state_ab":"MO","county":"Dunklin","geo_location":{ "type": "Point", "coordinates": [-90.2284, 36.0501] }},
{"zip_code":"63847","country":"US","city":"Gibson","state":"Missouri","state_ab":"MO","county":"Dunklin","geo_location":{ "type": "Point", "coordinates": [-90.0293, 36.4413] }},
{"zip_code":"63061","country":"US","city":"Luebbering","state":"Missouri","state_ab":"MO","county":"Franklin","geo_location":{ "type": "Point", "coordinates": [-90.8027, 38.2615] }},
{"zip_code":"65014","country":"US","city":"Bland","state":"Missouri","state_ab":"MO","county":"Gasconade","geo_location":{ "type": "Point", "coordinates": [-91.6263, 38.3074] }},
{"zip_code":"65041","country":"US","city":"Hermann","state":"Missouri","state_ab":"MO","county":"Gasconade","geo_location":{ "type": "Point", "coordinates": [-91.4991, 38.5876] }},
{"zip_code":"64657","country":"US","city":"Mc Fall","state":"Missouri","state_ab":"MO","county":"Gentry","geo_location":{ "type": "Point", "coordinates": [-94.3003, 40.1051] }},
{"zip_code":"65801","country":"US","city":"Springfield","state":"Missouri","state_ab":"MO","county":"Greene","geo_location":{ "type": "Point", "coordinates": [-93.3437, 37.2581] }},
{"zip_code":"65814","country":"US","city":"Springfield","state":"Missouri","state_ab":"MO","county":"Greene","geo_location":{ "type": "Point", "coordinates": [-93.3437, 37.2581] }},
{"zip_code":"64424","country":"US","city":"Bethany","state":"Missouri","state_ab":"MO","county":"Harrison","geo_location":{ "type": "Point", "coordinates": [-94.0189, 40.2601] }},
{"zip_code":"2127","country":"US","city":"Boston","state":"Massachusetts","state_ab":"MA","county":"Suffolk","geo_location":{ "type": "Point", "coordinates": [-71.0375, 42.3347] }},
{"zip_code":"2204","country":"US","city":"Boston","state":"Massachusetts","state_ab":"MA","county":"Suffolk","geo_location":{ "type": "Point", "coordinates": [-70.9196, 42.3389] }},
{"zip_code":"2217","country":"US","city":"Boston","state":"Massachusetts","state_ab":"MA","county":"Suffolk","geo_location":{ "type": "Point", "coordinates": [-70.9196, 42.3389] }},
{"zip_code":"2284","country":"US","city":"Boston","state":"Massachusetts","state_ab":"MA","county":"Suffolk","geo_location":{ "type": "Point", "coordinates": [-70.9196, 42.3389] }},
{"zip_code":"2297","country":"US","city":"Boston","state":"Massachusetts","state_ab":"MA","county":"Suffolk","geo_location":{ "type": "Point", "coordinates": [-70.9196, 42.3389] }},
{"zip_code":"1074","country":"US","city":"South Barre","state":"Massachusetts","state_ab":"MA","county":"Worcester","geo_location":{ "type": "Point", "coordinates": [-72.1494, 42.376] }},
{"zip_code":"1331","country":"US","city":"Athol","state":"Massachusetts","state_ab":"MA","county":"Worcester","geo_location":{ "type": "Point", "coordinates": [-72.1839, 42.5473] }},
{"zip_code":"1434","country":"US","city":"Devens","state":"Massachusetts","state_ab":"MA","county":"Worcester County","geo_location":{ "type": "Point", "coordinates": [-71.6115, 42.5385] }},
{"zip_code":"1524","country":"US","city":"Leicester","state":"Massachusetts","state_ab":"MA","county":"Worcester","geo_location":{ "type": "Point", "coordinates": [-71.9188, 42.237] }},
{"zip_code":"1537","country":"US","city":"North Oxford","state":"Massachusetts","state_ab":"MA","county":"Worcester","geo_location":{ "type": "Point", "coordinates": [-71.886, 42.1655] }},
{"zip_code":"1564","country":"US","city":"Sterling","state":"Massachusetts","state_ab":"MA","county":"Worcester","geo_location":{ "type": "Point", "coordinates": [-71.7752, 42.4354] }},
{"zip_code":"1601","country":"US","city":"Worcester","state":"Massachusetts","state_ab":"MA","county":"Worcester","geo_location":{ "type": "Point", "coordinates": [-71.8794, 42.2653] }},
{"zip_code":"1614","country":"US","city":"Worcester","state":"Massachusetts","state_ab":"MA","county":"Worcester","geo_location":{ "type": "Point", "coordinates": [-71.8969, 42.3648] }},
{"zip_code":"1654","country":"US","city":"Worcester","state":"Massachusetts","state_ab":"MA","county":"Worcester","geo_location":{ "type": "Point", "coordinates": [-71.8969, 42.3648] }},
{"zip_code":"1757","country":"US","city":"Milford","state":"Massachusetts","state_ab":"MA","county":"Worcester","geo_location":{ "type": "Point", "coordinates": [-71.5274, 42.1511] }},
{"zip_code":"21504","country":"US","city":"Cumberland","state":"Maryland","state_ab":"MD","county":"Allegany","geo_location":{ "type": "Point", "coordinates": [-78.6906, 39.5807] }},
{"zip_code":"21557","country":"US","city":"Rawlings","state":"Maryland","state_ab":"MD","county":"Allegany","geo_location":{ "type": "Point", "coordinates": [-78.9062, 39.5214] }},
{"zip_code":"21054","country":"US","city":"Gambrills","state":"Maryland","state_ab":"MD","county":"Anne Arundel","geo_location":{ "type": "Point", "coordinates": [-76.6819, 39.0407] }},
{"zip_code":"21144","country":"US","city":"Severn","state":"Maryland","state_ab":"MD","county":"Anne Arundel","geo_location":{ "type": "Point", "coordinates": [-76.698, 39.1275] }},
{"zip_code":"21401","country":"US","city":"Annapolis","state":"Maryland","state_ab":"MD","county":"Anne Arundel","geo_location":{ "type": "Point", "coordinates": [-76.5501, 38.9898] }},
{"zip_code":"21027","country":"US","city":"Chase","state":"Maryland","state_ab":"MD","county":"Baltimore","geo_location":{ "type": "Point", "coordinates": [-76.5921, 39.439] }},
{"zip_code":"21094","country":"US","city":"Lutherville Timonium","state":"Maryland","state_ab":"MD","county":"Baltimore","geo_location":{ "type": "Point", "coordinates": [-76.5921, 39.439] }},
{"zip_code":"21117","country":"US","city":"Owings Mills","state":"Maryland","state_ab":"MD","county":"Baltimore","geo_location":{ "type": "Point", "coordinates": [-76.7769, 39.4269] }},
{"zip_code":"21131","country":"US","city":"Phoenix","state":"Maryland","state_ab":"MD","county":"Baltimore","geo_location":{ "type": "Point", "coordinates": [-76.5776, 39.4833] }},
{"zip_code":"21207","country":"US","city":"Gwynn Oak","state":"Maryland","state_ab":"MD","county":"Baltimore","geo_location":{ "type": "Point", "coordinates": [-76.7341, 39.3296] }},
{"zip_code":"21221","country":"US","city":"Essex","state":"Maryland","state_ab":"MD","county":"Baltimore","geo_location":{ "type": "Point", "coordinates": [-76.4533, 39.3086] }},
{"zip_code":"21234","country":"US","city":"Parkville","state":"Maryland","state_ab":"MD","county":"Baltimore","geo_location":{ "type": "Point", "coordinates": [-76.5418, 39.3876] }},
{"zip_code":"20657","country":"US","city":"Lusby","state":"Maryland","state_ab":"MD","county":"Calvert","geo_location":{ "type": "Point", "coordinates": [-76.4346, 38.3661] }},
{"zip_code":"21687","country":"US","city":"Ridgely","state":"Maryland","state_ab":"MD","county":"Caroline","geo_location":{ "type": "Point", "coordinates": [-75.8612, 38.8893] }},
{"zip_code":"21104","country":"US","city":"Marriottsville","state":"Maryland","state_ab":"MD","county":"Carroll","geo_location":{ "type": "Point", "coordinates": [-76.9132, 39.3342] }},
{"zip_code":"21157","country":"US","city":"Westminster","state":"Maryland","state_ab":"MD","county":"Carroll","geo_location":{ "type": "Point", "coordinates": [-76.9807, 39.5642] }},
{"zip_code":"21764","country":"US","city":"Linwood","state":"Maryland","state_ab":"MD","county":"Carroll","geo_location":{ "type": "Point", "coordinates": [-77.0493, 39.5347] }},
{"zip_code":"21791","country":"US","city":"Union Bridge","state":"Maryland","state_ab":"MD","county":"Carroll","geo_location":{ "type": "Point", "coordinates": [-77.1319, 39.5799] }},
{"zip_code":"21904","country":"US","city":"Port Deposit","state":"Maryland","state_ab":"MD","county":"Cecil","geo_location":{ "type": "Point", "coordinates": [-76.0633, 39.6151] }},
{"zip_code":"21917","country":"US","city":"Colora","state":"Maryland","state_ab":"MD","county":"Cecil","geo_location":{ "type": "Point", "coordinates": [-76.0934, 39.6695] }},
{"zip_code":"20604","country":"US","city":"Waldorf","state":"Maryland","state_ab":"MD","county":"Charles","geo_location":{ "type": "Point", "coordinates": [-76.9817, 38.5095] }},
{"zip_code":"20617","country":"US","city":"Bryantown","state":"Maryland","state_ab":"MD","county":"Charles","geo_location":{ "type": "Point", "coordinates": [-76.8465, 38.5426] }},
{"zip_code":"21634","country":"US","city":"Fishing Creek","state":"Maryland","state_ab":"MD","county":"Dorchester","geo_location":{ "type": "Point", "coordinates": [-76.2035, 38.2987] }},
{"zip_code":"21777","country":"US","city":"Point Of Rocks","state":"Maryland","state_ab":"MD","county":"Frederick","geo_location":{ "type": "Point", "coordinates": [-77.5328, 39.2791] }},
{"zip_code":"21531","country":"US","city":"Friendsville","state":"Maryland","state_ab":"MD","county":"Garrett","geo_location":{ "type": "Point", "coordinates": [-79.4219, 39.6665] }},
{"zip_code":"21001","country":"US","city":"Aberdeen","state":"Maryland","state_ab":"MD","county":"Harford","geo_location":{ "type": "Point", "coordinates": [-76.1805, 39.5109] }},
{"zip_code":"21014","country":"US","city":"Bel Air","state":"Maryland","state_ab":"MD","county":"Harford","geo_location":{ "type": "Point", "coordinates": [-76.3564, 39.5394] }},
{"zip_code":"21041","country":"US","city":"Ellicott City","state":"Maryland","state_ab":"MD","county":"Howard","geo_location":{ "type": "Point", "coordinates": [-76.9419, 39.2364] }},
{"zip_code":"21737","country":"US","city":"Glenelg","state":"Maryland","state_ab":"MD","county":"Howard","geo_location":{ "type": "Point", "coordinates": [-77.0198, 39.2546] }},
{"zip_code":"21661","country":"US","city":"Rock Hall","state":"Maryland","state_ab":"MD","county":"Kent","geo_location":{ "type": "Point", "coordinates": [-76.2305, 39.1344] }},
{"zip_code":"20811","country":"US","city":"Bethesda","state":"Maryland","state_ab":"MD","county":"Montgomery County","geo_location":{ "type": "Point", "coordinates": [-77.1008, 38.9806] }},
{"zip_code":"20824","country":"US","city":"Bethesda","state":"Maryland","state_ab":"MD","county":"Montgomery","geo_location":{ "type": "Point", "coordinates": [-77.2076, 39.144] }},
{"zip_code":"20837","country":"US","city":"Poolesville","state":"Maryland","state_ab":"MD","county":"Montgomery","geo_location":{ "type": "Point", "coordinates": [-77.4067, 39.1386] }},
{"zip_code":"20851","country":"US","city":"Rockville","state":"Maryland","state_ab":"MD","county":"Montgomery","geo_location":{ "type": "Point", "coordinates": [-77.1234, 39.0763] }},
{"zip_code":"20877","country":"US","city":"Gaithersburg","state":"Maryland","state_ab":"MD","county":"Montgomery","geo_location":{ "type": "Point", "coordinates": [-77.189, 39.1419] }},
{"zip_code":"20891","country":"US","city":"Kensington","state":"Maryland","state_ab":"MD","county":"Montgomery","geo_location":{ "type": "Point", "coordinates": [-77.2076, 39.144] }},
{"zip_code":"20901","country":"US","city":"Silver Spring","state":"Maryland","state_ab":"MD","county":"Montgomery","geo_location":{ "type": "Point", "coordinates": [-77.0076, 39.0191] }},
{"zip_code":"20914","country":"US","city":"Silver Spring","state":"Maryland","state_ab":"MD","county":"Montgomery","geo_location":{ "type": "Point", "coordinates": [-77.2076, 39.144] }},
{"zip_code":"20697","country":"US","city":"Southern Md Facility","state":"Maryland","state_ab":"MD","county":"Prince George's","geo_location":{ "type": "Point", "coordinates": [-76.8777, 38.8336] }},
{"zip_code":"20707","country":"US","city":"Laurel","state":"Maryland","state_ab":"MD","county":"Prince George's","geo_location":{ "type": "Point", "coordinates": [-76.872, 39.1077] }},
{"zip_code":"20721","country":"US","city":"Bowie","state":"Maryland","state_ab":"MD","county":"Prince George's","geo_location":{ "type": "Point", "coordinates": [-76.7871, 38.9194] }},
{"zip_code":"20747","country":"US","city":"District Heights","state":"Maryland","state_ab":"MD","county":"Prince George's","geo_location":{ "type": "Point", "coordinates": [-76.8891, 38.8539] }},
{"zip_code":"20774","country":"US","city":"Upper Marlboro","state":"Maryland","state_ab":"MD","county":"Prince George's","geo_location":{ "type": "Point", "coordinates": [-76.8156, 38.8682] }},
{"zip_code":"20787","country":"US","city":"Hyattsville","state":"Maryland","state_ab":"MD","county":"Prince George's","geo_location":{ "type": "Point", "coordinates": [-76.9824, 38.9871] }},
{"zip_code":"21607","country":"US","city":"Barclay","state":"Maryland","state_ab":"MD","county":"Queen Anne's","geo_location":{ "type": "Point", "coordinates": [-75.8601, 39.1299] }},
{"zip_code":"20684","country":"US","city":"Saint Inigoes","state":"Maryland","state_ab":"MD","county":"St. Mary's","geo_location":{ "type": "Point", "coordinates": [-76.4083, 38.1441] }},
{"zip_code":"21867","country":"US","city":"Upper Fairmount","state":"Maryland","state_ab":"MD","county":"Somerset","geo_location":{ "type": "Point", "coordinates": [-75.8223, 38.1005] }},
{"zip_code":"21647","country":"US","city":"Mcdaniel","state":"Maryland","state_ab":"MD","county":"Talbot","geo_location":{ "type": "Point", "coordinates": [-76.2806, 38.8192] }},
{"zip_code":"21711","country":"US","city":"Big Pool","state":"Maryland","state_ab":"MD","county":"Washington","geo_location":{ "type": "Point", "coordinates": [-78.0104, 39.6457] }},
{"zip_code":"21801","country":"US","city":"Salisbury","state":"Maryland","state_ab":"MD","county":"Wicomico","geo_location":{ "type": "Point", "coordinates": [-75.6336, 38.3824] }},
{"zip_code":"21814","country":"US","city":"Bivalve","state":"Maryland","state_ab":"MD","county":"Wicomico","geo_location":{ "type": "Point", "coordinates": [-75.8914, 38.2953] }},
{"zip_code":"21841","country":"US","city":"Newark","state":"Maryland","state_ab":"MD","county":"Worcester","geo_location":{ "type": "Point", "coordinates": [-75.2893, 38.2489] }},
{"zip_code":"21274","country":"US","city":"Baltimore","state":"Maryland","state_ab":"MD","county":"Baltimore (city)","geo_location":{ "type": "Point", "coordinates": [-76.6205, 39.2847] }},
{"zip_code":"21287","country":"US","city":"Baltimore","state":"Maryland","state_ab":"MD","county":"Baltimore (city)","geo_location":{ "type": "Point", "coordinates": [-76.5927, 39.2975] }},
{"zip_code":"4211","country":"US","city":"Auburn","state":"Maine","state_ab":"ME","county":"Androscoggin","geo_location":{ "type": "Point", "coordinates": [-70.2395, 44.197] }},
{"zip_code":"4251","country":"US","city":"Lisbon Center","state":"Maine","state_ab":"ME","county":"Androscoggin County","geo_location":{ "type": "Point", "coordinates": [-70.0936, 44.0197] }},
{"zip_code":"4291","country":"US","city":"West Poland","state":"Maine","state_ab":"ME","county":"Androscoggin","geo_location":{ "type": "Point", "coordinates": [-70.453, 44.0409] }},
{"zip_code":"4471","country":"US","city":"Orient","state":"Maine","state_ab":"ME","county":"Aroostook","geo_location":{ "type": "Point", "coordinates": [-67.8471, 45.8911] }},
{"zip_code":"4497","country":"US","city":"Wytopitlock","state":"Maine","state_ab":"ME","county":"Aroostook","geo_location":{ "type": "Point", "coordinates": [-68.1055, 45.6645] }},
{"zip_code":"4741","country":"US","city":"Estcourt Station","state":"Maine","state_ab":"ME","county":"Aroostook","geo_location":{ "type": "Point", "coordinates": [-68.8868, 46.5162] }},
{"zip_code":"4781","country":"US","city":"Soldier Pond","state":"Maine","state_ab":"ME","county":"Aroostook","geo_location":{ "type": "Point", "coordinates": [-68.5981, 47.1515] }},
{"zip_code":"4017","country":"US","city":"Chebeague Island","state":"Maine","state_ab":"ME","county":"Cumberland","geo_location":{ "type": "Point", "coordinates": [-70.1169, 43.7354] }},
{"zip_code":"4057","country":"US","city":"North Bridgton","state":"Maine","state_ab":"ME","county":"Cumberland","geo_location":{ "type": "Point", "coordinates": [-70.4707, 44.4081] }},
{"zip_code":"4071","country":"US","city":"Raymond","state":"Maine","state_ab":"ME","county":"Cumberland","geo_location":{ "type": "Point", "coordinates": [-70.4498, 43.9219] }},
{"zip_code":"4084","country":"US","city":"Standish","state":"Maine","state_ab":"ME","county":"Cumberland","geo_location":{ "type": "Point", "coordinates": [-70.4807, 43.8142] }},
{"zip_code":"4097","country":"US","city":"North Yarmouth","state":"Maine","state_ab":"ME","county":"Cumberland","geo_location":{ "type": "Point", "coordinates": [-70.2001, 43.838] }},
{"zip_code":"4107","country":"US","city":"Cape Elizabeth","state":"Maine","state_ab":"ME","county":"Cumberland","geo_location":{ "type": "Point", "coordinates": [-70.2301, 43.6017] }},
{"zip_code":"4947","country":"US","city":"Kingfield","state":"Maine","state_ab":"ME","county":"Franklin","geo_location":{ "type": "Point", "coordinates": [-70.1832, 44.9854] }},
{"zip_code":"4431","country":"US","city":"East Orland","state":"Maine","state_ab":"ME","county":"Hancock","geo_location":{ "type": "Point", "coordinates": [-68.6647, 44.5612] }},
{"zip_code":"4624","country":"US","city":"Corea","state":"Maine","state_ab":"ME","county":"Hancock","geo_location":{ "type": "Point", "coordinates": [-67.985, 44.4053] }},
{"zip_code":"4664","country":"US","city":"Sullivan","state":"Maine","state_ab":"ME","county":"Hancock","geo_location":{ "type": "Point", "coordinates": [-68.1279, 44.5458] }},
{"zip_code":"4677","country":"US","city":"Sorrento","state":"Maine","state_ab":"ME","county":"Hancock","geo_location":{ "type": "Point", "coordinates": [-68.1787, 44.4907] }},
{"zip_code":"4547","country":"US","city":"Friendship","state":"Maine","state_ab":"ME","county":"Knox","geo_location":{ "type": "Point", "coordinates": [-69.3349, 43.9807] }},
{"zip_code":"4574","country":"US","city":"Washington","state":"Maine","state_ab":"ME","county":"Knox","geo_location":{ "type": "Point", "coordinates": [-69.3842, 44.2693] }},
{"zip_code":"4857","country":"US","city":"Saint George","state":"Maine","state_ab":"ME","county":"Knox","geo_location":{ "type": "Point", "coordinates": [-69.202, 43.9987] }},
{"zip_code":"4341","country":"US","city":"Coopers Mills","state":"Maine","state_ab":"ME","county":"Lincoln","geo_location":{ "type": "Point", "coordinates": [-69.551, 44.2588] }},
{"zip_code":"4224","country":"US","city":"Dixfield","state":"Maine","state_ab":"ME","county":"Oxford","geo_location":{ "type": "Point", "coordinates": [-70.4241, 44.5548] }},
{"zip_code":"4237","country":"US","city":"Hanover","state":"Maine","state_ab":"ME","county":"Oxford","geo_location":{ "type": "Point", "coordinates": [-70.7167, 44.4959] }},
{"zip_code":"4417","country":"US","city":"Burlington","state":"Maine","state_ab":"ME","county":"Penobscot","geo_location":{ "type": "Point", "coordinates": [-68.379, 45.2349] }},
{"zip_code":"4444","country":"US","city":"Hampden","state":"Maine","state_ab":"ME","county":"Penobscot","geo_location":{ "type": "Point", "coordinates": [-68.8731, 44.7411] }},
{"zip_code":"4457","country":"US","city":"Lincoln","state":"Maine","state_ab":"ME","county":"Penobscot","geo_location":{ "type": "Point", "coordinates": [-68.5077, 45.3508] }},
{"zip_code":"4961","country":"US","city":"North New Portland","state":"Maine","state_ab":"ME","county":"Somerset","geo_location":{ "type": "Point", "coordinates": [-70.1347, 45.133] }},
{"zip_code":"4354","country":"US","city":"Palermo","state":"Maine","state_ab":"ME","county":"Waldo","geo_location":{ "type": "Point", "coordinates": [-69.4334, 44.3843] }},
{"zip_code":"4921","country":"US","city":"Brooks","state":"Maine","state_ab":"ME","county":"Waldo","geo_location":{ "type": "Point", "coordinates": [-69.1404, 44.5678] }},
{"zip_code":"4974","country":"US","city":"Searsport","state":"Maine","state_ab":"ME","county":"Waldo","geo_location":{ "type": "Point", "coordinates": [-68.9311, 44.4877] }},
{"zip_code":"4987","country":"US","city":"Troy","state":"Maine","state_ab":"ME","county":"Waldo","geo_location":{ "type": "Point", "coordinates": [-69.2549, 44.6757] }},
{"zip_code":"4611","country":"US","city":"Beals","state":"Maine","state_ab":"ME","county":"Washington","geo_location":{ "type": "Point", "coordinates": [-67.6056, 44.513] }},
{"zip_code":"4637","country":"US","city":"Grand Lake Stream","state":"Maine","state_ab":"ME","county":"Washington","geo_location":{ "type": "Point", "coordinates": [-67.601, 45.1856] }},
{"zip_code":"4691","country":"US","city":"Whiting","state":"Maine","state_ab":"ME","county":"Washington","geo_location":{ "type": "Point", "coordinates": [-67.2515, 44.7622] }},
{"zip_code":"3904","country":"US","city":"Kittery","state":"Maine","state_ab":"ME","county":"York","geo_location":{ "type": "Point", "coordinates": [-70.7429, 43.0921] }},
{"zip_code":"4004","country":"US","city":"Bar Mills","state":"Maine","state_ab":"ME","county":"York","geo_location":{ "type": "Point", "coordinates": [-70.6044, 43.3657] }},
{"zip_code":"49344","country":"US","city":"Shelbyville","state":"Michigan","state_ab":"MI","county":"Allegan","geo_location":{ "type": "Point", "coordinates": [-85.6282, 42.5936] }},
{"zip_code":"49447","country":"US","city":"New Richmond","state":"Michigan","state_ab":"MI","county":"Allegan County","geo_location":{ "type": "Point", "coordinates": [-86.038, 42.6624] }},
{"zip_code":"49744","country":"US","city":"Herron","state":"Michigan","state_ab":"MI","county":"Alpena","geo_location":{ "type": "Point", "coordinates": [-83.6535, 45.0124] }},
{"zip_code":"49627","country":"US","city":"Eastport","state":"Michigan","state_ab":"MI","county":"Antrim","geo_location":{ "type": "Point", "coordinates": [-85.3219, 45.0881] }},
{"zip_code":"48897","country":"US","city":"Woodland","state":"Michigan","state_ab":"MI","county":"Barry","geo_location":{ "type": "Point", "coordinates": [-85.1326, 42.7057] }},
{"zip_code":"48611","country":"US","city":"Auburn","state":"Michigan","state_ab":"MI","county":"Bay","geo_location":{ "type": "Point", "coordinates": [-84.1027, 43.608] }},
{"zip_code":"49111","country":"US","city":"Eau Claire","state":"Michigan","state_ab":"MI","county":"Berrien","geo_location":{ "type": "Point", "coordinates": [-86.2972, 42.0151] }},
{"zip_code":"49047","country":"US","city":"Dowagiac","state":"Michigan","state_ab":"MI","county":"Cass","geo_location":{ "type": "Point", "coordinates": [-86.1168, 41.991] }},
{"zip_code":"49061","country":"US","city":"Jones","state":"Michigan","state_ab":"MI","county":"Cass","geo_location":{ "type": "Point", "coordinates": [-85.8341, 41.9129] }},
{"zip_code":"49717","country":"US","city":"Burt Lake","state":"Michigan","state_ab":"MI","county":"Cheboygan","geo_location":{ "type": "Point", "coordinates": [-84.6912, 45.4307] }},
{"zip_code":"49784","country":"US","city":"Kincheloe","state":"Michigan","state_ab":"MI","county":"Chippewa","geo_location":{ "type": "Point", "coordinates": [-84.3365, 46.4108] }},
{"zip_code":"48831","country":"US","city":"Elsie","state":"Michigan","state_ab":"MI","county":"Clinton","geo_location":{ "type": "Point", "coordinates": [-84.4456, 43.0814] }},
{"zip_code":"49807","country":"US","city":"Bark River","state":"Michigan","state_ab":"MI","county":"Delta","geo_location":{ "type": "Point", "coordinates": [-87.2073, 45.6956] }},
{"zip_code":"49834","country":"US","city":"Foster City","state":"Michigan","state_ab":"MI","county":"Dickinson","geo_location":{ "type": "Point", "coordinates": [-87.7584, 45.9438] }},
{"zip_code":"48907","country":"US","city":"Lansing","state":"Michigan","state_ab":"MI","county":"Eaton","geo_location":{ "type": "Point", "coordinates": [-84.8382, 42.5961] }},
{"zip_code":"49021","country":"US","city":"Bellevue","state":"Michigan","state_ab":"MI","county":"Eaton","geo_location":{ "type": "Point", "coordinates": [-85.0489, 42.4525] }},
{"zip_code":"48457","country":"US","city":"Montrose","state":"Michigan","state_ab":"MI","county":"Genesee","geo_location":{ "type": "Point", "coordinates": [-83.8824, 43.1754] }},
{"zip_code":"48507","country":"US","city":"Flint","state":"Michigan","state_ab":"MI","county":"Genesee","geo_location":{ "type": "Point", "coordinates": [-83.734, 42.9821] }},
{"zip_code":"48624","country":"US","city":"Gladwin","state":"Michigan","state_ab":"MI","county":"Gladwin","geo_location":{ "type": "Point", "coordinates": [-84.4968, 44.0296] }},
{"zip_code":"49911","country":"US","city":"Bessemer","state":"Michigan","state_ab":"MI","county":"Gogebic","geo_location":{ "type": "Point", "coordinates": [-90.0515, 46.4802] }},
{"zip_code":"48871","country":"US","city":"Perrinton","state":"Michigan","state_ab":"MI","county":"Gratiot","geo_location":{ "type": "Point", "coordinates": [-84.666, 43.1649] }},
{"zip_code":"49227","country":"US","city":"Allen","state":"Michigan","state_ab":"MI","county":"Hillsdale","geo_location":{ "type": "Point", "coordinates": [-84.7608, 41.9264] }},
{"zip_code":"49281","country":"US","city":"Somerset","state":"Michigan","state_ab":"MI","county":"Hillsdale","geo_location":{ "type": "Point", "coordinates": [-84.3794, 42.023] }},
{"zip_code":"48754","country":"US","city":"Owendale","state":"Michigan","state_ab":"MI","county":"Huron","geo_location":{ "type": "Point", "coordinates": [-83.2307, 43.7206] }},
{"zip_code":"48921","country":"US","city":"Lansing","state":"Michigan","state_ab":"MI","county":"Ingham","geo_location":{ "type": "Point", "coordinates": [-84.5556, 42.7237] }},
{"zip_code":"49964","country":"US","city":"Stambaugh","state":"Michigan","state_ab":"MI","county":"Iron","geo_location":{ "type": "Point", "coordinates": [-88.629, 46.0797] }},
{"zip_code":"48804","country":"US","city":"Mount Pleasant","state":"Michigan","state_ab":"MI","county":"Isabella","geo_location":{ "type": "Point", "coordinates": [-84.8474, 43.6406] }},
{"zip_code":"49201","country":"US","city":"Jackson","state":"Michigan","state_ab":"MI","county":"Jackson","geo_location":{ "type": "Point", "coordinates": [-84.3875, 42.2545] }},
{"zip_code":"49241","country":"US","city":"Hanover","state":"Michigan","state_ab":"MI","county":"Jackson","geo_location":{ "type": "Point", "coordinates": [-84.5848, 42.1025] }},
{"zip_code":"49254","country":"US","city":"Michigan Center","state":"Michigan","state_ab":"MI","county":"Jackson","geo_location":{ "type": "Point", "coordinates": [-84.3161, 42.2271] }},
{"zip_code":"49007","country":"US","city":"Kalamazoo","state":"Michigan","state_ab":"MI","county":"Kalamazoo","geo_location":{ "type": "Point", "coordinates": [-85.5882, 42.3024] }},
{"zip_code":"49034","country":"US","city":"Climax","state":"Michigan","state_ab":"MI","county":"Kalamazoo","geo_location":{ "type": "Point", "coordinates": [-85.3238, 42.234] }},
{"zip_code":"49074","country":"US","city":"Nazareth","state":"Michigan","state_ab":"MI","county":"Kalamazoo","geo_location":{ "type": "Point", "coordinates": [-85.5299, 42.2454] }},
{"zip_code":"49087","country":"US","city":"Schoolcraft","state":"Michigan","state_ab":"MI","county":"Kalamazoo","geo_location":{ "type": "Point", "coordinates": [-85.6637, 42.1329] }},
{"zip_code":"49317","country":"US","city":"Cannonsburg","state":"Michigan","state_ab":"MI","county":"Kent","geo_location":{ "type": "Point", "coordinates": [-85.4809, 43.0712] }},
{"zip_code":"49331","country":"US","city":"Lowell","state":"Michigan","state_ab":"MI","county":"Kent","geo_location":{ "type": "Point", "coordinates": [-85.3653, 42.955] }},
{"zip_code":"49357","country":"US","city":"Ada","state":"Michigan","state_ab":"MI","county":"Kent","geo_location":{ "type": "Point", "coordinates": [-85.5503, 43.0314] }},
{"zip_code":"49924","country":"US","city":"Eagle River","state":"Michigan","state_ab":"MI","county":"Keweenaw County","geo_location":{ "type": "Point", "coordinates": [-88.2954, 47.4138] }},
{"zip_code":"49304","country":"US","city":"Baldwin","state":"Michigan","state_ab":"MI","county":"Lake","geo_location":{ "type": "Point", "coordinates": [-85.8819, 43.8894] }},
{"zip_code":"48444","country":"US","city":"Imlay City","state":"Michigan","state_ab":"MI","county":"Lapeer","geo_location":{ "type": "Point", "coordinates": [-83.0708, 43.0425] }},
{"zip_code":"48727","country":"US","city":"Clifford","state":"Michigan","state_ab":"MI","county":"Lapeer","geo_location":{ "type": "Point", "coordinates": [-83.1741, 43.31] }},
{"zip_code":"49654","country":"US","city":"Leland","state":"Michigan","state_ab":"MI","county":"Leelanau","geo_location":{ "type": "Point", "coordinates": [-85.9896, 45.0793] }},
{"zip_code":"48844","country":"US","city":"Howell","state":"Michigan","state_ab":"MI","county":"Livingston","geo_location":{ "type": "Point", "coordinates": [-83.9112, 42.6035] }},
{"zip_code":"49757","country":"US","city":"Mackinac Island","state":"Michigan","state_ab":"MI","county":"Mackinac","geo_location":{ "type": "Point", "coordinates": [-84.6245, 45.8578] }},
{"zip_code":"48044","country":"US","city":"Macomb","state":"Michigan","state_ab":"MI","county":"Macomb","geo_location":{ "type": "Point", "coordinates": [-82.8985, 42.6442] }},
{"zip_code":"48314","country":"US","city":"Sterling Heights","state":"Michigan","state_ab":"MI","county":"Macomb","geo_location":{ "type": "Point", "coordinates": [-83.0345, 42.6124] }},
{"zip_code":"49614","country":"US","city":"Bear Lake","state":"Michigan","state_ab":"MI","county":"Manistee","geo_location":{ "type": "Point", "coordinates": [-86.1425, 44.4311] }},
{"zip_code":"13471","country":"US","city":"Taberg","state":"New York","state_ab":"NY","county":"Oneida","geo_location":{ "type": "Point", "coordinates": [-75.6027, 43.3366] }},
{"zip_code":"13031","country":"US","city":"Camillus","state":"New York","state_ab":"NY","county":"Onondaga","geo_location":{ "type": "Point", "coordinates": [-76.2807, 43.0417] }},
{"zip_code":"13057","country":"US","city":"East Syracuse","state":"New York","state_ab":"NY","county":"Onondaga","geo_location":{ "type": "Point", "coordinates": [-76.0558, 43.0734] }},
{"zip_code":"13084","country":"US","city":"La Fayette","state":"New York","state_ab":"NY","county":"Onondaga","geo_location":{ "type": "Point", "coordinates": [-76.1061, 42.891] }},
{"zip_code":"13211","country":"US","city":"Syracuse","state":"New York","state_ab":"NY","county":"Onondaga","geo_location":{ "type": "Point", "coordinates": [-76.1195, 43.1036] }},
{"zip_code":"13224","country":"US","city":"Syracuse","state":"New York","state_ab":"NY","county":"Onondaga","geo_location":{ "type": "Point", "coordinates": [-76.1046, 43.0421] }},
{"zip_code":"13251","country":"US","city":"Syracuse","state":"New York","state_ab":"NY","county":"Onondaga","geo_location":{ "type": "Point", "coordinates": [-76.1977, 43.0214] }},
{"zip_code":"14461","country":"US","city":"Gorham","state":"New York","state_ab":"NY","county":"Ontario","geo_location":{ "type": "Point", "coordinates": [-77.2876, 42.8081] }},
{"zip_code":"14537","country":"US","city":"Port Gibson","state":"New York","state_ab":"NY","county":"Ontario","geo_location":{ "type": "Point", "coordinates": [-77.1575, 43.033] }},
{"zip_code":"14564","country":"US","city":"Victor","state":"New York","state_ab":"NY","county":"Ontario","geo_location":{ "type": "Point", "coordinates": [-77.418, 42.9866] }},
{"zip_code":"10924","country":"US","city":"Goshen","state":"New York","state_ab":"NY","county":"Orange","geo_location":{ "type": "Point", "coordinates": [-74.3302, 41.3946] }},
{"zip_code":"12584","country":"US","city":"Vails Gate","state":"New York","state_ab":"NY","county":"Orange","geo_location":{ "type": "Point", "coordinates": [-74.0591, 41.4641] }},
{"zip_code":"13044","country":"US","city":"Constantia","state":"New York","state_ab":"NY","county":"Oswego","geo_location":{ "type": "Point", "coordinates": [-76.0042, 43.2728] }},
{"zip_code":"13107","country":"US","city":"Maple View","state":"New York","state_ab":"NY","county":"Oswego","geo_location":{ "type": "Point", "coordinates": [-76.1534, 43.4578] }},
{"zip_code":"13121","country":"US","city":"New Haven","state":"New York","state_ab":"NY","county":"Oswego","geo_location":{ "type": "Point", "coordinates": [-76.315, 43.4834] }},
{"zip_code":"12197","country":"US","city":"Worcester","state":"New York","state_ab":"NY","county":"Otsego","geo_location":{ "type": "Point", "coordinates": [-74.7299, 42.6049] }},
{"zip_code":"13457","country":"US","city":"Schuyler Lake","state":"New York","state_ab":"NY","county":"Otsego","geo_location":{ "type": "Point", "coordinates": [-75.0485, 42.7758] }},
{"zip_code":"10524","country":"US","city":"Garrison","state":"New York","state_ab":"NY","county":"Putnam","geo_location":{ "type": "Point", "coordinates": [-73.92, 41.3621] }},
{"zip_code":"10537","country":"US","city":"Lake Peekskill","state":"New York","state_ab":"NY","county":"Putnam","geo_location":{ "type": "Point", "coordinates": [-73.8838, 41.3374] }},
{"zip_code":"11101","country":"US","city":"Long Island City","state":"New York","state_ab":"NY","county":"Queens","geo_location":{ "type": "Point", "coordinates": [-73.9345, 40.7446] }},
{"zip_code":"11361","country":"US","city":"Bayside","state":"New York","state_ab":"NY","county":"Queens","geo_location":{ "type": "Point", "coordinates": [-73.7745, 40.7627] }},
{"zip_code":"11374","country":"US","city":"Rego Park","state":"New York","state_ab":"NY","county":"Queens","geo_location":{ "type": "Point", "coordinates": [-73.8602, 40.7278] }},
{"zip_code":"11411","country":"US","city":"Cambria Heights","state":"New York","state_ab":"NY","county":"Queens","geo_location":{ "type": "Point", "coordinates": [-73.7374, 40.6947] }},
{"zip_code":"11424","country":"US","city":"Jamaica","state":"New York","state_ab":"NY","county":"Queens","geo_location":{ "type": "Point", "coordinates": [-73.8708, 40.6514] }},
{"zip_code":"11451","country":"US","city":"Jamaica","state":"New York","state_ab":"NY","county":"Queens","geo_location":{ "type": "Point", "coordinates": [-73.8708, 40.6514] }},
{"zip_code":"11697","country":"US","city":"Breezy Point","state":"New York","state_ab":"NY","county":"Queens","geo_location":{ "type": "Point", "coordinates": [-73.9067, 40.5594] }},
{"zip_code":"12094","country":"US","city":"Johnsonville","state":"New York","state_ab":"NY","county":"Rensselaer","geo_location":{ "type": "Point", "coordinates": [-73.4989, 42.8769] }},
{"zip_code":"12144","country":"US","city":"Rensselaer","state":"New York","state_ab":"NY","county":"Rensselaer","geo_location":{ "type": "Point", "coordinates": [-73.7219, 42.6359] }},
{"zip_code":"10304","country":"US","city":"Staten Island","state":"New York","state_ab":"NY","county":"Richmond","geo_location":{ "type": "Point", "coordinates": [-74.0878, 40.6102] }},
{"zip_code":"10911","country":"US","city":"Bear Mountain","state":"New York","state_ab":"NY","county":"Rockland","geo_location":{ "type": "Point", "coordinates": [-74.0608, 41.1609] }},
{"zip_code":"10964","country":"US","city":"Palisades","state":"New York","state_ab":"NY","county":"Rockland","geo_location":{ "type": "Point", "coordinates": [-73.925, 41.0103] }},
{"zip_code":"10977","country":"US","city":"Spring Valley","state":"New York","state_ab":"NY","county":"Rockland","geo_location":{ "type": "Point", "coordinates": [-74.0474, 41.1158] }},
{"zip_code":"13664","country":"US","city":"Morristown","state":"New York","state_ab":"NY","county":"St. Lawrence","geo_location":{ "type": "Point", "coordinates": [-75.6453, 44.5843] }},
{"zip_code":"13677","country":"US","city":"Pyrites","state":"New York","state_ab":"NY","county":"St. Lawrence","geo_location":{ "type": "Point", "coordinates": [-75.082, 44.6734] }},
{"zip_code":"12027","country":"US","city":"Burnt Hills","state":"New York","state_ab":"NY","county":"Saratoga","geo_location":{ "type": "Point", "coordinates": [-73.896, 42.9329] }},
{"zip_code":"12131","country":"US","city":"North Blenheim","state":"New York","state_ab":"NY","county":"Schoharie","geo_location":{ "type": "Point", "coordinates": [-74.4282, 42.4899] }},
{"zip_code":"12157","country":"US","city":"Schoharie","state":"New York","state_ab":"NY","county":"Schoharie","geo_location":{ "type": "Point", "coordinates": [-74.3047, 42.6615] }},
{"zip_code":"14887","country":"US","city":"Tyrone","state":"New York","state_ab":"NY","county":"Schuyler","geo_location":{ "type": "Point", "coordinates": [-77.0268, 42.3994] }},
{"zip_code":"14847","country":"US","city":"Interlaken","state":"New York","state_ab":"NY","county":"Seneca","geo_location":{ "type": "Point", "coordinates": [-76.7268, 42.6165] }},
{"zip_code":"14807","country":"US","city":"Arkport","state":"New York","state_ab":"NY","county":"Steuben","geo_location":{ "type": "Point", "coordinates": [-77.6918, 42.4225] }},
{"zip_code":"14821","country":"US","city":"Campbell","state":"New York","state_ab":"NY","county":"Steuben","geo_location":{ "type": "Point", "coordinates": [-77.2066, 42.2386] }},
{"zip_code":"14874","country":"US","city":"Pulteney","state":"New York","state_ab":"NY","county":"Steuben","geo_location":{ "type": "Point", "coordinates": [-77.1691, 42.5233] }},
{"zip_code":"11707","country":"US","city":"West Babylon","state":"New York","state_ab":"NY","county":"Suffolk","geo_location":{ "type": "Point", "coordinates": [-72.6371, 40.9223] }},
{"zip_code":"11721","country":"US","city":"Centerport","state":"New York","state_ab":"NY","county":"Suffolk","geo_location":{ "type": "Point", "coordinates": [-73.3754, 40.8929] }},
{"zip_code":"11747","country":"US","city":"Melville","state":"New York","state_ab":"NY","county":"Suffolk","geo_location":{ "type": "Point", "coordinates": [-73.403, 40.7946] }},
{"zip_code":"11787","country":"US","city":"Smithtown","state":"New York","state_ab":"NY","county":"Suffolk","geo_location":{ "type": "Point", "coordinates": [-73.2138, 40.8542] }},
{"zip_code":"11901","country":"US","city":"Riverhead","state":"New York","state_ab":"NY","county":"Suffolk","geo_location":{ "type": "Point", "coordinates": [-72.652, 40.9262] }},
{"zip_code":"11941","country":"US","city":"Eastport","state":"New York","state_ab":"NY","county":"Suffolk","geo_location":{ "type": "Point", "coordinates": [-72.7283, 40.8297] }},
{"zip_code":"11954","country":"US","city":"Montauk","state":"New York","state_ab":"NY","county":"Suffolk","geo_location":{ "type": "Point", "coordinates": [-71.944, 41.0459] }},
{"zip_code":"11967","country":"US","city":"Shirley","state":"New York","state_ab":"NY","county":"Suffolk","geo_location":{ "type": "Point", "coordinates": [-72.876, 40.7439] }},
{"zip_code":"12724","country":"US","city":"Callicoon Center","state":"New York","state_ab":"NY","county":"Sullivan","geo_location":{ "type": "Point", "coordinates": [-74.7554, 41.719] }},
{"zip_code":"12737","country":"US","city":"Glen Spey","state":"New York","state_ab":"NY","county":"Sullivan","geo_location":{ "type": "Point", "coordinates": [-74.7995, 41.4858] }},
{"zip_code":"12751","country":"US","city":"Kiamesha Lake","state":"New York","state_ab":"NY","county":"Sullivan","geo_location":{ "type": "Point", "coordinates": [-74.6724, 41.6838] }},
{"zip_code":"12764","country":"US","city":"Narrowsburg","state":"New York","state_ab":"NY","county":"Sullivan","geo_location":{ "type": "Point", "coordinates": [-75.0107, 41.5921] }},
{"zip_code":"12777","country":"US","city":"Forestburgh","state":"New York","state_ab":"NY","county":"Sullivan","geo_location":{ "type": "Point", "coordinates": [-74.7241, 41.5691] }},
{"zip_code":"12791","country":"US","city":"Youngsville","state":"New York","state_ab":"NY","county":"Sullivan","geo_location":{ "type": "Point", "coordinates": [-74.8888, 41.8032] }},
{"zip_code":"12401","country":"US","city":"Kingston","state":"New York","state_ab":"NY","county":"Ulster","geo_location":{ "type": "Point", "coordinates": [-74.0668, 41.9697] }},
{"zip_code":"12441","country":"US","city":"Highmount","state":"New York","state_ab":"NY","county":"Ulster","geo_location":{ "type": "Point", "coordinates": [-74.3457, 41.8788] }},
{"zip_code":"12481","country":"US","city":"Shokan","state":"New York","state_ab":"NY","county":"Ulster","geo_location":{ "type": "Point", "coordinates": [-74.2119, 41.9767] }},
{"zip_code":"12494","country":"US","city":"West Shokan","state":"New York","state_ab":"NY","county":"Ulster","geo_location":{ "type": "Point", "coordinates": [-74.2676, 41.9726] }},
{"zip_code":"12801","country":"US","city":"Glens Falls","state":"New York","state_ab":"NY","county":"Warren","geo_location":{ "type": "Point", "coordinates": [-73.6448, 43.3115] }},
{"zip_code":"12814","country":"US","city":"Bolton Landing","state":"New York","state_ab":"NY","county":"Warren","geo_location":{ "type": "Point", "coordinates": [-73.6714, 43.5766] }},
{"zip_code":"12827","country":"US","city":"Fort Ann","state":"New York","state_ab":"NY","county":"Washington","geo_location":{ "type": "Point", "coordinates": [-73.4784, 43.4285] }},
{"zip_code":"12841","country":"US","city":"Huletts Landing","state":"New York","state_ab":"NY","county":"Washington","geo_location":{ "type": "Point", "coordinates": [-73.5083, 43.647] }},
{"zip_code":"12854","country":"US","city":"North Granville","state":"New York","state_ab":"NY","county":"Washington","geo_location":{ "type": "Point", "coordinates": [-73.341, 43.4525] }},
{"zip_code":"14551","country":"US","city":"Sodus","state":"New York","state_ab":"NY","county":"Wayne","geo_location":{ "type": "Point", "coordinates": [-77.0514, 43.2217] }},
{"zip_code":"10511","country":"US","city":"Buchanan","state":"New York","state_ab":"NY","county":"Westchester","geo_location":{ "type": "Point", "coordinates": [-73.9412, 41.2583] }},
{"zip_code":"10551","country":"US","city":"Mount Vernon","state":"New York","state_ab":"NY","county":"Westchester","geo_location":{ "type": "Point", "coordinates": [-73.733, 41.119] }},
{"zip_code":"10577","country":"US","city":"Purchase","state":"New York","state_ab":"NY","county":"Westchester","geo_location":{ "type": "Point", "coordinates": [-73.7156, 41.0384] }},
{"zip_code":"10591","country":"US","city":"Tarrytown","state":"New York","state_ab":"NY","county":"Westchester","geo_location":{ "type": "Point", "coordinates": [-73.844, 41.0897] }},
{"zip_code":"10601","country":"US","city":"White Plains","state":"New York","state_ab":"NY","county":"Westchester","geo_location":{ "type": "Point", "coordinates": [-73.7652, 41.033] }},
{"zip_code":"10704","country":"US","city":"Yonkers","state":"New York","state_ab":"NY","county":"Westchester","geo_location":{ "type": "Point", "coordinates": [-73.8593, 40.9176] }},
{"zip_code":"14591","country":"US","city":"Wyoming","state":"New York","state_ab":"NY","county":"Wyoming","geo_location":{ "type": "Point", "coordinates": [-78.0833, 42.8317] }},
{"zip_code":"45807","country":"US","city":"Lima","state":"Ohio","state_ab":"OH","county":"Allen","geo_location":{ "type": "Point", "coordinates": [-84.1383, 40.7955] }},
{"zip_code":"45887","country":"US","city":"Spencerville","state":"Ohio","state_ab":"OH","county":"Allen","geo_location":{ "type": "Point", "coordinates": [-84.3413, 40.7038] }},
{"zip_code":"44004","country":"US","city":"Ashtabula","state":"Ohio","state_ab":"OH","county":"Ashtabula","geo_location":{ "type": "Point", "coordinates": [-80.7947, 41.8679] }},
{"zip_code":"44084","country":"US","city":"Rock Creek","state":"Ohio","state_ab":"OH","county":"Ashtabula","geo_location":{ "type": "Point", "coordinates": [-80.9051, 41.6898] }},
{"zip_code":"45717","country":"US","city":"Carbondale","state":"Ohio","state_ab":"OH","county":"Athens","geo_location":{ "type": "Point", "coordinates": [-82.0101, 39.3682] }},
{"zip_code":"45061","country":"US","city":"Ross","state":"Ohio","state_ab":"OH","county":"Butler","geo_location":{ "type": "Point", "coordinates": [-84.6483, 39.3124] }},
{"zip_code":"44651","country":"US","city":"Mechanicstown","state":"Ohio","state_ab":"OH","county":"Carroll","geo_location":{ "type": "Point", "coordinates": [-80.956, 40.6263] }},
{"zip_code":"45344","country":"US","city":"New Carlisle","state":"Ohio","state_ab":"OH","county":"Clark","geo_location":{ "type": "Point", "coordinates": [-84.0217, 39.93] }},
{"zip_code":"45164","country":"US","city":"Port William","state":"Ohio","state_ab":"OH","county":"Clinton","geo_location":{ "type": "Point", "coordinates": [-83.7881, 39.5514] }},
{"zip_code":"45177","country":"US","city":"Wilmington","state":"Ohio","state_ab":"OH","county":"Clinton","geo_location":{ "type": "Point", "coordinates": [-83.8417, 39.4488] }},
{"zip_code":"44431","country":"US","city":"Leetonia","state":"Ohio","state_ab":"OH","county":"Columbiana","geo_location":{ "type": "Point", "coordinates": [-80.7585, 40.8631] }},
{"zip_code":"44017","country":"US","city":"Berea","state":"Ohio","state_ab":"OH","county":"Cuyahoga","geo_location":{ "type": "Point", "coordinates": [-81.8618, 41.3676] }},
{"zip_code":"44107","country":"US","city":"Lakewood","state":"Ohio","state_ab":"OH","county":"Cuyahoga","geo_location":{ "type": "Point", "coordinates": [-81.8018, 41.4847] }},
{"zip_code":"44121","country":"US","city":"Cleveland","state":"Ohio","state_ab":"OH","county":"Cuyahoga","geo_location":{ "type": "Point", "coordinates": [-81.5323, 41.5277] }},
{"zip_code":"44134","country":"US","city":"Cleveland","state":"Ohio","state_ab":"OH","county":"Cuyahoga","geo_location":{ "type": "Point", "coordinates": [-81.7044, 41.3853] }},
{"zip_code":"44147","country":"US","city":"Broadview Heights","state":"Ohio","state_ab":"OH","county":"Cuyahoga","geo_location":{ "type": "Point", "coordinates": [-81.6731, 41.3141] }},
{"zip_code":"45304","country":"US","city":"Arcanum","state":"Ohio","state_ab":"OH","county":"Darke","geo_location":{ "type": "Point", "coordinates": [-84.5312, 39.9888] }},
{"zip_code":"45331","country":"US","city":"Greenville","state":"Ohio","state_ab":"OH","county":"Darke","geo_location":{ "type": "Point", "coordinates": [-84.6342, 40.0987] }},
{"zip_code":"44871","country":"US","city":"Sandusky","state":"Ohio","state_ab":"OH","county":"Erie","geo_location":{ "type": "Point", "coordinates": [-82.6478, 41.4918] }},
{"zip_code":"43157","country":"US","city":"Thurston","state":"Ohio","state_ab":"OH","county":"Fairfield","geo_location":{ "type": "Point", "coordinates": [-82.5462, 39.8427] }},
{"zip_code":"43054","country":"US","city":"New Albany","state":"Ohio","state_ab":"OH","county":"Franklin","geo_location":{ "type": "Point", "coordinates": [-82.7988, 40.0847] }},
{"zip_code":"43081","country":"US","city":"Westerville","state":"Ohio","state_ab":"OH","county":"Franklin","geo_location":{ "type": "Point", "coordinates": [-82.9105, 40.1146] }},
{"zip_code":"43207","country":"US","city":"Columbus","state":"Ohio","state_ab":"OH","county":"Franklin","geo_location":{ "type": "Point", "coordinates": [-82.9703, 39.9046] }},
{"zip_code":"43221","country":"US","city":"Columbus","state":"Ohio","state_ab":"OH","county":"Franklin","geo_location":{ "type": "Point", "coordinates": [-83.0776, 40.0226] }},
{"zip_code":"43234","country":"US","city":"Columbus","state":"Ohio","state_ab":"OH","county":"Franklin","geo_location":{ "type": "Point", "coordinates": [-83.0114, 39.969] }},
{"zip_code":"43287","country":"US","city":"Columbus","state":"Ohio","state_ab":"OH","county":"Franklin","geo_location":{ "type": "Point", "coordinates": [-83.0114, 39.969] }},
{"zip_code":"45614","country":"US","city":"Bidwell","state":"Ohio","state_ab":"OH","county":"Gallia","geo_location":{ "type": "Point", "coordinates": [-82.2701, 38.9276] }},
{"zip_code":"45384","country":"US","city":"Wilberforce","state":"Ohio","state_ab":"OH","county":"Greene","geo_location":{ "type": "Point", "coordinates": [-83.8781, 39.7128] }},
{"zip_code":"45111","country":"US","city":"Camp Dennison","state":"Ohio","state_ab":"OH","county":"Hamilton","geo_location":{ "type": "Point", "coordinates": [-84.2897, 39.1962] }},
{"zip_code":"45201","country":"US","city":"Cincinnati","state":"Ohio","state_ab":"OH","county":"Hamilton","geo_location":{ "type": "Point", "coordinates": [-84.5382, 39.1668] }},
{"zip_code":"45214","country":"US","city":"Cincinnati","state":"Ohio","state_ab":"OH","county":"Hamilton","geo_location":{ "type": "Point", "coordinates": [-84.5506, 39.1219] }},
{"zip_code":"45227","country":"US","city":"Cincinnati","state":"Ohio","state_ab":"OH","county":"Hamilton","geo_location":{ "type": "Point", "coordinates": [-84.3854, 39.1539] }},
{"zip_code":"45241","country":"US","city":"Cincinnati","state":"Ohio","state_ab":"OH","county":"Hamilton","geo_location":{ "type": "Point", "coordinates": [-84.4092, 39.2638] }},
{"zip_code":"45254","country":"US","city":"Cincinnati","state":"Ohio","state_ab":"OH","county":"Hamilton","geo_location":{ "type": "Point", "coordinates": [-84.5382, 39.1668] }},
{"zip_code":"45267","country":"US","city":"Cincinnati","state":"Ohio","state_ab":"OH","county":"Hamilton","geo_location":{ "type": "Point", "coordinates": [-84.5382, 39.1668] }},
{"zip_code":"44804","country":"US","city":"Arcadia","state":"Ohio","state_ab":"OH","county":"Hancock","geo_location":{ "type": "Point", "coordinates": [-83.5019, 41.1116] }},
{"zip_code":"43984","country":"US","city":"New Rumley","state":"Ohio","state_ab":"OH","county":"Harrison","geo_location":{ "type": "Point", "coordinates": [-81.1025, 40.2965] }},
{"zip_code":"43144","country":"US","city":"Murray City","state":"Ohio","state_ab":"OH","county":"Hocking","geo_location":{ "type": "Point", "coordinates": [-82.1711, 39.5055] }},
{"zip_code":"44611","country":"US","city":"Big Prairie","state":"Ohio","state_ab":"OH","county":"Holmes","geo_location":{ "type": "Point", "coordinates": [-82.072, 40.6188] }},
{"zip_code":"44637","country":"US","city":"Killbuck","state":"Ohio","state_ab":"OH","county":"Holmes","geo_location":{ "type": "Point", "coordinates": [-81.9837, 40.4933] }},
{"zip_code":"44857","country":"US","city":"Norwalk","state":"Ohio","state_ab":"OH","county":"Huron","geo_location":{ "type": "Point", "coordinates": [-82.6078, 41.2403] }},
{"zip_code":"43917","country":"US","city":"Dillonvale","state":"Ohio","state_ab":"OH","county":"Jefferson","geo_location":{ "type": "Point", "coordinates": [-80.8031, 40.2251] }},
{"zip_code":"43944","country":"US","city":"Richmond","state":"Ohio","state_ab":"OH","county":"Jefferson","geo_location":{ "type": "Point", "coordinates": [-80.7613, 40.4261] }},
{"zip_code":"43971","country":"US","city":"Yorkville","state":"Ohio","state_ab":"OH","county":"Jefferson","geo_location":{ "type": "Point", "coordinates": [-80.7077, 40.1581] }},
{"zip_code":"43014","country":"US","city":"Danville","state":"Ohio","state_ab":"OH","county":"Knox","geo_location":{ "type": "Point", "coordinates": [-82.2639, 40.4557] }},
{"zip_code":"44057","country":"US","city":"Madison","state":"Ohio","state_ab":"OH","county":"Lake","geo_location":{ "type": "Point", "coordinates": [-81.0588, 41.8054] }},
{"zip_code":"44097","country":"US","city":"Eastlake","state":"Ohio","state_ab":"OH","county":"Lake","geo_location":{ "type": "Point", "coordinates": [-81.249, 41.9107] }},
{"zip_code":"43001","country":"US","city":"Alexandria","state":"Ohio","state_ab":"OH","county":"Licking","geo_location":{ "type": "Point", "coordinates": [-82.6077, 40.106] }},
{"zip_code":"43027","country":"US","city":"Homer","state":"Ohio","state_ab":"OH","county":"Licking","geo_location":{ "type": "Point", "coordinates": [-82.5616, 40.1328] }},
{"zip_code":"43311","country":"US","city":"Bellefontaine","state":"Ohio","state_ab":"OH","county":"Logan","geo_location":{ "type": "Point", "coordinates": [-83.7571, 40.3605] }},
{"zip_code":"43324","country":"US","city":"Huntsville","state":"Ohio","state_ab":"OH","county":"Logan","geo_location":{ "type": "Point", "coordinates": [-83.7927, 40.4413] }},
{"zip_code":"44044","country":"US","city":"Grafton","state":"Ohio","state_ab":"OH","county":"Lorain","geo_location":{ "type": "Point", "coordinates": [-82.0431, 41.2854] }},
{"zip_code":"43504","country":"US","city":"Berkey","state":"Ohio","state_ab":"OH","county":"Lucas","geo_location":{ "type": "Point", "coordinates": [-83.831, 41.6989] }},
{"zip_code":"43571","country":"US","city":"Whitehouse","state":"Ohio","state_ab":"OH","county":"Lucas","geo_location":{ "type": "Point", "coordinates": [-83.8115, 41.5194] }},
{"zip_code":"43607","country":"US","city":"Toledo","state":"Ohio","state_ab":"OH","county":"Lucas","geo_location":{ "type": "Point", "coordinates": [-83.5974, 41.6504] }},
{"zip_code":"43661","country":"US","city":"Toledo","state":"Ohio","state_ab":"OH","county":"Lucas","geo_location":{ "type": "Point", "coordinates": [-83.4972, 41.6782] }},
{"zip_code":"44471","country":"US","city":"Struthers","state":"Ohio","state_ab":"OH","county":"Mahoning","geo_location":{ "type": "Point", "coordinates": [-80.5985, 41.0508] }},
{"zip_code":"44507","country":"US","city":"Youngstown","state":"Ohio","state_ab":"OH","county":"Mahoning","geo_location":{ "type": "Point", "coordinates": [-80.6553, 41.0732] }}]}