{"value": [{"zip_code":"16314","country":"US","city":"Cochranton","state":"Pennsylvania","state_ab":"PA","county":"Crawford","geo_location":{ "type": "Point", "coordinates": [-80.0573, 41.5205] }},
{"zip_code":"16327","country":"US","city":"Guys Mills","state":"Pennsylvania","state_ab":"PA","county":"Crawford","geo_location":{ "type": "Point", "coordinates": [-79.9714, 41.6333] }},
{"zip_code":"16354","country":"US","city":"Titusville","state":"Pennsylvania","state_ab":"PA","county":"Crawford","geo_location":{ "type": "Point", "coordinates": [-79.6855, 41.6382] }},
{"zip_code":"16404","country":"US","city":"Centerville","state":"Pennsylvania","state_ab":"PA","county":"Crawford","geo_location":{ "type": "Point", "coordinates": [-79.79, 41.7243] }},
{"zip_code":"17007","country":"US","city":"Boiling Springs","state":"Pennsylvania","state_ab":"PA","county":"Cumberland","geo_location":{ "type": "Point", "coordinates": [-77.1195, 40.1449] }},
{"zip_code":"17241","country":"US","city":"Newville","state":"Pennsylvania","state_ab":"PA","county":"Cumberland","geo_location":{ "type": "Point", "coordinates": [-77.4114, 40.1855] }},
{"zip_code":"17034","country":"US","city":"Highspire","state":"Pennsylvania","state_ab":"PA","county":"Dauphin","geo_location":{ "type": "Point", "coordinates": [-76.7853, 40.2083] }},
{"zip_code":"17061","country":"US","city":"Millersburg","state":"Pennsylvania","state_ab":"PA","county":"Dauphin","geo_location":{ "type": "Point", "coordinates": [-76.9305, 40.5587] }},
{"zip_code":"17111","country":"US","city":"Harrisburg","state":"Pennsylvania","state_ab":"PA","county":"Dauphin","geo_location":{ "type": "Point", "coordinates": [-76.8017, 40.2721] }},
{"zip_code":"17124","country":"US","city":"Harrisburg","state":"Pennsylvania","state_ab":"PA","county":"Dauphin","geo_location":{ "type": "Point", "coordinates": [-76.886, 40.2675] }},
{"zip_code":"17177","country":"US","city":"Harrisburg","state":"Pennsylvania","state_ab":"PA","county":"Dauphin","geo_location":{ "type": "Point", "coordinates": [-76.8472, 40.299] }},
{"zip_code":"19014","country":"US","city":"Aston","state":"Pennsylvania","state_ab":"PA","county":"Delaware","geo_location":{ "type": "Point", "coordinates": [-75.4332, 39.8643] }},
{"zip_code":"19041","country":"US","city":"Haverford","state":"Pennsylvania","state_ab":"PA","county":"Delaware","geo_location":{ "type": "Point", "coordinates": [-75.3121, 40.0097] }},
{"zip_code":"19081","country":"US","city":"Swarthmore","state":"Pennsylvania","state_ab":"PA","county":"Delaware","geo_location":{ "type": "Point", "coordinates": [-75.3474, 39.8967] }},
{"zip_code":"19094","country":"US","city":"Woodlyn","state":"Pennsylvania","state_ab":"PA","county":"Delaware","geo_location":{ "type": "Point", "coordinates": [-75.3463, 39.876] }},
{"zip_code":"15827","country":"US","city":"Byrnedale","state":"Pennsylvania","state_ab":"PA","county":"Elk","geo_location":{ "type": "Point", "coordinates": [-78.5051, 41.2865] }},
{"zip_code":"15841","country":"US","city":"Force","state":"Pennsylvania","state_ab":"PA","county":"Elk","geo_location":{ "type": "Point", "coordinates": [-78.5298, 41.2629] }},
{"zip_code":"16417","country":"US","city":"Girard","state":"Pennsylvania","state_ab":"PA","county":"Erie","geo_location":{ "type": "Point", "coordinates": [-80.3178, 41.9896] }},
{"zip_code":"16444","country":"US","city":"Edinboro","state":"Pennsylvania","state_ab":"PA","county":"Erie","geo_location":{ "type": "Point", "coordinates": [-80.1218, 41.8707] }},
{"zip_code":"16507","country":"US","city":"Erie","state":"Pennsylvania","state_ab":"PA","county":"Erie","geo_location":{ "type": "Point", "coordinates": [-80.0864, 42.1316] }},
{"zip_code":"16534","country":"US","city":"Erie","state":"Pennsylvania","state_ab":"PA","county":"Erie","geo_location":{ "type": "Point", "coordinates": [-80.0649, 42.1827] }},
{"zip_code":"15401","country":"US","city":"Uniontown","state":"Pennsylvania","state_ab":"PA","county":"Fayette","geo_location":{ "type": "Point", "coordinates": [-79.7282, 39.8897] }},
{"zip_code":"15454","country":"US","city":"Leckrone","state":"Pennsylvania","state_ab":"PA","county":"Fayette","geo_location":{ "type": "Point", "coordinates": [-79.6522, 39.9321] }},
{"zip_code":"15467","country":"US","city":"New Geneva","state":"Pennsylvania","state_ab":"PA","county":"Fayette","geo_location":{ "type": "Point", "coordinates": [-79.6522, 39.9321] }},
{"zip_code":"17201","country":"US","city":"Chambersburg","state":"Pennsylvania","state_ab":"PA","county":"Franklin","geo_location":{ "type": "Point", "coordinates": [-77.6579, 39.9313] }},
{"zip_code":"17214","country":"US","city":"Blue Ridge Summit","state":"Pennsylvania","state_ab":"PA","county":"Franklin","geo_location":{ "type": "Point", "coordinates": [-77.4707, 39.7399] }},
{"zip_code":"17254","country":"US","city":"Scotland","state":"Pennsylvania","state_ab":"PA","county":"Franklin","geo_location":{ "type": "Point", "coordinates": [-77.5848, 39.9696] }},
{"zip_code":"17294","country":"US","city":"Blue Ridge Summit","state":"Pennsylvania","state_ab":"PA","county":"Franklin","geo_location":{ "type": "Point", "coordinates": [-77.7764, 40.0049] }},
{"zip_code":"16691","country":"US","city":"Wells Tannery","state":"Pennsylvania","state_ab":"PA","county":"Fulton","geo_location":{ "type": "Point", "coordinates": [-78.1403, 40.101] }},
{"zip_code":"17267","country":"US","city":"Warfordsburg","state":"Pennsylvania","state_ab":"PA","county":"Fulton","geo_location":{ "type": "Point", "coordinates": [-78.1986, 39.7698] }},
{"zip_code":"15337","country":"US","city":"Graysville","state":"Pennsylvania","state_ab":"PA","county":"Greene","geo_location":{ "type": "Point", "coordinates": [-80.3952, 39.9092] }},
{"zip_code":"15351","country":"US","city":"Nemacolin","state":"Pennsylvania","state_ab":"PA","county":"Greene","geo_location":{ "type": "Point", "coordinates": [-79.9258, 39.8779] }},
{"zip_code":"15364","country":"US","city":"Sycamore","state":"Pennsylvania","state_ab":"PA","county":"Greene","geo_location":{ "type": "Point", "coordinates": [-80.2906, 39.9415] }},
{"zip_code":"16611","country":"US","city":"Alexandria","state":"Pennsylvania","state_ab":"PA","county":"Huntingdon","geo_location":{ "type": "Point", "coordinates": [-78.0951, 40.5485] }},
{"zip_code":"15724","country":"US","city":"Cherry Tree","state":"Pennsylvania","state_ab":"PA","county":"Indiana","geo_location":{ "type": "Point", "coordinates": [-78.8474, 40.7554] }},
{"zip_code":"15751","country":"US","city":"Juneau","state":"Pennsylvania","state_ab":"PA","county":"Indiana","geo_location":{ "type": "Point", "coordinates": [-79.1294, 40.64] }},
{"zip_code":"15777","country":"US","city":"Starford","state":"Pennsylvania","state_ab":"PA","county":"Indiana","geo_location":{ "type": "Point", "coordinates": [-78.9588, 40.7027] }},
{"zip_code":"15957","country":"US","city":"Strongstown","state":"Pennsylvania","state_ab":"PA","county":"Indiana","geo_location":{ "type": "Point", "coordinates": [-78.9, 40.5727] }},
{"zip_code":"16211","country":"US","city":"Beyer","state":"Pennsylvania","state_ab":"PA","county":"Indiana","geo_location":{ "type": "Point", "coordinates": [-79.1294, 40.64] }},
{"zip_code":"15711","country":"US","city":"Anita","state":"Pennsylvania","state_ab":"PA","county":"Jefferson","geo_location":{ "type": "Point", "coordinates": [-78.9666, 41.0018] }},
{"zip_code":"15764","country":"US","city":"Oliveburg","state":"Pennsylvania","state_ab":"PA","county":"Jefferson","geo_location":{ "type": "Point", "coordinates": [-79.0291, 40.9926] }},
{"zip_code":"17021","country":"US","city":"East Waterford","state":"Pennsylvania","state_ab":"PA","county":"Juniata","geo_location":{ "type": "Point", "coordinates": [-77.6528, 40.3542] }},
{"zip_code":"18411","country":"US","city":"Clarks Summit","state":"Pennsylvania","state_ab":"PA","county":"Lackawanna","geo_location":{ "type": "Point", "coordinates": [-75.7057, 41.4878] }},
{"zip_code":"18501","country":"US","city":"Scranton","state":"Pennsylvania","state_ab":"PA","county":"Lackawanna","geo_location":{ "type": "Point", "coordinates": [-75.6376, 41.4019] }},
{"zip_code":"18514","country":"US","city":"Scranton","state":"Pennsylvania","state_ab":"PA","county":"Lackawanna","geo_location":{ "type": "Point", "coordinates": [-75.6376, 41.4019] }},
{"zip_code":"17537","country":"US","city":"Lampeter","state":"Pennsylvania","state_ab":"PA","county":"Lancaster","geo_location":{ "type": "Point", "coordinates": [-76.2387, 39.9885] }},
{"zip_code":"17551","country":"US","city":"Millersville","state":"Pennsylvania","state_ab":"PA","county":"Lancaster","geo_location":{ "type": "Point", "coordinates": [-76.3566, 39.9982] }},
{"zip_code":"17564","country":"US","city":"Penryn","state":"Pennsylvania","state_ab":"PA","county":"Lancaster","geo_location":{ "type": "Point", "coordinates": [-76.2976, 40.0185] }},
{"zip_code":"17577","country":"US","city":"Soudersburg","state":"Pennsylvania","state_ab":"PA","county":"Lancaster","geo_location":{ "type": "Point", "coordinates": [-76.2976, 40.0185] }},
{"zip_code":"17601","country":"US","city":"Lancaster","state":"Pennsylvania","state_ab":"PA","county":"Lancaster","geo_location":{ "type": "Point", "coordinates": [-76.3107, 40.0766] }},
{"zip_code":"16107","country":"US","city":"New Castle","state":"Pennsylvania","state_ab":"PA","county":"Lawrence","geo_location":{ "type": "Point", "coordinates": [-80.3084, 40.9897] }},
{"zip_code":"17087","country":"US","city":"Richland","state":"Pennsylvania","state_ab":"PA","county":"Lebanon","geo_location":{ "type": "Point", "coordinates": [-76.2654, 40.3806] }},
{"zip_code":"18011","country":"US","city":"Alburtis","state":"Pennsylvania","state_ab":"PA","county":"Lehigh","geo_location":{ "type": "Point", "coordinates": [-75.6029, 40.5145] }},
{"zip_code":"18037","country":"US","city":"Coplay","state":"Pennsylvania","state_ab":"PA","county":"Lehigh","geo_location":{ "type": "Point", "coordinates": [-75.4896, 40.6166] }},
{"zip_code":"18051","country":"US","city":"Fogelsville","state":"Pennsylvania","state_ab":"PA","county":"Lehigh","geo_location":{ "type": "Point", "coordinates": [-75.6568, 40.593] }},
{"zip_code":"18101","country":"US","city":"Allentown","state":"Pennsylvania","state_ab":"PA","county":"Lehigh","geo_location":{ "type": "Point", "coordinates": [-75.4691, 40.6026] }},
{"zip_code":"18617","country":"US","city":"Glen Lyon","state":"Pennsylvania","state_ab":"PA","county":"Luzerne","geo_location":{ "type": "Point", "coordinates": [-76.0746, 41.1746] }},
{"zip_code":"18644","country":"US","city":"Wyoming","state":"Pennsylvania","state_ab":"PA","county":"Luzerne","geo_location":{ "type": "Point", "coordinates": [-75.8541, 41.3197] }},
{"zip_code":"18707","country":"US","city":"Mountain Top","state":"Pennsylvania","state_ab":"PA","county":"Luzerne","geo_location":{ "type": "Point", "coordinates": [-75.9376, 41.135] }},
{"zip_code":"18761","country":"US","city":"Wilkes Barre","state":"Pennsylvania","state_ab":"PA","county":"Luzerne","geo_location":{ "type": "Point", "coordinates": [-75.8801, 41.2722] }},
{"zip_code":"18774","country":"US","city":"Wilkes Barre","state":"Pennsylvania","state_ab":"PA","county":"Luzerne","geo_location":{ "type": "Point", "coordinates": [-75.8801, 41.2722] }},
{"zip_code":"17744","country":"US","city":"Linden","state":"Pennsylvania","state_ab":"PA","county":"Lycoming","geo_location":{ "type": "Point", "coordinates": [-77.1527, 41.2472] }},
{"zip_code":"17771","country":"US","city":"Trout Run","state":"Pennsylvania","state_ab":"PA","county":"Lycoming","geo_location":{ "type": "Point", "coordinates": [-77.0098, 41.4125] }},
{"zip_code":"16701","country":"US","city":"Bradford","state":"Pennsylvania","state_ab":"PA","county":"McKean","geo_location":{ "type": "Point", "coordinates": [-78.654, 41.9547] }},
{"zip_code":"16727","country":"US","city":"Derrick City","state":"Pennsylvania","state_ab":"PA","county":"McKean","geo_location":{ "type": "Point", "coordinates": [-78.5626, 41.9726] }},
{"zip_code":"16121","country":"US","city":"Farrell","state":"Pennsylvania","state_ab":"PA","county":"Mercer","geo_location":{ "type": "Point", "coordinates": [-80.4944, 41.211] }},
{"zip_code":"16134","country":"US","city":"Jamestown","state":"Pennsylvania","state_ab":"PA","county":"Mercer","geo_location":{ "type": "Point", "coordinates": [-80.4492, 41.4566] }},
{"zip_code":"16161","country":"US","city":"Wheatland","state":"Pennsylvania","state_ab":"PA","county":"Mercer","geo_location":{ "type": "Point", "coordinates": [-80.5027, 41.2003] }},
{"zip_code":"18321","country":"US","city":"Bartonsville","state":"Pennsylvania","state_ab":"PA","county":"Monroe","geo_location":{ "type": "Point", "coordinates": [-75.2967, 41.008] }},
{"zip_code":"18334","country":"US","city":"Long Pond","state":"Pennsylvania","state_ab":"PA","county":"Monroe","geo_location":{ "type": "Point", "coordinates": [-75.4482, 41.0677] }},
{"zip_code":"18347","country":"US","city":"Pocono Lake","state":"Pennsylvania","state_ab":"PA","county":"Monroe","geo_location":{ "type": "Point", "coordinates": [-75.5559, 41.1187] }},
{"zip_code":"19001","country":"US","city":"Abington","state":"Pennsylvania","state_ab":"PA","county":"Montgomery","geo_location":{ "type": "Point", "coordinates": [-75.1148, 40.1238] }},
{"zip_code":"19027","country":"US","city":"Elkins Park","state":"Pennsylvania","state_ab":"PA","county":"Montgomery","geo_location":{ "type": "Point", "coordinates": [-75.1315, 40.075] }},
{"zip_code":"19401","country":"US","city":"Norristown","state":"Pennsylvania","state_ab":"PA","county":"Montgomery","geo_location":{ "type": "Point", "coordinates": [-75.3304, 40.1245] }},
{"zip_code":"19441","country":"US","city":"Harleysville","state":"Pennsylvania","state_ab":"PA","county":"Montgomery","geo_location":{ "type": "Point", "coordinates": [-75.3559, 40.2119] }},
{"zip_code":"19454","country":"US","city":"North Wales","state":"Pennsylvania","state_ab":"PA","county":"Montgomery","geo_location":{ "type": "Point", "coordinates": [-75.2565, 40.2166] }},
{"zip_code":"17821","country":"US","city":"Danville","state":"Pennsylvania","state_ab":"PA","county":"Montour","geo_location":{ "type": "Point", "coordinates": [-76.6229, 40.9799] }},
{"zip_code":"18064","country":"US","city":"Nazareth","state":"Pennsylvania","state_ab":"PA","county":"Northampton","geo_location":{ "type": "Point", "coordinates": [-75.3199, 40.745] }},
{"zip_code":"18091","country":"US","city":"Wind Gap","state":"Pennsylvania","state_ab":"PA","county":"Northampton","geo_location":{ "type": "Point", "coordinates": [-75.3264, 40.8169] }},
{"zip_code":"17834","country":"US","city":"Kulpmont","state":"Pennsylvania","state_ab":"PA","county":"Northumberland","geo_location":{ "type": "Point", "coordinates": [-76.4744, 40.7933] }},
{"zip_code":"17847","country":"US","city":"Milton","state":"Pennsylvania","state_ab":"PA","county":"Northumberland","geo_location":{ "type": "Point", "coordinates": [-76.8398, 41.0168] }},
{"zip_code":"17047","country":"US","city":"Loysville","state":"Pennsylvania","state_ab":"PA","county":"Perry","geo_location":{ "type": "Point", "coordinates": [-77.4138, 40.3658] }},
{"zip_code":"17074","country":"US","city":"Newport","state":"Pennsylvania","state_ab":"PA","county":"Perry","geo_location":{ "type": "Point", "coordinates": [-77.1659, 40.4827] }},
{"zip_code":"19104","country":"US","city":"Philadelphia","state":"Pennsylvania","state_ab":"PA","county":"Philadelphia","geo_location":{ "type": "Point", "coordinates": [-75.2024, 39.9597] }},
{"zip_code":"19117","country":"US","city":"Philadelphia","state":"Pennsylvania","state_ab":"PA","county":"Philadelphia County","geo_location":{ "type": "Point", "coordinates": [-75.1277, 40.0758] }},
{"zip_code":"19131","country":"US","city":"Philadelphia","state":"Pennsylvania","state_ab":"PA","county":"Philadelphia","geo_location":{ "type": "Point", "coordinates": [-75.2282, 39.9845] }},
{"zip_code":"19144","country":"US","city":"Philadelphia","state":"Pennsylvania","state_ab":"PA","county":"Philadelphia","geo_location":{ "type": "Point", "coordinates": [-75.1731, 40.0338] }},
{"zip_code":"19171","country":"US","city":"Philadelphia","state":"Pennsylvania","state_ab":"PA","county":"Philadelphia","geo_location":{ "type": "Point", "coordinates": [-75.1179, 40.0018] }},
{"zip_code":"19184","country":"US","city":"Philadelphia","state":"Pennsylvania","state_ab":"PA","county":"Philadelphia","geo_location":{ "type": "Point", "coordinates": [-75.1179, 40.0018] }},
{"zip_code":"19197","country":"US","city":"Philadelphia","state":"Pennsylvania","state_ab":"PA","county":"Philadelphia","geo_location":{ "type": "Point", "coordinates": [-75.1179, 40.0018] }},
{"zip_code":"18451","country":"US","city":"Paupack","state":"Pennsylvania","state_ab":"PA","county":"Pike","geo_location":{ "type": "Point", "coordinates": [-75.0241, 41.3409] }},
{"zip_code":"18464","country":"US","city":"Tafton","state":"Pennsylvania","state_ab":"PA","county":"Pike","geo_location":{ "type": "Point", "coordinates": [-75.1869, 41.397] }},
{"zip_code":"17951","country":"US","city":"Mar Lin","state":"Pennsylvania","state_ab":"PA","county":"Schuylkill","geo_location":{ "type": "Point", "coordinates": [-76.2387, 40.683] }},
{"zip_code":"17964","country":"US","city":"Pitman","state":"Pennsylvania","state_ab":"PA","county":"Schuylkill","geo_location":{ "type": "Point", "coordinates": [-76.5233, 40.7049] }},
{"zip_code":"18231","country":"US","city":"Kelayres","state":"Pennsylvania","state_ab":"PA","county":"Schuylkill","geo_location":{ "type": "Point", "coordinates": [-76.0054, 40.9002] }},
{"zip_code":"17861","country":"US","city":"Paxtonville","state":"Pennsylvania","state_ab":"PA","county":"Snyder","geo_location":{ "type": "Point", "coordinates": [-77.0833, 40.7725] }},
{"zip_code":"15531","country":"US","city":"Boswell","state":"Pennsylvania","state_ab":"PA","county":"Somerset","geo_location":{ "type": "Point", "coordinates": [-79.0362, 40.1918] }},
{"zip_code":"15544","country":"US","city":"Gray","state":"Pennsylvania","state_ab":"PA","county":"Somerset","geo_location":{ "type": "Point", "coordinates": [-79.0926, 40.1377] }},
{"zip_code":"15557","country":"US","city":"Rockwood","state":"Pennsylvania","state_ab":"PA","county":"Somerset","geo_location":{ "type": "Point", "coordinates": [-79.1865, 39.9373] }},
{"zip_code":"17731","country":"US","city":"Eagles Mere","state":"Pennsylvania","state_ab":"PA","county":"Sullivan","geo_location":{ "type": "Point", "coordinates": [-76.5169, 41.4329] }},
{"zip_code":"18824","country":"US","city":"Hop Bottom","state":"Pennsylvania","state_ab":"PA","county":"Susquehanna","geo_location":{ "type": "Point", "coordinates": [-75.7897, 41.6932] }},
{"zip_code":"16921","country":"US","city":"Gaines","state":"Pennsylvania","state_ab":"PA","county":"Tioga","geo_location":{ "type": "Point", "coordinates": [-77.568, 41.7471] }},
{"zip_code":"17887","country":"US","city":"White Deer","state":"Pennsylvania","state_ab":"PA","county":"Union","geo_location":{ "type": "Point", "coordinates": [-77.0818, 40.9781] }},
{"zip_code":"16301","country":"US","city":"Oil City","state":"Pennsylvania","state_ab":"PA","county":"Venango","geo_location":{ "type": "Point", "coordinates": [-79.6916, 41.4319] }},
{"zip_code":"16341","country":"US","city":"Pleasantville","state":"Pennsylvania","state_ab":"PA","county":"Venango","geo_location":{ "type": "Point", "coordinates": [-79.5685, 41.5867] }},
{"zip_code":"16367","country":"US","city":"Warren","state":"Pennsylvania","state_ab":"PA","county":"Warren","geo_location":{ "type": "Point", "coordinates": [-79.2643, 41.8117] }},
{"zip_code":"15054","country":"US","city":"Langeloth","state":"Pennsylvania","state_ab":"PA","county":"Washington","geo_location":{ "type": "Point", "coordinates": [-80.4086, 40.3625] }},
{"zip_code":"15067","country":"US","city":"New Eagle","state":"Pennsylvania","state_ab":"PA","county":"Washington","geo_location":{ "type": "Point", "coordinates": [-79.9534, 40.2066] }},
{"zip_code":"15311","country":"US","city":"Amity","state":"Pennsylvania","state_ab":"PA","county":"Washington","geo_location":{ "type": "Point", "coordinates": [-80.1681, 40.0498] }},
{"zip_code":"15324","country":"US","city":"Cokeburg","state":"Pennsylvania","state_ab":"PA","county":"Washington","geo_location":{ "type": "Point", "coordinates": [-80.0652, 40.1008] }},
{"zip_code":"15377","country":"US","city":"West Finley","state":"Pennsylvania","state_ab":"PA","county":"Washington","geo_location":{ "type": "Point", "coordinates": [-80.4408, 39.9914] }},
{"zip_code":"15427","country":"US","city":"Daisytown","state":"Pennsylvania","state_ab":"PA","county":"Washington","geo_location":{ "type": "Point", "coordinates": [-79.967, 40.0743] }},
{"zip_code":"18424","country":"US","city":"Gouldsboro","state":"Pennsylvania","state_ab":"PA","county":"Wayne","geo_location":{ "type": "Point", "coordinates": [-75.5037, 41.2448] }},
{"zip_code":"18437","country":"US","city":"Lake Como","state":"Pennsylvania","state_ab":"PA","county":"Wayne","geo_location":{ "type": "Point", "coordinates": [-75.3231, 41.8666] }},
{"zip_code":"15621","country":"US","city":"Calumet","state":"Pennsylvania","state_ab":"PA","county":"Westmoreland","geo_location":{ "type": "Point", "coordinates": [-79.4398, 40.3602] }},
{"zip_code":"15634","country":"US","city":"Grapeville","state":"Pennsylvania","state_ab":"PA","county":"Westmoreland","geo_location":{ "type": "Point", "coordinates": [-79.6049, 40.3239] }},
{"zip_code":"15647","country":"US","city":"Larimer","state":"Pennsylvania","state_ab":"PA","county":"Westmoreland","geo_location":{ "type": "Point", "coordinates": [-79.7272, 40.3415] }},
{"zip_code":"15661","country":"US","city":"Loyalhanna","state":"Pennsylvania","state_ab":"PA","county":"Westmoreland","geo_location":{ "type": "Point", "coordinates": [-79.3601, 40.3222] }},
{"zip_code":"15674","country":"US","city":"Norvelt","state":"Pennsylvania","state_ab":"PA","county":"Westmoreland","geo_location":{ "type": "Point", "coordinates": [-79.4872, 40.216] }},
{"zip_code":"15687","country":"US","city":"Stahlstown","state":"Pennsylvania","state_ab":"PA","county":"Westmoreland","geo_location":{ "type": "Point", "coordinates": [-79.3445, 40.1386] }},
{"zip_code":"15944","country":"US","city":"New Florence","state":"Pennsylvania","state_ab":"PA","county":"Westmoreland","geo_location":{ "type": "Point", "coordinates": [-79.0968, 40.3823] }},
{"zip_code":"18657","country":"US","city":"Tunkhannock","state":"Pennsylvania","state_ab":"PA","county":"Wyoming","geo_location":{ "type": "Point", "coordinates": [-75.9757, 41.5664] }},
{"zip_code":"17317","country":"US","city":"East Prospect","state":"Pennsylvania","state_ab":"PA","county":"York","geo_location":{ "type": "Point", "coordinates": [-76.5217, 39.9701] }},
{"zip_code":"17331","country":"US","city":"Hanover","state":"Pennsylvania","state_ab":"PA","county":"York","geo_location":{ "type": "Point", "coordinates": [-76.9812, 39.7943] }},
{"zip_code":"17371","country":"US","city":"York New Salem","state":"Pennsylvania","state_ab":"PA","county":"York","geo_location":{ "type": "Point", "coordinates": [-76.7896, 39.9006] }},
{"zip_code":"17407","country":"US","city":"York","state":"Pennsylvania","state_ab":"PA","county":"York","geo_location":{ "type": "Point", "coordinates": [-76.712, 39.8833] }},
{"zip_code":"2827","country":"US","city":"Greene","state":"Rhode Island","state_ab":"RI","county":"Kent","geo_location":{ "type": "Point", "coordinates": [-71.7356, 41.7062] }},
{"zip_code":"2801","country":"US","city":"Adamsville","state":"Rhode Island","state_ab":"RI","county":"Newport","geo_location":{ "type": "Point", "coordinates": [-71.2841, 41.5301] }},
{"zip_code":"2841","country":"US","city":"Newport","state":"Rhode Island","state_ab":"RI","county":"Newport","geo_location":{ "type": "Point", "coordinates": [-71.299, 41.499] }},
{"zip_code":"2814","country":"US","city":"Chepachet","state":"Rhode Island","state_ab":"RI","county":"Providence","geo_location":{ "type": "Point", "coordinates": [-71.6795, 41.9155] }},
{"zip_code":"2904","country":"US","city":"Providence","state":"Rhode Island","state_ab":"RI","county":"Providence","geo_location":{ "type": "Point", "coordinates": [-71.4378, 41.8541] }},
{"zip_code":"2917","country":"US","city":"Smithfield","state":"Rhode Island","state_ab":"RI","county":"Providence","geo_location":{ "type": "Point", "coordinates": [-71.5207, 41.8964] }},
{"zip_code":"2854","country":"US","city":"North Kingstown","state":"Rhode Island","state_ab":"RI","county":"Washington","geo_location":{ "type": "Point", "coordinates": [-71.6439, 41.3753] }},
{"zip_code":"2881","country":"US","city":"Kingston","state":"Rhode Island","state_ab":"RI","county":"Washington","geo_location":{ "type": "Point", "coordinates": [-71.5292, 41.4803] }},
{"zip_code":"2894","country":"US","city":"Wood River Junction","state":"Rhode Island","state_ab":"RI","county":"Washington","geo_location":{ "type": "Point", "coordinates": [-71.7074, 41.45] }},
{"zip_code":"29804","country":"US","city":"Aiken","state":"South Carolina","state_ab":"SC","county":"Aiken","geo_location":{ "type": "Point", "coordinates": [-81.5999, 33.5377] }},
{"zip_code":"29831","country":"US","city":"Jackson","state":"South Carolina","state_ab":"SC","county":"Aiken","geo_location":{ "type": "Point", "coordinates": [-81.7976, 33.3389] }},
{"zip_code":"29624","country":"US","city":"Anderson","state":"South Carolina","state_ab":"SC","county":"Anderson","geo_location":{ "type": "Point", "coordinates": [-82.6251, 34.4373] }},
{"zip_code":"29677","country":"US","city":"Sandy Springs","state":"South Carolina","state_ab":"SC","county":"Anderson","geo_location":{ "type": "Point", "coordinates": [-82.7568, 34.5975] }},
{"zip_code":"29817","country":"US","city":"Blackville","state":"South Carolina","state_ab":"SC","county":"Barnwell","geo_location":{ "type": "Point", "coordinates": [-81.2718, 33.3645] }},
{"zip_code":"29907","country":"US","city":"Ladys Island","state":"South Carolina","state_ab":"SC","county":"Beaufort","geo_location":{ "type": "Point", "coordinates": [-80.6003, 32.4541] }},
{"zip_code":"29431","country":"US","city":"Bonneau","state":"South Carolina","state_ab":"SC","county":"Berkeley","geo_location":{ "type": "Point", "coordinates": [-79.8736, 33.2703] }},
{"zip_code":"29404","country":"US","city":"Charleston Afb","state":"South Carolina","state_ab":"SC","county":"Charleston","geo_location":{ "type": "Point", "coordinates": [-80.0686, 32.8982] }},
{"zip_code":"29417","country":"US","city":"Charleston","state":"South Carolina","state_ab":"SC","county":"Charleston","geo_location":{ "type": "Point", "coordinates": [-79.8577, 32.8488] }},
{"zip_code":"29457","country":"US","city":"Johns Island","state":"South Carolina","state_ab":"SC","county":"Charleston","geo_location":{ "type": "Point", "coordinates": [-79.8577, 32.8488] }},
{"zip_code":"29341","country":"US","city":"Gaffney","state":"South Carolina","state_ab":"SC","county":"Cherokee","geo_location":{ "type": "Point", "coordinates": [-81.7056, 35.0999] }},
{"zip_code":"29714","country":"US","city":"Fort Lawn","state":"South Carolina","state_ab":"SC","county":"Chester","geo_location":{ "type": "Point", "coordinates": [-80.9092, 34.7006] }},
{"zip_code":"29727","country":"US","city":"Mount Croghan","state":"South Carolina","state_ab":"SC","county":"Chesterfield","geo_location":{ "type": "Point", "coordinates": [-80.2428, 34.7439] }},
{"zip_code":"29741","country":"US","city":"Ruby","state":"South Carolina","state_ab":"SC","county":"Chesterfield","geo_location":{ "type": "Point", "coordinates": [-80.191, 34.7379] }},
{"zip_code":"29547","country":"US","city":"Hamer","state":"South Carolina","state_ab":"SC","county":"Dillon","geo_location":{ "type": "Point", "coordinates": [-79.3502, 34.4849] }},
{"zip_code":"29471","country":"US","city":"Reevesville","state":"South Carolina","state_ab":"SC","county":"Dorchester","geo_location":{ "type": "Point", "coordinates": [-80.6672, 33.1872] }},
{"zip_code":"29484","country":"US","city":"Summerville","state":"South Carolina","state_ab":"SC","county":"Dorchester","geo_location":{ "type": "Point", "coordinates": [-80.2267, 33.0023] }},
{"zip_code":"29161","country":"US","city":"Timmonsville","state":"South Carolina","state_ab":"SC","county":"Florence","geo_location":{ "type": "Point", "coordinates": [-79.9378, 34.1012] }},
{"zip_code":"29611","country":"US","city":"Greenville","state":"South Carolina","state_ab":"SC","county":"Greenville","geo_location":{ "type": "Point", "coordinates": [-82.4493, 34.8533] }},
{"zip_code":"29651","country":"US","city":"Greer","state":"South Carolina","state_ab":"SC","county":"Greenville","geo_location":{ "type": "Point", "coordinates": [-82.2209, 34.9453] }},
{"zip_code":"29921","country":"US","city":"Furman","state":"South Carolina","state_ab":"SC","county":"Hampton","geo_location":{ "type": "Point", "coordinates": [-81.2071, 32.7182] }},
{"zip_code":"29587","country":"US","city":"Myrtle Beach","state":"South Carolina","state_ab":"SC","county":"Horry","geo_location":{ "type": "Point", "coordinates": [-78.9632, 33.6211] }},
{"zip_code":"29934","country":"US","city":"Pineland","state":"South Carolina","state_ab":"SC","county":"Jasper","geo_location":{ "type": "Point", "coordinates": [-81.1078, 32.5931] }},
{"zip_code":"29071","country":"US","city":"Lexington","state":"South Carolina","state_ab":"SC","county":"Lexington","geo_location":{ "type": "Point", "coordinates": [-81.2483, 33.9252] }},
{"zip_code":"29844","country":"US","city":"Parksville","state":"South Carolina","state_ab":"SC","county":"McCormick","geo_location":{ "type": "Point", "coordinates": [-82.2111, 33.7854] }},
{"zip_code":"29574","country":"US","city":"Mullins","state":"South Carolina","state_ab":"SC","county":"Marion","geo_location":{ "type": "Point", "coordinates": [-79.2542, 34.2044] }},
{"zip_code":"29664","country":"US","city":"Mountain Rest","state":"South Carolina","state_ab":"SC","county":"Oconee","geo_location":{ "type": "Point", "coordinates": [-83.1134, 34.8541] }},
{"zip_code":"29691","country":"US","city":"Walhalla","state":"South Carolina","state_ab":"SC","county":"Oconee","geo_location":{ "type": "Point", "coordinates": [-83.0672, 34.8457] }},
{"zip_code":"29107","country":"US","city":"Neeses","state":"South Carolina","state_ab":"SC","county":"Orangeburg","geo_location":{ "type": "Point", "coordinates": [-81.0834, 33.5343] }},
{"zip_code":"29044","country":"US","city":"Eastover","state":"South Carolina","state_ab":"SC","county":"Richland","geo_location":{ "type": "Point", "coordinates": [-80.6996, 33.9153] }},
{"zip_code":"29147","country":"US","city":"State Park","state":"South Carolina","state_ab":"SC","county":"Richland","geo_location":{ "type": "Point", "coordinates": [-80.9708, 34.006] }},
{"zip_code":"29211","country":"US","city":"Columbia","state":"South Carolina","state_ab":"SC","county":"Richland","geo_location":{ "type": "Point", "coordinates": [-80.9223, 34.0967] }},
{"zip_code":"29224","country":"US","city":"Columbia","state":"South Carolina","state_ab":"SC","county":"Richland","geo_location":{ "type": "Point", "coordinates": [-80.9708, 34.006] }},
{"zip_code":"29301","country":"US","city":"Spartanburg","state":"South Carolina","state_ab":"SC","county":"Spartanburg","geo_location":{ "type": "Point", "coordinates": [-81.9654, 34.9352] }},
{"zip_code":"29017","country":"US","city":"Borden","state":"South Carolina","state_ab":"SC","county":"Sumter County","geo_location":{ "type": "Point", "coordinates": [-80.4782, 34.0674] }},
{"zip_code":"29031","country":"US","city":"Carlisle","state":"South Carolina","state_ab":"SC","county":"Union","geo_location":{ "type": "Point", "coordinates": [-81.4814, 34.567] }},
{"zip_code":"57384","country":"US","city":"Wolsey","state":"South Dakota","state_ab":"SD","county":"Beadle","geo_location":{ "type": "Point", "coordinates": [-98.4743, 44.3991] }},
{"zip_code":"57551","country":"US","city":"Martin","state":"South Dakota","state_ab":"SD","county":"Bennett","geo_location":{ "type": "Point", "coordinates": [-101.7341, 43.1722] }},
{"zip_code":"57007","country":"US","city":"Brookings","state":"South Dakota","state_ab":"SD","county":"Brookings","geo_location":{ "type": "Point", "coordinates": [-96.7907, 44.3697] }},
{"zip_code":"57061","country":"US","city":"Sinai","state":"South Dakota","state_ab":"SD","county":"Brookings","geo_location":{ "type": "Point", "coordinates": [-97.0182, 44.2428] }},
{"zip_code":"57474","country":"US","city":"Stratford","state":"South Dakota","state_ab":"SD","county":"Brown","geo_location":{ "type": "Point", "coordinates": [-98.2792, 45.2866] }},
{"zip_code":"57717","country":"US","city":"Belle Fourche","state":"South Dakota","state_ab":"SD","county":"Butte","geo_location":{ "type": "Point", "coordinates": [-103.8396, 44.6723] }},
{"zip_code":"57357","country":"US","city":"Ravinia","state":"South Dakota","state_ab":"SD","county":"Charles Mix","geo_location":{ "type": "Point", "coordinates": [-98.4272, 43.1364] }},
{"zip_code":"57201","country":"US","city":"Watertown","state":"South Dakota","state_ab":"SD","county":"Codington","geo_location":{ "type": "Point", "coordinates": [-97.124, 44.9043] }},
{"zip_code":"57641","country":"US","city":"Mc Intosh","state":"South Dakota","state_ab":"SD","county":"Corson","geo_location":{ "type": "Point", "coordinates": [-101.1546, 45.7084] }},
{"zip_code":"57744","country":"US","city":"Hermosa","state":"South Dakota","state_ab":"SD","county":"Custer","geo_location":{ "type": "Point", "coordinates": [-103.206, 43.8188] }},
{"zip_code":"57344","country":"US","city":"Harrison","state":"South Dakota","state_ab":"SD","county":"Douglas","geo_location":{ "type": "Point", "coordinates": [-98.6339, 43.4507] }},
{"zip_code":"57317","country":"US","city":"Bonesteel","state":"South Dakota","state_ab":"SD","county":"Gregory","geo_location":{ "type": "Point", "coordinates": [-98.988, 43.0695] }},
{"zip_code":"57241","country":"US","city":"Hayti","state":"South Dakota","state_ab":"SD","county":"Hamlin","geo_location":{ "type": "Point", "coordinates": [-97.2305, 44.6647] }},
{"zip_code":"57371","country":"US","city":"Ree Heights","state":"South Dakota","state_ab":"SD","county":"Hand","geo_location":{ "type": "Point", "coordinates": [-99.2286, 44.5603] }},
{"zip_code":"57331","country":"US","city":"Dimock","state":"South Dakota","state_ab":"SD","county":"Hutchinson","geo_location":{ "type": "Point", "coordinates": [-97.9988, 43.4705] }},
{"zip_code":"57577","country":"US","city":"Wanblee","state":"South Dakota","state_ab":"SD","county":"Jackson","geo_location":{ "type": "Point", "coordinates": [-101.7219, 43.5589] }},
{"zip_code":"57214","country":"US","city":"Badger","state":"South Dakota","state_ab":"SD","county":"Kingsbury","geo_location":{ "type": "Point", "coordinates": [-97.2184, 44.4918] }},
{"zip_code":"57034","country":"US","city":"Hudson","state":"South Dakota","state_ab":"SD","county":"Lincoln","geo_location":{ "type": "Point", "coordinates": [-96.5306, 43.1284] }},
{"zip_code":"57421","country":"US","city":"Amherst","state":"South Dakota","state_ab":"SD","county":"Marshall","geo_location":{ "type": "Point", "coordinates": [-97.9274, 45.7585] }},
{"zip_code":"57757","country":"US","city":"Marcus","state":"South Dakota","state_ab":"SD","county":"Meade County","geo_location":{ "type": "Point", "coordinates": [-102.317, 44.6463] }},
{"zip_code":"57191","country":"US","city":"Sioux Falls","state":"South Dakota","state_ab":"SD","county":"Minnehaha County","geo_location":{ "type": "Point", "coordinates": [-96.7231, 43.5444] }},
{"zip_code":"57074","country":"US","city":"Ward","state":"South Dakota","state_ab":"SD","county":"Moody","geo_location":{ "type": "Point", "coordinates": [-96.4813, 44.1559] }},
{"zip_code":"57227","country":"US","city":"Corona","state":"South Dakota","state_ab":"SD","county":"Roberts","geo_location":{ "type": "Point", "coordinates": [-96.6649, 45.3595] }},
{"zip_code":"57434","country":"US","city":"Conde","state":"South Dakota","state_ab":"SD","county":"Spink","geo_location":{ "type": "Point", "coordinates": [-98.1534, 45.1393] }},
{"zip_code":"57461","country":"US","city":"Mellette","state":"South Dakota","state_ab":"SD","county":"Spink","geo_location":{ "type": "Point", "coordinates": [-98.4824, 45.1631] }},
{"zip_code":"57537","country":"US","city":"Hayes","state":"South Dakota","state_ab":"SD","county":"Stanley","geo_location":{ "type": "Point", "coordinates": [-101.0141, 44.5313] }},
{"zip_code":"57564","country":"US","city":"Onida","state":"South Dakota","state_ab":"SD","county":"Sully","geo_location":{ "type": "Point", "coordinates": [-100.0957, 44.7125] }},
{"zip_code":"57021","country":"US","city":"Davis","state":"South Dakota","state_ab":"SD","county":"Turner","geo_location":{ "type": "Point", "coordinates": [-96.9792, 43.2864] }},
{"zip_code":"57047","country":"US","city":"Monroe","state":"South Dakota","state_ab":"SD","county":"Turner","geo_location":{ "type": "Point", "coordinates": [-97.212, 43.5207] }},
{"zip_code":"57601","country":"US","city":"Mobridge","state":"South Dakota","state_ab":"SD","county":"Walworth","geo_location":{ "type": "Point", "coordinates": [-100.4315, 45.5407] }},
{"zip_code":"38341","country":"US","city":"Holladay","state":"Tennessee","state_ab":"TN","county":"Benton","geo_location":{ "type": "Point", "coordinates": [-88.0912, 35.8951] }},
{"zip_code":"37737","country":"US","city":"Friendsville","state":"Tennessee","state_ab":"TN","county":"Blount","geo_location":{ "type": "Point", "coordinates": [-84.1061, 35.7523] }},
{"zip_code":"37777","country":"US","city":"Louisville","state":"Tennessee","state_ab":"TN","county":"Blount","geo_location":{ "type": "Point", "coordinates": [-84.0089, 35.8375] }},
{"zip_code":"37801","country":"US","city":"Maryville","state":"Tennessee","state_ab":"TN","county":"Blount","geo_location":{ "type": "Point", "coordinates": [-84.0769, 35.6884] }},
{"zip_code":"37311","country":"US","city":"Cleveland","state":"Tennessee","state_ab":"TN","county":"Bradley","geo_location":{ "type": "Point", "coordinates": [-84.875, 35.1313] }},
{"zip_code":"37364","country":"US","city":"Cleveland","state":"Tennessee","state_ab":"TN","county":"Bradley","geo_location":{ "type": "Point", "coordinates": [-84.8619, 35.1727] }},
{"zip_code":"37687","country":"US","city":"Roan Mountain","state":"Tennessee","state_ab":"TN","county":"Carter","geo_location":{ "type": "Point", "coordinates": [-82.081, 36.1773] }},
{"zip_code":"37724","country":"US","city":"Cumberland Gap","state":"Tennessee","state_ab":"TN","county":"Claiborne","geo_location":{ "type": "Point", "coordinates": [-83.681, 36.5504] }},
{"zip_code":"37867","country":"US","city":"Shawanee","state":"Tennessee","state_ab":"TN","county":"Claiborne","geo_location":{ "type": "Point", "coordinates": [-83.6473, 36.5803] }},
{"zip_code":"37207","country":"US","city":"Nashville","state":"Tennessee","state_ab":"TN","county":"Davidson","geo_location":{ "type": "Point", "coordinates": [-86.774, 36.2195] }},
{"zip_code":"37221","country":"US","city":"Nashville","state":"Tennessee","state_ab":"TN","county":"Davidson","geo_location":{ "type": "Point", "coordinates": [-86.9639, 36.0662] }},
{"zip_code":"37234","country":"US","city":"Nashville","state":"Tennessee","state_ab":"TN","county":"Davidson","geo_location":{ "type": "Point", "coordinates": [-86.7852, 36.1866] }},
{"zip_code":"37247","country":"US","city":"Nashville","state":"Tennessee","state_ab":"TN","county":"Davidson","geo_location":{ "type": "Point", "coordinates": [-86.7852, 36.1866] }},
{"zip_code":"38057","country":"US","city":"Moscow","state":"Tennessee","state_ab":"TN","county":"Fayette","geo_location":{ "type": "Point", "coordinates": [-89.3595, 35.0588] }},
{"zip_code":"37324","country":"US","city":"Decherd","state":"Tennessee","state_ab":"TN","county":"Franklin","geo_location":{ "type": "Point", "coordinates": [-86.0589, 35.2326] }},
{"zip_code":"37881","country":"US","city":"Thorn Hill","state":"Tennessee","state_ab":"TN","county":"Grainger","geo_location":{ "type": "Point", "coordinates": [-83.366, 36.3917] }},
{"zip_code":"37814","country":"US","city":"Morristown","state":"Tennessee","state_ab":"TN","county":"Hamblen","geo_location":{ "type": "Point", "coordinates": [-83.3119, 36.2248] }},
{"zip_code":"37351","country":"US","city":"Lupton City","state":"Tennessee","state_ab":"TN","county":"Hamilton","geo_location":{ "type": "Point", "coordinates": [-85.2631, 35.1045] }},
{"zip_code":"37377","country":"US","city":"Signal Mountain","state":"Tennessee","state_ab":"TN","county":"Hamilton","geo_location":{ "type": "Point", "coordinates": [-85.3362, 35.1494] }},
{"zip_code":"37401","country":"US","city":"Chattanooga","state":"Tennessee","state_ab":"TN","county":"Hamilton","geo_location":{ "type": "Point", "coordinates": [-85.2064, 35.0178] }},
{"zip_code":"37414","country":"US","city":"Chattanooga","state":"Tennessee","state_ab":"TN","county":"Hamilton","geo_location":{ "type": "Point", "coordinates": [-85.2091, 35.2211] }},
{"zip_code":"38044","country":"US","city":"Hornsby","state":"Tennessee","state_ab":"TN","county":"Hardeman","geo_location":{ "type": "Point", "coordinates": [-88.8263, 35.2197] }},
{"zip_code":"38381","country":"US","city":"Toone","state":"Tennessee","state_ab":"TN","county":"Hardeman","geo_location":{ "type": "Point", "coordinates": [-88.9353, 35.3574] }},
{"zip_code":"38327","country":"US","city":"Crump","state":"Tennessee","state_ab":"TN","county":"Hardin","geo_location":{ "type": "Point", "coordinates": [-88.3192, 35.2191] }},
{"zip_code":"37711","country":"US","city":"Bulls Gap","state":"Tennessee","state_ab":"TN","county":"Hawkins","geo_location":{ "type": "Point", "coordinates": [-83.0374, 36.2832] }},
{"zip_code":"38224","country":"US","city":"Cottage Grove","state":"Tennessee","state_ab":"TN","county":"Henry","geo_location":{ "type": "Point", "coordinates": [-88.4614, 36.3479] }},
{"zip_code":"38251","country":"US","city":"Puryear","state":"Tennessee","state_ab":"TN","county":"Henry","geo_location":{ "type": "Point", "coordinates": [-88.3472, 36.4456] }},
{"zip_code":"37054","country":"US","city":"Denver","state":"Tennessee","state_ab":"TN","county":"Humphreys County","geo_location":{ "type": "Point", "coordinates": [-87.9208, 36.0469] }},
{"zip_code":"37917","country":"US","city":"Knoxville","state":"Tennessee","state_ab":"TN","county":"Knox","geo_location":{ "type": "Point", "coordinates": [-83.9152, 35.998] }},
{"zip_code":"37931","country":"US","city":"Knoxville","state":"Tennessee","state_ab":"TN","county":"Knox","geo_location":{ "type": "Point", "coordinates": [-84.1201, 35.9924] }},
{"zip_code":"37997","country":"US","city":"Knoxville","state":"Tennessee","state_ab":"TN","county":"Knox","geo_location":{ "type": "Point", "coordinates": [-83.9622, 35.9901] }},
{"zip_code":"38457","country":"US","city":"Five Points","state":"Tennessee","state_ab":"TN","county":"Lawrence","geo_location":{ "type": "Point", "coordinates": [-87.2961, 35.031] }},
{"zip_code":"37144","country":"US","city":"Petersburg","state":"Tennessee","state_ab":"TN","county":"Lincoln","geo_location":{ "type": "Point", "coordinates": [-86.6447, 35.2924] }},
{"zip_code":"38367","country":"US","city":"Ramer","state":"Tennessee","state_ab":"TN","county":"McNairy","geo_location":{ "type": "Point", "coordinates": [-88.6017, 35.0642] }},
{"zip_code":"38301","country":"US","city":"Jackson","state":"Tennessee","state_ab":"TN","county":"Madison","geo_location":{ "type": "Point", "coordinates": [-88.814, 35.6102] }},
{"zip_code":"38314","country":"US","city":"Jackson","state":"Tennessee","state_ab":"TN","county":"Madison","geo_location":{ "type": "Point", "coordinates": [-88.8412, 35.6124] }},
{"zip_code":"37041","country":"US","city":"Clarksville","state":"Tennessee","state_ab":"TN","county":"Montgomery","geo_location":{ "type": "Point", "coordinates": [-87.3772, 36.4774] }},
{"zip_code":"37171","country":"US","city":"Southside","state":"Tennessee","state_ab":"TN","county":"Montgomery","geo_location":{ "type": "Point", "coordinates": [-87.3061, 36.3626] }},
{"zip_code":"37391","country":"US","city":"Turtletown","state":"Tennessee","state_ab":"TN","county":"Polk","geo_location":{ "type": "Point", "coordinates": [-84.3544, 35.1081] }},
{"zip_code":"38574","country":"US","city":"Monterey","state":"Tennessee","state_ab":"TN","county":"Putnam","geo_location":{ "type": "Point", "coordinates": [-85.2542, 36.1509] }},
{"zip_code":"37337","country":"US","city":"Grandview","state":"Tennessee","state_ab":"TN","county":"Rhea","geo_location":{ "type": "Point", "coordinates": [-84.8615, 35.7608] }},
{"zip_code":"37854","country":"US","city":"Rockwood","state":"Tennessee","state_ab":"TN","county":"Roane","geo_location":{ "type": "Point", "coordinates": [-84.6842, 35.8587] }},
{"zip_code":"37131","country":"US","city":"Murfreesboro","state":"Tennessee","state_ab":"TN","county":"Rutherford","geo_location":{ "type": "Point", "coordinates": [-86.421, 35.8596] }},
{"zip_code":"37841","country":"US","city":"Oneida","state":"Tennessee","state_ab":"TN","county":"Scott","geo_location":{ "type": "Point", "coordinates": [-84.5293, 36.5053] }},
{"zip_code":"37764","country":"US","city":"Kodak","state":"Tennessee","state_ab":"TN","county":"Sevier","geo_location":{ "type": "Point", "coordinates": [-83.6171, 35.9722] }},
{"zip_code":"37544","country":"US","city":"Memphis","state":"Tennessee","state_ab":"TN","county":"Shelby County","geo_location":{ "type": "Point", "coordinates": [-90.0487, 35.1496] }},
{"zip_code":"38017","country":"US","city":"Collierville","state":"Tennessee","state_ab":"TN","county":"Shelby","geo_location":{ "type": "Point", "coordinates": [-89.6767, 35.0551] }},
{"zip_code":"38107","country":"US","city":"Memphis","state":"Tennessee","state_ab":"TN","county":"Shelby","geo_location":{ "type": "Point", "coordinates": [-90.0201, 35.1831] }},
{"zip_code":"38134","country":"US","city":"Memphis","state":"Tennessee","state_ab":"TN","county":"Shelby","geo_location":{ "type": "Point", "coordinates": [-89.8574, 35.1845] }},
{"zip_code":"38147","country":"US","city":"Memphis","state":"Tennessee","state_ab":"TN","county":"Shelby","geo_location":{ "type": "Point", "coordinates": [-89.9715, 35.2017] }},
{"zip_code":"38161","country":"US","city":"Memphis","state":"Tennessee","state_ab":"TN","county":"Shelby","geo_location":{ "type": "Point", "coordinates": [-89.9715, 35.2017] }},
{"zip_code":"38174","country":"US","city":"Memphis","state":"Tennessee","state_ab":"TN","county":"Shelby","geo_location":{ "type": "Point", "coordinates": [-89.9715, 35.2017] }},
{"zip_code":"38187","country":"US","city":"Memphis","state":"Tennessee","state_ab":"TN","county":"Shelby","geo_location":{ "type": "Point", "coordinates": [-89.9715, 35.2017] }},
{"zip_code":"38547","country":"US","city":"Brush Creek","state":"Tennessee","state_ab":"TN","county":"Smith","geo_location":{ "type": "Point", "coordinates": [-86.0203, 36.1107] }},
{"zip_code":"37621","country":"US","city":"Bristol","state":"Tennessee","state_ab":"TN","county":"Sullivan","geo_location":{ "type": "Point", "coordinates": [-82.2645, 36.5042] }},
{"zip_code":"38004","country":"US","city":"Atoka","state":"Tennessee","state_ab":"TN","county":"Tipton","geo_location":{ "type": "Point", "coordinates": [-89.8216, 35.4213] }},
{"zip_code":"38071","country":"US","city":"Tipton","state":"Tennessee","state_ab":"TN","county":"Tipton","geo_location":{ "type": "Point", "coordinates": [-89.8188, 35.4143] }},
{"zip_code":"38471","country":"US","city":"Lutts","state":"Tennessee","state_ab":"TN","county":"Wayne","geo_location":{ "type": "Point", "coordinates": [-87.8923, 35.1138] }},
{"zip_code":"38237","country":"US","city":"Martin","state":"Tennessee","state_ab":"TN","county":"Weakley","geo_location":{ "type": "Point", "coordinates": [-88.8554, 36.3425] }},
{"zip_code":"38587","country":"US","city":"Walling","state":"Tennessee","state_ab":"TN","county":"White","geo_location":{ "type": "Point", "coordinates": [-85.6185, 35.8695] }},
{"zip_code":"37014","country":"US","city":"Arrington","state":"Tennessee","state_ab":"TN","county":"Williamson","geo_location":{ "type": "Point", "coordinates": [-86.6633, 35.8566] }},
{"zip_code":"37027","country":"US","city":"Brentwood","state":"Tennessee","state_ab":"TN","county":"Williamson","geo_location":{ "type": "Point", "coordinates": [-86.7909, 36.0063] }},
{"zip_code":"37067","country":"US","city":"Franklin","state":"Tennessee","state_ab":"TN","county":"Williamson","geo_location":{ "type": "Point", "coordinates": [-86.7655, 35.9121] }},
{"zip_code":"37184","country":"US","city":"Watertown","state":"Tennessee","state_ab":"TN","county":"Wilson","geo_location":{ "type": "Point", "coordinates": [-86.1434, 36.0953] }},
{"zip_code":"75861","country":"US","city":"Tennessee Colony","state":"Texas","state_ab":"TX","county":"Anderson","geo_location":{ "type": "Point", "coordinates": [-95.8998, 31.7929] }},
{"zip_code":"78381","country":"US","city":"Rockport","state":"Texas","state_ab":"TX","county":"Aransas","geo_location":{ "type": "Point", "coordinates": [-97.0936, 28.0131] }},
{"zip_code":"79344","country":"US","city":"Maple","state":"Texas","state_ab":"TX","county":"Bailey","geo_location":{ "type": "Point", "coordinates": [-102.9266, 33.8622] }},
{"zip_code":"76501","country":"US","city":"Temple","state":"Texas","state_ab":"TX","county":"Bell","geo_location":{ "type": "Point", "coordinates": [-97.3343, 31.0895] }},
{"zip_code":"76541","country":"US","city":"Killeen","state":"Texas","state_ab":"TX","county":"Bell","geo_location":{ "type": "Point", "coordinates": [-97.7278, 31.1164] }},
{"zip_code":"76554","country":"US","city":"Little River","state":"Texas","state_ab":"TX","county":"Bell","geo_location":{ "type": "Point", "coordinates": [-97.3616, 30.963] }},
{"zip_code":"78211","country":"US","city":"San Antonio","state":"Texas","state_ab":"TX","county":"Bexar","geo_location":{ "type": "Point", "coordinates": [-98.5638, 29.3499] }},
{"zip_code":"78224","country":"US","city":"San Antonio","state":"Texas","state_ab":"TX","county":"Bexar","geo_location":{ "type": "Point", "coordinates": [-98.5393, 29.3374] }},
{"zip_code":"78237","country":"US","city":"San Antonio","state":"Texas","state_ab":"TX","county":"Bexar","geo_location":{ "type": "Point", "coordinates": [-98.5645, 29.4208] }},
{"zip_code":"78251","country":"US","city":"San Antonio","state":"Texas","state_ab":"TX","county":"Bexar","geo_location":{ "type": "Point", "coordinates": [-98.6555, 29.4597] }},
{"zip_code":"78264","country":"US","city":"San Antonio","state":"Texas","state_ab":"TX","county":"Bexar","geo_location":{ "type": "Point", "coordinates": [-98.4723, 29.1733] }},
{"zip_code":"78291","country":"US","city":"San Antonio","state":"Texas","state_ab":"TX","county":"Bexar","geo_location":{ "type": "Point", "coordinates": [-98.4616, 29.4375] }},
{"zip_code":"76644","country":"US","city":"Laguna Park","state":"Texas","state_ab":"TX","county":"Bosque","geo_location":{ "type": "Point", "coordinates": [-97.641, 31.8974] }},
{"zip_code":"76671","country":"US","city":"Morgan","state":"Texas","state_ab":"TX","county":"Bosque","geo_location":{ "type": "Point", "coordinates": [-97.5608, 32.0195] }},
{"zip_code":"77531","country":"US","city":"Clute","state":"Texas","state_ab":"TX","county":"Brazoria","geo_location":{ "type": "Point", "coordinates": [-95.4026, 29.0325] }},
{"zip_code":"77584","country":"US","city":"Pearland","state":"Texas","state_ab":"TX","county":"Brazoria","geo_location":{ "type": "Point", "coordinates": [-95.3208, 29.5405] }},
{"zip_code":"77801","country":"US","city":"Bryan","state":"Texas","state_ab":"TX","county":"Brazos","geo_location":{ "type": "Point", "coordinates": [-96.3662, 30.6327] }},
{"zip_code":"77841","country":"US","city":"College Station","state":"Texas","state_ab":"TX","county":"Brazos","geo_location":{ "type": "Point", "coordinates": [-96.327, 30.5726] }},
{"zip_code":"77881","country":"US","city":"Wellborn","state":"Texas","state_ab":"TX","county":"Brazos","geo_location":{ "type": "Point", "coordinates": [-96.341, 30.6521] }},
{"zip_code":"79834","country":"US","city":"Big Bend National Park","state":"Texas","state_ab":"TX","county":"Brewster","geo_location":{ "type": "Point", "coordinates": [-103.2963, 29.2924] }},
{"zip_code":"78611","country":"US","city":"Burnet","state":"Texas","state_ab":"TX","county":"Burnet","geo_location":{ "type": "Point", "coordinates": [-98.2642, 30.7766] }},
{"zip_code":"78521","country":"US","city":"Brownsville","state":"Texas","state_ab":"TX","county":"Cameron","geo_location":{ "type": "Point", "coordinates": [-97.4612, 25.9221] }},
{"zip_code":"75551","country":"US","city":"Atlanta","state":"Texas","state_ab":"TX","county":"Cass","geo_location":{ "type": "Point", "coordinates": [-94.1646, 33.109] }},
{"zip_code":"77597","country":"US","city":"Wallisville","state":"Texas","state_ab":"TX","county":"Chambers","geo_location":{ "type": "Point", "coordinates": [-94.6759, 29.8591] }},
{"zip_code":"77661","country":"US","city":"Stowell","state":"Texas","state_ab":"TX","county":"Chambers","geo_location":{ "type": "Point", "coordinates": [-94.39, 29.7809] }},
{"zip_code":"75784","country":"US","city":"Reklaw","state":"Texas","state_ab":"TX","county":"Cherokee","geo_location":{ "type": "Point", "coordinates": [-95.0118, 31.8859] }},
{"zip_code":"79201","country":"US","city":"Childress","state":"Texas","state_ab":"TX","county":"Childress","geo_location":{ "type": "Point", "coordinates": [-100.2364, 34.4104] }},
{"zip_code":"75034","country":"US","city":"Frisco","state":"Texas","state_ab":"TX","county":"Collin","geo_location":{ "type": "Point", "coordinates": [-96.8241, 33.1499] }},
{"zip_code":"75074","country":"US","city":"Plano","state":"Texas","state_ab":"TX","county":"Collin","geo_location":{ "type": "Point", "coordinates": [-96.6777, 33.0277] }},
{"zip_code":"75164","country":"US","city":"Josephine","state":"Texas","state_ab":"TX","county":"Collin","geo_location":{ "type": "Point", "coordinates": [-96.3248, 33.0598] }},
{"zip_code":"75407","country":"US","city":"Princeton","state":"Texas","state_ab":"TX","county":"Collin","geo_location":{ "type": "Point", "coordinates": [-96.4981, 33.1555] }},
{"zip_code":"78934","country":"US","city":"Columbus","state":"Texas","state_ab":"TX","county":"Colorado","geo_location":{ "type": "Point", "coordinates": [-96.5527, 29.7032] }},
{"zip_code":"76837","country":"US","city":"Eden","state":"Texas","state_ab":"TX","county":"Concho","geo_location":{ "type": "Point", "coordinates": [-99.8407, 31.2192] }},
{"zip_code":"79731","country":"US","city":"Crane","state":"Texas","state_ab":"TX","county":"Crane","geo_location":{ "type": "Point", "coordinates": [-102.3544, 31.3969] }},
{"zip_code":"79357","country":"US","city":"Ralls","state":"Texas","state_ab":"TX","county":"Crosby","geo_location":{ "type": "Point", "coordinates": [-101.3836, 33.6851] }},
{"zip_code":"79087","country":"US","city":"Texline","state":"Texas","state_ab":"TX","county":"Dallam","geo_location":{ "type": "Point", "coordinates": [-102.9845, 36.374] }},
{"zip_code":"75047","country":"US","city":"Garland","state":"Texas","state_ab":"TX","county":"Dallas","geo_location":{ "type": "Point", "coordinates": [-96.7776, 32.7673] }},
{"zip_code":"75061","country":"US","city":"Irving","state":"Texas","state_ab":"TX","county":"Dallas","geo_location":{ "type": "Point", "coordinates": [-96.9633, 32.8267] }},
{"zip_code":"75137","country":"US","city":"Duncanville","state":"Texas","state_ab":"TX","county":"Dallas","geo_location":{ "type": "Point", "coordinates": [-96.9113, 32.6347] }},
{"zip_code":"75201","country":"US","city":"Dallas","state":"Texas","state_ab":"TX","county":"Dallas","geo_location":{ "type": "Point", "coordinates": [-96.8044, 32.7904] }},
{"zip_code":"75214","country":"US","city":"Dallas","state":"Texas","state_ab":"TX","county":"Dallas","geo_location":{ "type": "Point", "coordinates": [-96.7498, 32.8248] }},
{"zip_code":"75227","country":"US","city":"Dallas","state":"Texas","state_ab":"TX","county":"Dallas","geo_location":{ "type": "Point", "coordinates": [-96.6836, 32.7672] }},
{"zip_code":"75241","country":"US","city":"Dallas","state":"Texas","state_ab":"TX","county":"Dallas","geo_location":{ "type": "Point", "coordinates": [-96.7774, 32.6722] }},
{"zip_code":"75254","country":"US","city":"Dallas","state":"Texas","state_ab":"TX","county":"Dallas","geo_location":{ "type": "Point", "coordinates": [-96.819, 32.9503] }},
{"zip_code":"75267","country":"US","city":"Dallas","state":"Texas","state_ab":"TX","county":"Dallas","geo_location":{ "type": "Point", "coordinates": [-96.7776, 32.7673] }},
{"zip_code":"75294","country":"US","city":"Dallas","state":"Texas","state_ab":"TX","county":"Dallas","geo_location":{ "type": "Point", "coordinates": [-96.7776, 32.7673] }},
{"zip_code":"75344","country":"US","city":"Dallas","state":"Texas","state_ab":"TX","county":"Dallas County","geo_location":{ "type": "Point", "coordinates": [-96.7986, 32.7825] }},
{"zip_code":"75357","country":"US","city":"Dallas","state":"Texas","state_ab":"TX","county":"Dallas","geo_location":{ "type": "Point", "coordinates": [-96.7776, 32.7673] }},
{"zip_code":"75371","country":"US","city":"Dallas","state":"Texas","state_ab":"TX","county":"Dallas","geo_location":{ "type": "Point", "coordinates": [-96.7776, 32.7673] }},
{"zip_code":"75397","country":"US","city":"Dallas","state":"Texas","state_ab":"TX","county":"Dallas","geo_location":{ "type": "Point", "coordinates": [-96.7776, 32.7673] }},
{"zip_code":"79331","country":"US","city":"Lamesa","state":"Texas","state_ab":"TX","county":"Dawson","geo_location":{ "type": "Point", "coordinates": [-101.9569, 32.7367] }},
{"zip_code":"75007","country":"US","city":"Carrollton","state":"Texas","state_ab":"TX","county":"Denton","geo_location":{ "type": "Point", "coordinates": [-96.882, 33.0033] }},
{"zip_code":"76204","country":"US","city":"Denton","state":"Texas","state_ab":"TX","county":"Denton","geo_location":{ "type": "Point", "coordinates": [-97.1163, 33.2074] }},
{"zip_code":"78341","country":"US","city":"Benavides","state":"Texas","state_ab":"TX","county":"Duval","geo_location":{ "type": "Point", "coordinates": [-98.4142, 27.5925] }},
{"zip_code":"76437","country":"US","city":"Cisco","state":"Texas","state_ab":"TX","county":"Eastland","geo_location":{ "type": "Point", "coordinates": [-98.9865, 32.38] }},
{"zip_code":"76064","country":"US","city":"Maypearl","state":"Texas","state_ab":"TX","county":"Ellis","geo_location":{ "type": "Point", "coordinates": [-97.0271, 32.2993] }},
{"zip_code":"79821","country":"US","city":"Anthony","state":"Texas","state_ab":"TX","county":"El Paso","geo_location":{ "type": "Point", "coordinates": [-106.5976, 31.9907] }},
{"zip_code":"79911","country":"US","city":"El Paso","state":"Texas","state_ab":"TX","county":"El Paso","geo_location":{ "type": "Point", "coordinates": [-106.5426, 31.8925] }},
{"zip_code":"79924","country":"US","city":"El Paso","state":"Texas","state_ab":"TX","county":"El Paso","geo_location":{ "type": "Point", "coordinates": [-106.4149, 31.9021] }},
{"zip_code":"79937","country":"US","city":"El Paso","state":"Texas","state_ab":"TX","county":"El Paso","geo_location":{ "type": "Point", "coordinates": [-106.3, 31.6948] }},
{"zip_code":"79951","country":"US","city":"El Paso","state":"Texas","state_ab":"TX","county":"El Paso","geo_location":{ "type": "Point", "coordinates": [-106.3, 31.6948] }},
{"zip_code":"79977","country":"US","city":"El Paso","state":"Texas","state_ab":"TX","county":"El Paso","geo_location":{ "type": "Point", "coordinates": [-106.3, 31.6948] }},
{"zip_code":"79991","country":"US","city":"El Paso","state":"Texas","state_ab":"TX","county":"El Paso","geo_location":{ "type": "Point", "coordinates": [-106.3, 31.6948] }},
{"zip_code":"88511","country":"US","city":"El Paso","state":"Texas","state_ab":"TX","county":"El Paso","geo_location":{ "type": "Point", "coordinates": [-106.3, 31.6948] }},
{"zip_code":"88524","country":"US","city":"El Paso","state":"Texas","state_ab":"TX","county":"El Paso","geo_location":{ "type": "Point", "coordinates": [-106.3, 31.6948] }},
{"zip_code":"88577","country":"US","city":"El Paso","state":"Texas","state_ab":"TX","county":"El Paso","geo_location":{ "type": "Point", "coordinates": [-106.3, 31.6948] }},
{"zip_code":"75447","country":"US","city":"Ivanhoe","state":"Texas","state_ab":"TX","county":"Fannin","geo_location":{ "type": "Point", "coordinates": [-96.1193, 33.7612] }},
{"zip_code":"78961","country":"US","city":"Round Top","state":"Texas","state_ab":"TX","county":"Fayette","geo_location":{ "type": "Point", "coordinates": [-97.0397, 29.6655] }},
{"zip_code":"79241","country":"US","city":"Lockney","state":"Texas","state_ab":"TX","county":"Floyd","geo_location":{ "type": "Point", "coordinates": [-101.4259, 34.1458] }},
{"zip_code":"79227","country":"US","city":"Crowell","state":"Texas","state_ab":"TX","county":"Foard","geo_location":{ "type": "Point", "coordinates": [-99.6983, 33.9912] }},
{"zip_code":"77441","country":"US","city":"Fulshear","state":"Texas","state_ab":"TX","county":"Fort Bend","geo_location":{ "type": "Point", "coordinates": [-95.8977, 29.7217] }},
{"zip_code":"77481","country":"US","city":"Thompsons","state":"Texas","state_ab":"TX","county":"Fort Bend","geo_location":{ "type": "Point", "coordinates": [-95.5776, 29.4683] }},
{"zip_code":"75487","country":"US","city":"Talco","state":"Texas","state_ab":"TX","county":"Franklin","geo_location":{ "type": "Point", "coordinates": [-95.0497, 33.3344] }},
{"zip_code":"78017","country":"US","city":"Dilley","state":"Texas","state_ab":"TX","county":"Frio","geo_location":{ "type": "Point", "coordinates": [-99.1747, 28.6782] }},
{"zip_code":"78057","country":"US","city":"Moore","state":"Texas","state_ab":"TX","county":"Frio","geo_location":{ "type": "Point", "coordinates": [-99.0204, 29.0595] }},
{"zip_code":"77517","country":"US","city":"Santa Fe","state":"Texas","state_ab":"TX","county":"Galveston","geo_location":{ "type": "Point", "coordinates": [-95.1361, 29.3673] }},
{"zip_code":"78624","country":"US","city":"Fredericksburg","state":"Texas","state_ab":"TX","county":"Gillespie","geo_location":{ "type": "Point", "coordinates": [-98.8799, 30.2817] }},
{"zip_code":"78107","country":"US","city":"Berclair","state":"Texas","state_ab":"TX","county":"Goliad","geo_location":{ "type": "Point", "coordinates": [-97.5925, 28.5295] }},
{"zip_code":"78677","country":"US","city":"Wrightsboro","state":"Texas","state_ab":"TX","county":"Gonzales","geo_location":{ "type": "Point", "coordinates": [-97.4946, 29.4472] }},
{"zip_code":"75021","country":"US","city":"Denison","state":"Texas","state_ab":"TX","county":"Grayson","geo_location":{ "type": "Point", "coordinates": [-96.5235, 33.7169] }},
{"zip_code":"76271","country":"US","city":"Tioga","state":"Texas","state_ab":"TX","county":"Grayson","geo_location":{ "type": "Point", "coordinates": [-96.9097, 33.4675] }},
{"zip_code":"75601","country":"US","city":"Longview","state":"Texas","state_ab":"TX","county":"Gregg","geo_location":{ "type": "Point", "coordinates": [-94.7303, 32.5178] }},
{"zip_code":"75641","country":"US","city":"Easton","state":"Texas","state_ab":"TX","county":"Gregg","geo_location":{ "type": "Point", "coordinates": [-94.5515, 32.3854] }},
{"zip_code":"79021","country":"US","city":"Cotton Center","state":"Texas","state_ab":"TX","county":"Hale","geo_location":{ "type": "Point", "coordinates": [-102.0314, 33.9753] }},
{"zip_code":"77711","country":"US","city":"Lumberton","state":"Texas","state_ab":"TX","county":"Hardin County","geo_location":{ "type": "Point", "coordinates": [-94.2012, 30.2595] }},
{"zip_code":"77001","country":"US","city":"Houston","state":"Texas","state_ab":"TX","county":"Harris","geo_location":{ "type": "Point", "coordinates": [-95.3098, 29.8131] }},
{"zip_code":"77014","country":"US","city":"Houston","state":"Texas","state_ab":"TX","county":"Harris","geo_location":{ "type": "Point", "coordinates": [-95.4625, 29.9796] }},
{"zip_code":"77027","country":"US","city":"Houston","state":"Texas","state_ab":"TX","county":"Harris","geo_location":{ "type": "Point", "coordinates": [-95.446, 29.7396] }},
{"zip_code":"77041","country":"US","city":"Houston","state":"Texas","state_ab":"TX","county":"Harris","geo_location":{ "type": "Point", "coordinates": [-95.5817, 29.8602] }},
{"zip_code":"77054","country":"US","city":"Houston","state":"Texas","state_ab":"TX","county":"Harris","geo_location":{ "type": "Point", "coordinates": [-95.4017, 29.6852] }},
{"zip_code":"77067","country":"US","city":"Houston","state":"Texas","state_ab":"TX","county":"Harris","geo_location":{ "type": "Point", "coordinates": [-95.4522, 29.9547] }},
{"zip_code":"77081","country":"US","city":"Houston","state":"Texas","state_ab":"TX","county":"Harris","geo_location":{ "type": "Point", "coordinates": [-95.4845, 29.7119] }},
{"zip_code":"77094","country":"US","city":"Houston","state":"Texas","state_ab":"TX","county":"Harris","geo_location":{ "type": "Point", "coordinates": [-95.7107, 29.7705] }},
{"zip_code":"77207","country":"US","city":"Houston","state":"Texas","state_ab":"TX","county":"Harris","geo_location":{ "type": "Point", "coordinates": [-95.4342, 29.834] }},
{"zip_code":"77221","country":"US","city":"Houston","state":"Texas","state_ab":"TX","county":"Harris","geo_location":{ "type": "Point", "coordinates": [-95.4342, 29.834] }},
{"zip_code":"77234","country":"US","city":"Houston","state":"Texas","state_ab":"TX","county":"Harris","geo_location":{ "type": "Point", "coordinates": [-95.4342, 29.834] }},
{"zip_code":"77247","country":"US","city":"Houston","state":"Texas","state_ab":"TX","county":"Harris County","geo_location":{ "type": "Point", "coordinates": [-95.4359, 29.6403] }},
{"zip_code":"77261","country":"US","city":"Houston","state":"Texas","state_ab":"TX","county":"Harris","geo_location":{ "type": "Point", "coordinates": [-95.4342, 29.834] }},
{"zip_code":"77274","country":"US","city":"Houston","state":"Texas","state_ab":"TX","county":"Harris","geo_location":{ "type": "Point", "coordinates": [-95.4342, 29.834] }},
{"zip_code":"77287","country":"US","city":"Houston","state":"Texas","state_ab":"TX","county":"Harris","geo_location":{ "type": "Point", "coordinates": [-95.4342, 29.834] }},
{"zip_code":"77337","country":"US","city":"Hufsmith","state":"Texas","state_ab":"TX","county":"Harris","geo_location":{ "type": "Point", "coordinates": [-95.4342, 29.834] }},
{"zip_code":"77377","country":"US","city":"Tomball","state":"Texas","state_ab":"TX","county":"Harris","geo_location":{ "type": "Point", "coordinates": [-95.6821, 30.0615] }},
{"zip_code":"77391","country":"US","city":"Spring","state":"Texas","state_ab":"TX","county":"Harris","geo_location":{ "type": "Point", "coordinates": [-95.4342, 29.834] }},
{"zip_code":"77401","country":"US","city":"Bellaire","state":"Texas","state_ab":"TX","county":"Harris","geo_location":{ "type": "Point", "coordinates": [-95.4611, 29.7023] }},
{"zip_code":"77494","country":"US","city":"Katy","state":"Texas","state_ab":"TX","county":"Harris","geo_location":{ "type": "Point", "coordinates": [-95.8304, 29.7404] }},
{"zip_code":"77504","country":"US","city":"Pasadena","state":"Texas","state_ab":"TX","county":"Harris","geo_location":{ "type": "Point", "coordinates": [-95.1885, 29.6501] }},
{"zip_code":"77571","country":"US","city":"La Porte","state":"Texas","state_ab":"TX","county":"Harris","geo_location":{ "type": "Point", "coordinates": [-95.0513, 29.6884] }},
{"zip_code":"75694","country":"US","city":"Woodlawn","state":"Texas","state_ab":"TX","county":"Harrison","geo_location":{ "type": "Point", "coordinates": [-94.3427, 32.6537] }},
{"zip_code":"75124","country":"US","city":"Eustace","state":"Texas","state_ab":"TX","county":"Henderson","geo_location":{ "type": "Point", "coordinates": [-96.0137, 32.2965] }},
{"zip_code":"76631","country":"US","city":"Bynum","state":"Texas","state_ab":"TX","county":"Hill","geo_location":{ "type": "Point", "coordinates": [-96.9837, 31.9907] }},
{"zip_code":"75847","country":"US","city":"Kennard","state":"Texas","state_ab":"TX","county":"Houston","geo_location":{ "type": "Point", "coordinates": [-95.1541, 31.3384] }},
{"zip_code":"79511","country":"US","city":"Coahoma","state":"Texas","state_ab":"TX","county":"Howard","geo_location":{ "type": "Point", "coordinates": [-101.3197, 32.2942] }},
{"zip_code":"79847","country":"US","city":"Salt Flat","state":"Texas","state_ab":"TX","county":"Hudspeth","geo_location":{ "type": "Point", "coordinates": [-105.2212, 31.8244] }},
{"zip_code":"75474","country":"US","city":"Quinlan","state":"Texas","state_ab":"TX","county":"Hunt","geo_location":{ "type": "Point", "coordinates": [-96.1261, 32.8983] }},
{"zip_code":"79007","country":"US","city":"Borger","state":"Texas","state_ab":"TX","county":"Hutchinson","geo_location":{ "type": "Point", "coordinates": [-101.431, 35.6767] }},
{"zip_code":"76941","country":"US","city":"Mertzon","state":"Texas","state_ab":"TX","county":"Irion","geo_location":{ "type": "Point", "coordinates": [-100.8221, 31.2829] }},
{"zip_code":"77957","country":"US","city":"Edna","state":"Texas","state_ab":"TX","county":"Jackson","geo_location":{ "type": "Point", "coordinates": [-96.6488, 28.9527] }},
{"zip_code":"77971","country":"US","city":"Lolita","state":"Texas","state_ab":"TX","county":"Jackson","geo_location":{ "type": "Point", "coordinates": [-96.4793, 28.7724] }},
{"zip_code":"75951","country":"US","city":"Jasper","state":"Texas","state_ab":"TX","county":"Jasper","geo_location":{ "type": "Point", "coordinates": [-93.9977, 30.8673] }},
{"zip_code":"78004","country":"US","city":"Bergheim","state":"Texas","state_ab":"TX","county":"Kendall","geo_location":{ "type": "Point", "coordinates": [-98.5642, 29.8979] }},
{"zip_code":"75421","country":"US","city":"Brookston","state":"Texas","state_ab":"TX","county":"Lamar","geo_location":{ "type": "Point", "coordinates": [-95.6888, 33.6246] }},
{"zip_code":"75434","country":"US","city":"Cunningham","state":"Texas","state_ab":"TX","county":"Lamar","geo_location":{ "type": "Point", "coordinates": [-95.3711, 33.409] }},
{"zip_code":"75461","country":"US","city":"Paris","state":"Texas","state_ab":"TX","county":"Lamar","geo_location":{ "type": "Point", "coordinates": [-95.4608, 33.6632] }},
{"zip_code":"79371","country":"US","city":"Sudan","state":"Texas","state_ab":"TX","county":"Lamb","geo_location":{ "type": "Point", "coordinates": [-102.5255, 34.0697] }},
{"zip_code":"76824","country":"US","city":"Bend","state":"Texas","state_ab":"TX","county":"Lampasas","geo_location":{ "type": "Point", "coordinates": [-98.4821, 31.1123] }},
{"zip_code":"77984","country":"US","city":"Shiner","state":"Texas","state_ab":"TX","county":"Lavaca","geo_location":{ "type": "Point", "coordinates": [-97.164, 29.428] }},
{"zip_code":"78947","country":"US","city":"Lexington","state":"Texas","state_ab":"TX","county":"Lee","geo_location":{ "type": "Point", "coordinates": [-97.0524, 30.4191] }},
{"zip_code":"79034","country":"US","city":"Follett","state":"Texas","state_ab":"TX","county":"Lipscomb","geo_location":{ "type": "Point", "coordinates": [-100.2068, 36.4309] }},
{"zip_code":"78071","country":"US","city":"Three Rivers","state":"Texas","state_ab":"TX","county":"Live Oak","geo_location":{ "type": "Point", "coordinates": [-98.1782, 28.4756] }},
{"zip_code":"79407","country":"US","city":"Lubbock","state":"Texas","state_ab":"TX","county":"Lubbock","geo_location":{ "type": "Point", "coordinates": [-101.9423, 33.5684] }},
{"zip_code":"76657","country":"US","city":"Mc Gregor","state":"Texas","state_ab":"TX","county":"McLennan","geo_location":{ "type": "Point", "coordinates": [-97.3943, 31.4431] }},
{"zip_code":"76684","country":"US","city":"Ross","state":"Texas","state_ab":"TX","county":"McLennan","geo_location":{ "type": "Point", "coordinates": [-97.1188, 31.7173] }},
{"zip_code":"76707","country":"US","city":"Waco","state":"Texas","state_ab":"TX","county":"McLennan","geo_location":{ "type": "Point", "coordinates": [-97.1588, 31.5527] }},
{"zip_code":"75564","country":"US","city":"Lodi","state":"Texas","state_ab":"TX","county":"Marion","geo_location":{ "type": "Point", "coordinates": [-94.2729, 32.8718] }},
{"zip_code":"77414","country":"US","city":"Bay City","state":"Texas","state_ab":"TX","county":"Matagorda","geo_location":{ "type": "Point", "coordinates": [-95.9173, 28.8636] }},
{"zip_code":"79704","country":"US","city":"Midland","state":"Texas","state_ab":"TX","county":"Midland","geo_location":{ "type": "Point", "coordinates": [-102.0317, 31.8693] }},
{"zip_code":"76567","country":"US","city":"Rockdale","state":"Texas","state_ab":"TX","county":"Milam","geo_location":{ "type": "Point", "coordinates": [-97.0079, 30.6583] }},
{"zip_code":"76864","country":"US","city":"Mullin","state":"Texas","state_ab":"TX","county":"Mills","geo_location":{ "type": "Point", "coordinates": [-98.6635, 31.5748] }},
{"zip_code":"75937","country":"US","city":"Chireno","state":"Texas","state_ab":"TX","county":"Nacogdoches","geo_location":{ "type": "Point", "coordinates": [-94.4302, 31.5119] }},
{"zip_code":"75964","country":"US","city":"Nacogdoches","state":"Texas","state_ab":"TX","county":"Nacogdoches","geo_location":{ "type": "Point", "coordinates": [-94.6932, 31.6737] }},
{"zip_code":"75151","country":"US","city":"Corsicana","state":"Texas","state_ab":"TX","county":"Navarro","geo_location":{ "type": "Point", "coordinates": [-96.4735, 32.0624] }},
{"zip_code":"75977","country":"US","city":"Wiergate","state":"Texas","state_ab":"TX","county":"Newton","geo_location":{ "type": "Point", "coordinates": [-93.8039, 31.0414] }},
{"zip_code":"79537","country":"US","city":"Nolan","state":"Texas","state_ab":"TX","county":"Nolan","geo_location":{ "type": "Point", "coordinates": [-100.2107, 32.2919] }},
{"zip_code":"78404","country":"US","city":"Corpus Christi","state":"Texas","state_ab":"TX","county":"Nueces","geo_location":{ "type": "Point", "coordinates": [-97.4013, 27.7683] }},
{"zip_code":"78417","country":"US","city":"Corpus Christi","state":"Texas","state_ab":"TX","county":"Nueces","geo_location":{ "type": "Point", "coordinates": [-97.4494, 27.729] }},
{"zip_code":"78471","country":"US","city":"Corpus Christi","state":"Texas","state_ab":"TX","county":"Nueces","geo_location":{ "type": "Point", "coordinates": [-97.4632, 27.777] }},
{"zip_code":"79744","country":"US","city":"Iraan","state":"Texas","state_ab":"TX","county":"Pecos","geo_location":{ "type": "Point", "coordinates": [-101.9152, 30.9156] }},
{"zip_code":"77351","country":"US","city":"Livingston","state":"Texas","state_ab":"TX","county":"Polk","geo_location":{ "type": "Point", "coordinates": [-94.8976, 30.6829] }},
{"zip_code":"79111","country":"US","city":"Amarillo","state":"Texas","state_ab":"TX","county":"Potter","geo_location":{ "type": "Point", "coordinates": [-101.6703, 35.2286] }},
{"zip_code":"79124","country":"US","city":"Amarillo","state":"Texas","state_ab":"TX","county":"Potter","geo_location":{ "type": "Point", "coordinates": [-101.943, 35.2703] }},
{"zip_code":"79164","country":"US","city":"Amarillo","state":"Texas","state_ab":"TX","county":"Potter","geo_location":{ "type": "Point", "coordinates": [-101.8951, 35.4015] }},
{"zip_code":"79177","country":"US","city":"Amarillo","state":"Texas","state_ab":"TX","county":"Potter County","geo_location":{ "type": "Point", "coordinates": [-101.8165, 35.1885] }},
{"zip_code":"77867","country":"US","city":"Mumford","state":"Texas","state_ab":"TX","county":"Robertson","geo_location":{ "type": "Point", "coordinates": [-96.5786, 30.7662] }},
{"zip_code":"75087","country":"US","city":"Rockwall","state":"Texas","state_ab":"TX","county":"Rockwall","geo_location":{ "type": "Point", "coordinates": [-96.4418, 32.9492] }},
{"zip_code":"75654","country":"US","city":"Henderson","state":"Texas","state_ab":"TX","county":"Rusk","geo_location":{ "type": "Point", "coordinates": [-94.7488, 32.126] }},
{"zip_code":"75667","country":"US","city":"Laneville","state":"Texas","state_ab":"TX","county":"Rusk","geo_location":{ "type": "Point", "coordinates": [-94.866, 31.9508] }},
{"zip_code":"75681","country":"US","city":"Mount Enterprise","state":"Texas","state_ab":"TX","county":"Rusk","geo_location":{ "type": "Point", "coordinates": [-94.6235, 31.9125] }},
{"zip_code":"77364","country":"US","city":"Pointblank","state":"Texas","state_ab":"TX","county":"San Jacinto","geo_location":{ "type": "Point", "coordinates": [-95.2295, 30.7593] }},
{"zip_code":"76877","country":"US","city":"San Saba","state":"Texas","state_ab":"TX","county":"San Saba","geo_location":{ "type": "Point", "coordinates": [-98.7309, 31.1627] }},
{"zip_code":"76464","country":"US","city":"Moran","state":"Texas","state_ab":"TX","county":"Shackelford","geo_location":{ "type": "Point", "coordinates": [-99.1656, 32.5549] }},
{"zip_code":"75704","country":"US","city":"Tyler","state":"Texas","state_ab":"TX","county":"Smith","geo_location":{ "type": "Point", "coordinates": [-95.407, 32.3738] }},
{"zip_code":"75757","country":"US","city":"Bullard","state":"Texas","state_ab":"TX","county":"Smith","geo_location":{ "type": "Point", "coordinates": [-95.3342, 32.1095] }},
{"zip_code":"75771","country":"US","city":"Lindale","state":"Texas","state_ab":"TX","county":"Smith","geo_location":{ "type": "Point", "coordinates": [-95.4006, 32.5062] }},
{"zip_code":"76077","country":"US","city":"Rainbow","state":"Texas","state_ab":"TX","county":"Somervell","geo_location":{ "type": "Point", "coordinates": [-97.7065, 32.2812] }},
{"zip_code":"78547","country":"US","city":"Garciasville","state":"Texas","state_ab":"TX","county":"Starr","geo_location":{ "type": "Point", "coordinates": [-98.6876, 26.3396] }},
{"zip_code":"76424","country":"US","city":"Breckenridge","state":"Texas","state_ab":"TX","county":"Stephens","geo_location":{ "type": "Point", "coordinates": [-98.9099, 32.7532] }},
{"zip_code":"76011","country":"US","city":"Arlington","state":"Texas","state_ab":"TX","county":"Tarrant","geo_location":{ "type": "Point", "coordinates": [-97.1003, 32.7582] }},
{"zip_code":"76051","country":"US","city":"Grapevine","state":"Texas","state_ab":"TX","county":"Tarrant","geo_location":{ "type": "Point", "coordinates": [-97.0808, 32.9328] }},
{"zip_code":"76101","country":"US","city":"Fort Worth","state":"Texas","state_ab":"TX","county":"Tarrant","geo_location":{ "type": "Point", "coordinates": [-97.2915, 32.7714] }},
{"zip_code":"76114","country":"US","city":"Fort Worth","state":"Texas","state_ab":"TX","county":"Tarrant","geo_location":{ "type": "Point", "coordinates": [-97.3928, 32.7796] }},
{"zip_code":"76127","country":"US","city":"Naval Air Station/ Jrb","state":"Texas","state_ab":"TX","county":"Tarrant","geo_location":{ "type": "Point", "coordinates": [-97.4301, 32.7771] }},
{"zip_code":"76181","country":"US","city":"Fort Worth","state":"Texas","state_ab":"TX","county":"Tarrant","geo_location":{ "type": "Point", "coordinates": [-97.2915, 32.7714] }},
{"zip_code":"76244","country":"US","city":"Keller","state":"Texas","state_ab":"TX","county":"Tarrant","geo_location":{ "type": "Point", "coordinates": [-97.2843, 32.931] }},
{"zip_code":"79601","country":"US","city":"Abilene","state":"Texas","state_ab":"TX","county":"Taylor","geo_location":{ "type": "Point", "coordinates": [-99.7182, 32.4682] }},
{"zip_code":"76491","country":"US","city":"Woodson","state":"Texas","state_ab":"TX","county":"Throckmorton","geo_location":{ "type": "Point", "coordinates": [-99.0546, 33.0741] }},
{"zip_code":"76901","country":"US","city":"San Angelo","state":"Texas","state_ab":"TX","county":"Tom Green","geo_location":{ "type": "Point", "coordinates": [-100.4818, 31.4782] }},
{"zip_code":"78651","country":"US","city":"Mc Neil","state":"Texas","state_ab":"TX","county":"Travis","geo_location":{ "type": "Point", "coordinates": [-97.7713, 30.3264] }},
{"zip_code":"78691","country":"US","city":"Pflugerville","state":"Texas","state_ab":"TX","county":"Travis","geo_location":{ "type": "Point", "coordinates": [-97.7713, 30.3264] }},
{"zip_code":"78701","country":"US","city":"Austin","state":"Texas","state_ab":"TX","county":"Travis","geo_location":{ "type": "Point", "coordinates": [-97.7426, 30.2713] }},
{"zip_code":"78714","country":"US","city":"Austin","state":"Texas","state_ab":"TX","county":"Travis","geo_location":{ "type": "Point", "coordinates": [-97.4438, 30.3358] }},
{"zip_code":"78727","country":"US","city":"Austin","state":"Texas","state_ab":"TX","county":"Travis","geo_location":{ "type": "Point", "coordinates": [-97.7195, 30.4254] }},
{"zip_code":"78741","country":"US","city":"Austin","state":"Texas","state_ab":"TX","county":"Travis","geo_location":{ "type": "Point", "coordinates": [-97.7223, 30.2315] }},
{"zip_code":"78754","country":"US","city":"Austin","state":"Texas","state_ab":"TX","county":"Travis","geo_location":{ "type": "Point", "coordinates": [-97.6673, 30.3423] }},
{"zip_code":"78767","country":"US","city":"Austin","state":"Texas","state_ab":"TX","county":"Travis","geo_location":{ "type": "Point", "coordinates": [-97.8963, 30.222] }},
{"zip_code":"78781","country":"US","city":"Austin","state":"Texas","state_ab":"TX","county":"Travis","geo_location":{ "type": "Point", "coordinates": [-97.7713, 30.3264] }},
{"zip_code":"75834","country":"US","city":"Centralia","state":"Texas","state_ab":"TX","county":"Trinity","geo_location":{ "type": "Point", "coordinates": [-95.1388, 31.1058] }},
{"zip_code":"75797","country":"US","city":"Big Sandy","state":"Texas","state_ab":"TX","county":"Upshur County","geo_location":{ "type": "Point", "coordinates": [-95.1313, 32.5765] }},
{"zip_code":"78884","country":"US","city":"Utopia","state":"Texas","state_ab":"TX","county":"Uvalde","geo_location":{ "type": "Point", "coordinates": [-99.5585, 29.5972] }},
{"zip_code":"78871","country":"US","city":"Langtry","state":"Texas","state_ab":"TX","county":"Val Verde","geo_location":{ "type": "Point", "coordinates": [-101.23, 29.7632] }},
{"zip_code":"77904","country":"US","city":"Victoria","state":"Texas","state_ab":"TX","county":"Victoria","geo_location":{ "type": "Point", "coordinates": [-96.999, 28.8675] }},
{"zip_code":"78044","country":"US","city":"Laredo","state":"Texas","state_ab":"TX","county":"Webb","geo_location":{ "type": "Point", "coordinates": [-99.4819, 27.3637] }},
{"zip_code":"77454","country":"US","city":"Lissie","state":"Texas","state_ab":"TX","county":"Wharton","geo_location":{ "type": "Point", "coordinates": [-96.2303, 29.5353] }},
{"zip_code":"77467","country":"US","city":"Pierce","state":"Texas","state_ab":"TX","county":"Wharton","geo_location":{ "type": "Point", "coordinates": [-96.1369, 29.2052] }},
{"zip_code":"79061","country":"US","city":"Mobeetie","state":"Texas","state_ab":"TX","county":"Wheeler","geo_location":{ "type": "Point", "coordinates": [-100.4242, 35.5297] }},
{"zip_code":"76307","country":"US","city":"Wichita Falls","state":"Texas","state_ab":"TX","county":"Wichita","geo_location":{ "type": "Point", "coordinates": [-98.4946, 33.8777] }},
{"zip_code":"78561","country":"US","city":"Lasara","state":"Texas","state_ab":"TX","county":"Willacy","geo_location":{ "type": "Point", "coordinates": [-97.43, 26.5613] }},
{"zip_code":"78574","country":"US","city":"Mission","state":"Texas","state_ab":"TX","county":"Willacy County","geo_location":{ "type": "Point", "coordinates": [-98.3701, 26.3189] }},
{"zip_code":"76527","country":"US","city":"Florence","state":"Texas","state_ab":"TX","county":"Williamson","geo_location":{ "type": "Point", "coordinates": [-97.7812, 30.8076] }},
{"zip_code":"78664","country":"US","city":"Round Rock","state":"Texas","state_ab":"TX","county":"Williamson","geo_location":{ "type": "Point", "coordinates": [-97.668, 30.5145] }},
{"zip_code":"78121","country":"US","city":"La Vernia","state":"Texas","state_ab":"TX","county":"Wilson","geo_location":{ "type": "Point", "coordinates": [-98.113, 29.3509] }},
{"zip_code":"78147","country":"US","city":"Poth","state":"Texas","state_ab":"TX","county":"Wilson","geo_location":{ "type": "Point", "coordinates": [-98.0825, 29.0619] }},
{"zip_code":"78161","country":"US","city":"Sutherland Springs","state":"Texas","state_ab":"TX","county":"Wilson","geo_location":{ "type": "Point", "coordinates": [-98.0509, 29.2888] }},
{"zip_code":"76374","country":"US","city":"Olney","state":"Texas","state_ab":"TX","county":"Young","geo_location":{ "type": "Point", "coordinates": [-98.7427, 33.3601] }},
{"zip_code":"84731","country":"US","city":"Greenville","state":"Utah","state_ab":"UT","county":"Beaver","geo_location":{ "type": "Point", "coordinates": [-112.7833, 38.2356] }},
{"zip_code":"84331","country":"US","city":"Portage","state":"Utah","state_ab":"UT","county":"Box Elder","geo_location":{ "type": "Point", "coordinates": [-112.1806, 41.9062] }},
{"zip_code":"84304","country":"US","city":"Cache Junction","state":"Utah","state_ab":"UT","county":"Cache","geo_location":{ "type": "Point", "coordinates": [-111.9982, 41.8169] }},
{"zip_code":"84087","country":"US","city":"Woods Cross","state":"Utah","state_ab":"UT","county":"Davis","geo_location":{ "type": "Point", "coordinates": [-111.9027, 40.8874] }},
{"zip_code":"84007","country":"US","city":"Bluebell","state":"Utah","state_ab":"UT","county":"Duchesne","geo_location":{ "type": "Point", "coordinates": [-110.2298, 40.3125] }},
{"zip_code":"84021","country":"US","city":"Duchesne","state":"Utah","state_ab":"UT","county":"Duchesne","geo_location":{ "type": "Point", "coordinates": [-110.6181, 39.954] }},
{"zip_code":"84537","country":"US","city":"Orangeville","state":"Utah","state_ab":"UT","county":"Emery","geo_location":{ "type": "Point", "coordinates": [-111.0518, 39.2302] }},
{"zip_code":"84717","country":"US","city":"Bryce Canyon","state":"Utah","state_ab":"UT","county":"Garfield","geo_location":{ "type": "Point", "coordinates": [-111.3082, 37.8448] }},
{"zip_code":"84047","country":"US","city":"Midvale","state":"Utah","state_ab":"UT","county":"Salt Lake","geo_location":{ "type": "Point", "coordinates": [-111.8851, 40.6152] }},
{"zip_code":"84111","country":"US","city":"Salt Lake City","state":"Utah","state_ab":"UT","county":"Salt Lake","geo_location":{ "type": "Point", "coordinates": [-111.881, 40.7548] }},
{"zip_code":"84124","country":"US","city":"Salt Lake City","state":"Utah","state_ab":"UT","county":"Salt Lake","geo_location":{ "type": "Point", "coordinates": [-111.8133, 40.6772] }},
{"zip_code":"84137","country":"US","city":"Salt Lake City","state":"Utah","state_ab":"UT","county":"Salt Lake","geo_location":{ "type": "Point", "coordinates": [-111.9083, 40.6681] }},
{"zip_code":"84151","country":"US","city":"Salt Lake City","state":"Utah","state_ab":"UT","county":"Salt Lake","geo_location":{ "type": "Point", "coordinates": [-111.9083, 40.6681] }},
{"zip_code":"84511","country":"US","city":"Blanding","state":"Utah","state_ab":"UT","county":"San Juan","geo_location":{ "type": "Point", "coordinates": [-109.4866, 37.5863] }},
{"zip_code":"84627","country":"US","city":"Ephraim","state":"Utah","state_ab":"UT","county":"Sanpete","geo_location":{ "type": "Point", "coordinates": [-111.5823, 39.36] }},
{"zip_code":"84667","country":"US","city":"Wales","state":"Utah","state_ab":"UT","county":"Sanpete","geo_location":{ "type": "Point", "coordinates": [-111.6341, 39.4884] }},
{"zip_code":"84654","country":"US","city":"Salina","state":"Utah","state_ab":"UT","county":"Sevier","geo_location":{ "type": "Point", "coordinates": [-111.8811, 38.956] }},
{"zip_code":"84744","country":"US","city":"Koosharem","state":"Utah","state_ab":"UT","county":"Sevier","geo_location":{ "type": "Point", "coordinates": [-111.8713, 38.7221] }},
{"zip_code":"84061","country":"US","city":"Peoa","state":"Utah","state_ab":"UT","county":"Summit","geo_location":{ "type": "Point", "coordinates": [-111.3025, 40.7209] }},
{"zip_code":"84034","country":"US","city":"Ibapah","state":"Utah","state_ab":"UT","county":"Tooele","geo_location":{ "type": "Point", "coordinates": [-113.0959, 40.49] }},
{"zip_code":"84074","country":"US","city":"Tooele","state":"Utah","state_ab":"UT","county":"Tooele","geo_location":{ "type": "Point", "coordinates": [-112.3002, 40.5454] }},
{"zip_code":"84601","country":"US","city":"Provo","state":"Utah","state_ab":"UT","county":"Utah","geo_location":{ "type": "Point", "coordinates": [-111.6755, 40.2319] }},
{"zip_code":"84757","country":"US","city":"New Harmony","state":"Utah","state_ab":"UT","county":"Washington","geo_location":{ "type": "Point", "coordinates": [-113.268, 37.455] }},
{"zip_code":"84771","country":"US","city":"Saint George","state":"Utah","state_ab":"UT","county":"Washington","geo_location":{ "type": "Point", "coordinates": [-113.4762, 37.3092] }},
{"zip_code":"84784","country":"US","city":"Hildale","state":"Utah","state_ab":"UT","county":"Washington","geo_location":{ "type": "Point", "coordinates": [-112.9784, 37.0044] }},
{"zip_code":"84201","country":"US","city":"Ogden","state":"Utah","state_ab":"UT","county":"Weber","geo_location":{ "type": "Point", "coordinates": [-112.0079, 41.2443] }},
{"zip_code":"84317","country":"US","city":"Huntsville","state":"Utah","state_ab":"UT","county":"Weber","geo_location":{ "type": "Point", "coordinates": [-111.7618, 41.2721] }},
{"zip_code":"84407","country":"US","city":"Ogden","state":"Utah","state_ab":"UT","county":"Weber","geo_location":{ "type": "Point", "coordinates": [-111.9659, 41.2385] }},
{"zip_code":"22911","country":"US","city":"Charlottesville","state":"Virginia","state_ab":"VA","county":"Albemarle","geo_location":{ "type": "Point", "coordinates": [-78.4085, 38.0995] }},
{"zip_code":"22924","country":"US","city":"Batesville","state":"Virginia","state_ab":"VA","county":"Albemarle","geo_location":{ "type": "Point", "coordinates": [-78.7271, 38.0013] }},
{"zip_code":"22937","country":"US","city":"Esmont","state":"Virginia","state_ab":"VA","county":"Albemarle","geo_location":{ "type": "Point", "coordinates": [-78.6106, 37.8125] }},
{"zip_code":"22201","country":"US","city":"Arlington","state":"Virginia","state_ab":"VA","county":"Arlington","geo_location":{ "type": "Point", "coordinates": [-77.0932, 38.8871] }}]}