{"value": [{"zip_code":"78645","country":"US","city":"Leander","state":"Texas","state_ab":"TX","county":"Travis","geo_location":{ "type": "Point", "coordinates": [-97.9669, 30.449] }},
{"zip_code":"78708","country":"US","city":"Austin","state":"Texas","state_ab":"TX","county":"Travis","geo_location":{ "type": "Point", "coordinates": [-97.7713, 30.3264] }},
{"zip_code":"78722","country":"US","city":"Austin","state":"Texas","state_ab":"TX","county":"Travis","geo_location":{ "type": "Point", "coordinates": [-97.715, 30.2893] }},
{"zip_code":"78735","country":"US","city":"Austin","state":"Texas","state_ab":"TX","county":"Travis","geo_location":{ "type": "Point", "coordinates": [-97.8414, 30.249] }},
{"zip_code":"78748","country":"US","city":"Austin","state":"Texas","state_ab":"TX","county":"Travis","geo_location":{ "type": "Point", "coordinates": [-97.8225, 30.1743] }},
{"zip_code":"78762","country":"US","city":"Austin","state":"Texas","state_ab":"TX","county":"Travis","geo_location":{ "type": "Point", "coordinates": [-97.7713, 30.3264] }},
{"zip_code":"78788","country":"US","city":"Austin","state":"Texas","state_ab":"TX","county":"Travis","geo_location":{ "type": "Point", "coordinates": [-97.7713, 30.3264] }},
{"zip_code":"79752","country":"US","city":"Mc Camey","state":"Texas","state_ab":"TX","county":"Upton","geo_location":{ "type": "Point", "coordinates": [-102.2153, 31.1319] }},
{"zip_code":"79778","country":"US","city":"Rankin","state":"Texas","state_ab":"TX","county":"Upton","geo_location":{ "type": "Point", "coordinates": [-101.9441, 31.2266] }},
{"zip_code":"78838","country":"US","city":"Concan","state":"Texas","state_ab":"TX","county":"Uvalde","geo_location":{ "type": "Point", "coordinates": [-99.7128, 29.5474] }},
{"zip_code":"77358","country":"US","city":"New Waverly","state":"Texas","state_ab":"TX","county":"Walker","geo_location":{ "type": "Point", "coordinates": [-95.4532, 30.5354] }},
{"zip_code":"77835","country":"US","city":"Burton","state":"Texas","state_ab":"TX","county":"Washington","geo_location":{ "type": "Point", "coordinates": [-96.5925, 30.1767] }},
{"zip_code":"77435","country":"US","city":"East Bernard","state":"Texas","state_ab":"TX","county":"Wharton","geo_location":{ "type": "Point", "coordinates": [-96.1211, 29.4705] }},
{"zip_code":"77448","country":"US","city":"Hungerford","state":"Texas","state_ab":"TX","county":"Wharton","geo_location":{ "type": "Point", "coordinates": [-96.0929, 29.4137] }},
{"zip_code":"77462","country":"US","city":"Newgulf","state":"Texas","state_ab":"TX","county":"Wharton","geo_location":{ "type": "Point", "coordinates": [-96.2411, 29.2985] }},
{"zip_code":"77488","country":"US","city":"Wharton","state":"Texas","state_ab":"TX","county":"Wharton","geo_location":{ "type": "Point", "coordinates": [-96.0858, 29.3205] }},
{"zip_code":"76302","country":"US","city":"Wichita Falls","state":"Texas","state_ab":"TX","county":"Wichita","geo_location":{ "type": "Point", "coordinates": [-98.494, 33.8643] }},
{"zip_code":"76225","country":"US","city":"Alvord","state":"Texas","state_ab":"TX","county":"Wise","geo_location":{ "type": "Point", "coordinates": [-97.6885, 33.3698] }},
{"zip_code":"75765","country":"US","city":"Hawkins","state":"Texas","state_ab":"TX","county":"Wood","geo_location":{ "type": "Point", "coordinates": [-95.222, 32.6439] }},
{"zip_code":"84752","country":"US","city":"Minersville","state":"Utah","state_ab":"UT","county":"Beaver","geo_location":{ "type": "Point", "coordinates": [-112.9231, 38.2149] }},
{"zip_code":"84312","country":"US","city":"Garland","state":"Utah","state_ab":"UT","county":"Box Elder","geo_location":{ "type": "Point", "coordinates": [-112.1516, 41.7413] }},
{"zip_code":"84325","country":"US","city":"Mendon","state":"Utah","state_ab":"UT","county":"Cache","geo_location":{ "type": "Point", "coordinates": [-111.9817, 41.71] }},
{"zip_code":"84338","country":"US","city":"Trenton","state":"Utah","state_ab":"UT","county":"Cache","geo_location":{ "type": "Point", "coordinates": [-111.934, 41.9105] }},
{"zip_code":"84015","country":"US","city":"Clearfield","state":"Utah","state_ab":"UT","county":"Davis","geo_location":{ "type": "Point", "coordinates": [-112.0482, 41.1294] }},
{"zip_code":"84002","country":"US","city":"Altonah","state":"Utah","state_ab":"UT","county":"Duchesne","geo_location":{ "type": "Point", "coordinates": [-110.436, 40.3207] }},
{"zip_code":"84518","country":"US","city":"Cleveland","state":"Utah","state_ab":"UT","county":"Emery","geo_location":{ "type": "Point", "coordinates": [-110.8936, 39.3736] }},
{"zip_code":"84712","country":"US","city":"Antimony","state":"Utah","state_ab":"UT","county":"Garfield","geo_location":{ "type": "Point", "coordinates": [-111.993, 38.1015] }},
{"zip_code":"84532","country":"US","city":"Moab","state":"Utah","state_ab":"UT","county":"Grand","geo_location":{ "type": "Point", "coordinates": [-109.5271, 38.5677] }},
{"zip_code":"84648","country":"US","city":"Nephi","state":"Utah","state_ab":"UT","county":"Juab","geo_location":{ "type": "Point", "coordinates": [-111.8359, 39.6923] }},
{"zip_code":"84635","country":"US","city":"Hinckley","state":"Utah","state_ab":"UT","county":"Millard","geo_location":{ "type": "Point", "coordinates": [-112.6716, 39.3308] }},
{"zip_code":"84028","country":"US","city":"Garden City","state":"Utah","state_ab":"UT","county":"Rich","geo_location":{ "type": "Point", "coordinates": [-111.407, 41.9376] }},
{"zip_code":"84095","country":"US","city":"South Jordan","state":"Utah","state_ab":"UT","county":"Salt Lake","geo_location":{ "type": "Point", "coordinates": [-111.9539, 40.5541] }},
{"zip_code":"84105","country":"US","city":"Salt Lake City","state":"Utah","state_ab":"UT","county":"Salt Lake","geo_location":{ "type": "Point", "coordinates": [-111.8581, 40.7372] }},
{"zip_code":"84118","country":"US","city":"Salt Lake City","state":"Utah","state_ab":"UT","county":"Salt Lake","geo_location":{ "type": "Point", "coordinates": [-112.0054, 40.6504] }},
{"zip_code":"84132","country":"US","city":"Salt Lake City","state":"Utah","state_ab":"UT","county":"Salt Lake","geo_location":{ "type": "Point", "coordinates": [-111.8385, 40.7727] }},
{"zip_code":"84145","country":"US","city":"Salt Lake City","state":"Utah","state_ab":"UT","county":"Salt Lake","geo_location":{ "type": "Point", "coordinates": [-111.9083, 40.6681] }},
{"zip_code":"84158","country":"US","city":"Salt Lake City","state":"Utah","state_ab":"UT","county":"Salt Lake","geo_location":{ "type": "Point", "coordinates": [-111.7621, 40.769] }},
{"zip_code":"84185","country":"US","city":"Salt Lake City","state":"Utah","state_ab":"UT","county":"Salt Lake","geo_location":{ "type": "Point", "coordinates": [-111.9083, 40.6681] }},
{"zip_code":"84622","country":"US","city":"Centerfield","state":"Utah","state_ab":"UT","county":"Sanpete","geo_location":{ "type": "Point", "coordinates": [-111.8185, 39.1251] }},
{"zip_code":"84662","country":"US","city":"Spring City","state":"Utah","state_ab":"UT","county":"Sanpete","geo_location":{ "type": "Point", "coordinates": [-111.4661, 39.4671] }},
{"zip_code":"84055","country":"US","city":"Oakley","state":"Utah","state_ab":"UT","county":"Summit","geo_location":{ "type": "Point", "coordinates": [-111.2456, 40.7243] }},
{"zip_code":"84068","country":"US","city":"Park City","state":"Utah","state_ab":"UT","county":"Summit","geo_location":{ "type": "Point", "coordinates": [-111.5054, 40.668] }},
{"zip_code":"84042","country":"US","city":"Lindon","state":"Utah","state_ab":"UT","county":"Utah","geo_location":{ "type": "Point", "coordinates": [-111.7144, 40.3412] }},
{"zip_code":"84082","country":"US","city":"Wallsburg","state":"Utah","state_ab":"UT","county":"Wasatch","geo_location":{ "type": "Point", "coordinates": [-111.4649, 40.3657] }},
{"zip_code":"84725","country":"US","city":"Enterprise","state":"Utah","state_ab":"UT","county":"Washington","geo_location":{ "type": "Point", "coordinates": [-113.6894, 37.5797] }},
{"zip_code":"84738","country":"US","city":"Ivins","state":"Utah","state_ab":"UT","county":"Washington","geo_location":{ "type": "Point", "coordinates": [-113.7066, 37.179] }},
{"zip_code":"84765","country":"US","city":"Santa Clara","state":"Utah","state_ab":"UT","county":"Washington","geo_location":{ "type": "Point", "coordinates": [-113.676, 37.1282] }},
{"zip_code":"84402","country":"US","city":"Ogden","state":"Utah","state_ab":"UT","county":"Weber","geo_location":{ "type": "Point", "coordinates": [-111.9567, 41.2553] }},
{"zip_code":"84415","country":"US","city":"Ogden","state":"Utah","state_ab":"UT","county":"Weber","geo_location":{ "type": "Point", "coordinates": [-111.9567, 41.2553] }},
{"zip_code":"23302","country":"US","city":"Assawoman","state":"Virginia","state_ab":"VA","county":"Accomack","geo_location":{ "type": "Point", "coordinates": [-75.5277, 37.8658] }},
{"zip_code":"23395","country":"US","city":"Horntown","state":"Virginia","state_ab":"VA","county":"Accomack","geo_location":{ "type": "Point", "coordinates": [-75.4716, 37.9699] }},
{"zip_code":"23418","country":"US","city":"Onley","state":"Virginia","state_ab":"VA","county":"Accomack","geo_location":{ "type": "Point", "coordinates": [-75.6992, 37.6704] }},
{"zip_code":"22932","country":"US","city":"Crozet","state":"Virginia","state_ab":"VA","county":"Albemarle","geo_location":{ "type": "Point", "coordinates": [-78.7106, 38.1296] }},
{"zip_code":"22945","country":"US","city":"Ivy","state":"Virginia","state_ab":"VA","county":"Albemarle","geo_location":{ "type": "Point", "coordinates": [-78.5958, 38.0654] }},
{"zip_code":"24422","country":"US","city":"Clifton Forge","state":"Virginia","state_ab":"VA","county":"Alleghany County","geo_location":{ "type": "Point", "coordinates": [-79.8054, 37.8203] }},
{"zip_code":"24448","country":"US","city":"Iron Gate","state":"Virginia","state_ab":"VA","county":"Alleghany","geo_location":{ "type": "Point", "coordinates": [-79.786, 37.7965] }},
{"zip_code":"22222","country":"US","city":"Arlington","state":"Virginia","state_ab":"VA","county":"Arlington","geo_location":{ "type": "Point", "coordinates": [-77.0536, 38.8615] }},
{"zip_code":"24475","country":"US","city":"Spottswood","state":"Virginia","state_ab":"VA","county":"Augusta","geo_location":{ "type": "Point", "coordinates": [-79.2211, 37.9684] }},
{"zip_code":"24178","country":"US","city":"Villamont","state":"Virginia","state_ab":"VA","county":"Bedford","geo_location":{ "type": "Point", "coordinates": [-79.7898, 37.3105] }},
{"zip_code":"24318","country":"US","city":"Ceres","state":"Virginia","state_ab":"VA","county":"Bland","geo_location":{ "type": "Point", "coordinates": [-81.3643, 37.0046] }},
{"zip_code":"23845","country":"US","city":"Ebony","state":"Virginia","state_ab":"VA","county":"Brunswick","geo_location":{ "type": "Point", "coordinates": [-77.9888, 36.5722] }},
{"zip_code":"24628","country":"US","city":"Maxie","state":"Virginia","state_ab":"VA","county":"Buchanan","geo_location":{ "type": "Point", "coordinates": [-82.0274, 37.288] }},
{"zip_code":"24512","country":"US","city":"Lynchburg","state":"Virginia","state_ab":"VA","county":"Campbell","geo_location":{ "type": "Point", "coordinates": [-79.1098, 37.2425] }},
{"zip_code":"24538","country":"US","city":"Concord","state":"Virginia","state_ab":"VA","county":"Campbell","geo_location":{ "type": "Point", "coordinates": [-78.9804, 37.337] }},
{"zip_code":"22428","country":"US","city":"Bowling Green","state":"Virginia","state_ab":"VA","county":"Caroline","geo_location":{ "type": "Point", "coordinates": [-77.3559, 38.0145] }},
{"zip_code":"23962","country":"US","city":"Randolph","state":"Virginia","state_ab":"VA","county":"Charlotte","geo_location":{ "type": "Point", "coordinates": [-78.7054, 36.9515] }},
{"zip_code":"23832","country":"US","city":"Chesterfield","state":"Virginia","state_ab":"VA","county":"Chesterfield","geo_location":{ "type": "Point", "coordinates": [-77.5668, 37.3923] }},
{"zip_code":"24228","country":"US","city":"Clintwood","state":"Virginia","state_ab":"VA","county":"Dickenson","geo_location":{ "type": "Point", "coordinates": [-82.4453, 37.1592] }},
{"zip_code":"23872","country":"US","city":"Mc Kenney","state":"Virginia","state_ab":"VA","county":"Dinwiddie","geo_location":{ "type": "Point", "coordinates": [-77.7396, 36.9986] }},
{"zip_code":"23885","country":"US","city":"Sutherland","state":"Virginia","state_ab":"VA","county":"Dinwiddie","geo_location":{ "type": "Point", "coordinates": [-77.5655, 37.1901] }},
{"zip_code":"20192","country":"US","city":"Herndon","state":"Virginia","state_ab":"VA","county":"Fairfax","geo_location":{ "type": "Point", "coordinates": [-77.2888, 38.8318] }},
{"zip_code":"22015","country":"US","city":"Burke","state":"Virginia","state_ab":"VA","county":"Fairfax","geo_location":{ "type": "Point", "coordinates": [-77.2818, 38.7894] }},
{"zip_code":"22042","country":"US","city":"Falls Church","state":"Virginia","state_ab":"VA","county":"Fairfax","geo_location":{ "type": "Point", "coordinates": [-77.1939, 38.8635] }},
{"zip_code":"22082","country":"US","city":"Merrifield","state":"Virginia","state_ab":"VA","county":"Fairfax","geo_location":{ "type": "Point", "coordinates": [-77.2888, 38.8318] }},
{"zip_code":"22095","country":"US","city":"Herndon","state":"Virginia","state_ab":"VA","county":"Fairfax","geo_location":{ "type": "Point", "coordinates": [-77.2888, 38.8318] }},
{"zip_code":"22118","country":"US","city":"Merrifield","state":"Virginia","state_ab":"VA","county":"Fairfax","geo_location":{ "type": "Point", "coordinates": [-77.2888, 38.8318] }},
{"zip_code":"22158","country":"US","city":"Springfield","state":"Virginia","state_ab":"VA","county":"Fairfax","geo_location":{ "type": "Point", "coordinates": [-77.2888, 38.8318] }},
{"zip_code":"22185","country":"US","city":"Vienna","state":"Virginia","state_ab":"VA","county":"Fairfax","geo_location":{ "type": "Point", "coordinates": [-77.2888, 38.8318] }},
{"zip_code":"22312","country":"US","city":"Alexandria","state":"Virginia","state_ab":"VA","county":"Fairfax","geo_location":{ "type": "Point", "coordinates": [-77.1484, 38.8191] }},
{"zip_code":"20138","country":"US","city":"Calverton","state":"Virginia","state_ab":"VA","county":"Fauquier","geo_location":{ "type": "Point", "coordinates": [-77.6869, 38.6338] }},
{"zip_code":"22712","country":"US","city":"Bealeton","state":"Virginia","state_ab":"VA","county":"Fauquier","geo_location":{ "type": "Point", "coordinates": [-77.7561, 38.5453] }},
{"zip_code":"24088","country":"US","city":"Ferrum","state":"Virginia","state_ab":"VA","county":"Franklin","geo_location":{ "type": "Point", "coordinates": [-80.0349, 36.9168] }},
{"zip_code":"22622","country":"US","city":"Brucetown","state":"Virginia","state_ab":"VA","county":"Frederick","geo_location":{ "type": "Point", "coordinates": [-78.0664, 39.2543] }},
{"zip_code":"23018","country":"US","city":"Bena","state":"Virginia","state_ab":"VA","county":"Gloucester","geo_location":{ "type": "Point", "coordinates": [-76.5084, 37.4182] }},
{"zip_code":"23072","country":"US","city":"Hayes","state":"Virginia","state_ab":"VA","county":"Gloucester","geo_location":{ "type": "Point", "coordinates": [-76.4905, 37.2916] }},
{"zip_code":"23122","country":"US","city":"Naxera","state":"Virginia","state_ab":"VA","county":"Gloucester County","geo_location":{ "type": "Point", "coordinates": [-76.4473, 37.3404] }},
{"zip_code":"23238","country":"US","city":"Richmond","state":"Virginia","state_ab":"VA","county":"Goochland","geo_location":{ "type": "Point", "coordinates": [-77.6463, 37.5974] }},
{"zip_code":"24592","country":"US","city":"South Boston","state":"Virginia","state_ab":"VA","county":"Halifax","geo_location":{ "type": "Point", "coordinates": [-78.9188, 36.6963] }},
{"zip_code":"23005","country":"US","city":"Ashland","state":"Virginia","state_ab":"VA","county":"Hanover","geo_location":{ "type": "Point", "coordinates": [-77.4784, 37.7395] }},
{"zip_code":"23162","country":"US","city":"Studley","state":"Virginia","state_ab":"VA","county":"Hanover","geo_location":{ "type": "Point", "coordinates": [-77.4526, 37.7722] }},
{"zip_code":"23058","country":"US","city":"Glen Allen","state":"Virginia","state_ab":"VA","county":"Henrico","geo_location":{ "type": "Point", "coordinates": [-77.4161, 37.5313] }},
{"zip_code":"24165","country":"US","city":"Spencer","state":"Virginia","state_ab":"VA","county":"Henry","geo_location":{ "type": "Point", "coordinates": [-80.0373, 36.5968] }},
{"zip_code":"23315","country":"US","city":"Carrsville","state":"Virginia","state_ab":"VA","county":"Isle of Wight","geo_location":{ "type": "Point", "coordinates": [-76.8365, 36.7454] }},
{"zip_code":"23898","country":"US","city":"Zuni","state":"Virginia","state_ab":"VA","county":"Isle of Wight","geo_location":{ "type": "Point", "coordinates": [-76.811, 36.8437] }},
{"zip_code":"23188","country":"US","city":"Williamsburg","state":"Virginia","state_ab":"VA","county":"James City","geo_location":{ "type": "Point", "coordinates": [-76.7634, 37.3178] }},
{"zip_code":"23085","country":"US","city":"King And Queen Court Hous","state":"Virginia","state_ab":"VA","county":"King and Queen","geo_location":{ "type": "Point", "coordinates": [-76.8413, 37.7065] }},
{"zip_code":"23108","country":"US","city":"Mascot","state":"Virginia","state_ab":"VA","county":"King and Queen","geo_location":{ "type": "Point", "coordinates": [-76.7383, 37.6068] }},
{"zip_code":"23148","country":"US","city":"Saint Stephens Church","state":"Virginia","state_ab":"VA","county":"King and Queen","geo_location":{ "type": "Point", "coordinates": [-77.055, 37.8479] }},
{"zip_code":"22482","country":"US","city":"Kilmarnock","state":"Virginia","state_ab":"VA","county":"Lancaster","geo_location":{ "type": "Point", "coordinates": [-76.382, 37.7162] }},
{"zip_code":"24282","country":"US","city":"Saint Charles","state":"Virginia","state_ab":"VA","county":"Lee","geo_location":{ "type": "Point", "coordinates": [-83.0518, 36.8315] }},
{"zip_code":"20152","country":"US","city":"Chantilly","state":"Virginia","state_ab":"VA","county":"Loudoun","geo_location":{ "type": "Point", "coordinates": [-77.5092, 38.8976] }},
{"zip_code":"20165","country":"US","city":"Sterling","state":"Virginia","state_ab":"VA","county":"Loudoun","geo_location":{ "type": "Point", "coordinates": [-77.3866, 39.0472] }},
{"zip_code":"20178","country":"US","city":"Leesburg","state":"Virginia","state_ab":"VA","county":"Loudoun","geo_location":{ "type": "Point", "coordinates": [-77.608, 39.0729] }},
{"zip_code":"22068","country":"US","city":"Hamilton","state":"Virginia","state_ab":"VA","county":"Loudoun County","geo_location":{ "type": "Point", "coordinates": [-77.6637, 39.1363] }},
{"zip_code":"22132","country":"US","city":"Purcellville","state":"Virginia","state_ab":"VA","county":"Loudoun County","geo_location":{ "type": "Point", "coordinates": [-77.7228, 39.1572] }},
{"zip_code":"22725","country":"US","city":"Leon","state":"Virginia","state_ab":"VA","county":"Madison","geo_location":{ "type": "Point", "coordinates": [-78.2678, 38.4285] }},
{"zip_code":"22738","country":"US","city":"Rochelle","state":"Virginia","state_ab":"VA","county":"Madison","geo_location":{ "type": "Point", "coordinates": [-78.3042, 38.3215] }},
{"zip_code":"23045","country":"US","city":"Diggs","state":"Virginia","state_ab":"VA","county":"Mathews","geo_location":{ "type": "Point", "coordinates": [-76.2629, 37.4296] }},
{"zip_code":"23032","country":"US","city":"Church View","state":"Virginia","state_ab":"VA","county":"Middlesex","geo_location":{ "type": "Point", "coordinates": [-76.6629, 37.675] }},
{"zip_code":"23175","country":"US","city":"Urbanna","state":"Virginia","state_ab":"VA","county":"Middlesex","geo_location":{ "type": "Point", "coordinates": [-76.5918, 37.6356] }},
{"zip_code":"24062","country":"US","city":"Blacksburg","state":"Virginia","state_ab":"VA","county":"Montgomery","geo_location":{ "type": "Point", "coordinates": [-80.3957, 37.1742] }},
{"zip_code":"24138","country":"US","city":"Pilot","state":"Virginia","state_ab":"VA","county":"Montgomery","geo_location":{ "type": "Point", "coordinates": [-80.3229, 37.0565] }},
{"zip_code":"22958","country":"US","city":"Nellysford","state":"Virginia","state_ab":"VA","county":"Nelson","geo_location":{ "type": "Point", "coordinates": [-78.9004, 37.902] }},
{"zip_code":"23405","country":"US","city":"Machipongo","state":"Virginia","state_ab":"VA","county":"Northampton","geo_location":{ "type": "Point", "coordinates": [-75.9082, 37.4014] }},
{"zip_code":"23922","country":"US","city":"Burkeville","state":"Virginia","state_ab":"VA","county":"Nottoway","geo_location":{ "type": "Point", "coordinates": [-78.1961, 37.1952] }},
{"zip_code":"22972","country":"US","city":"Somerset","state":"Virginia","state_ab":"VA","county":"Orange","geo_location":{ "type": "Point", "coordinates": [-78.2394, 38.1997] }},
{"zip_code":"24565","country":"US","city":"Java","state":"Virginia","state_ab":"VA","county":"Pittsylvania","geo_location":{ "type": "Point", "coordinates": [-79.187, 36.8586] }},
{"zip_code":"23935","country":"US","city":"Darlington Heights","state":"Virginia","state_ab":"VA","county":"Prince Edward County","geo_location":{ "type": "Point", "coordinates": [-76.4673, 36.8637] }},
{"zip_code":"22172","country":"US","city":"Triangle","state":"Virginia","state_ab":"VA","county":"Prince William","geo_location":{ "type": "Point", "coordinates": [-77.3229, 38.5509] }},
{"zip_code":"22002","country":"US","city":"Amissville","state":"Virginia","state_ab":"VA","county":"Rappahannock","geo_location":{ "type": "Point", "coordinates": [-78.137, 38.6914] }},
{"zip_code":"22572","country":"US","city":"Warsaw","state":"Virginia","state_ab":"VA","county":"Richmond","geo_location":{ "type": "Point", "coordinates": [-76.7665, 37.9695] }},
{"zip_code":"24435","country":"US","city":"Fairfield","state":"Virginia","state_ab":"VA","county":"Rockbridge","geo_location":{ "type": "Point", "coordinates": [-79.2979, 37.8778] }},
{"zip_code":"24578","country":"US","city":"Natural Bridge","state":"Virginia","state_ab":"VA","county":"Rockbridge","geo_location":{ "type": "Point", "coordinates": [-79.533, 37.6606] }},
{"zip_code":"22802","country":"US","city":"Harrisonburg","state":"Virginia","state_ab":"VA","county":"Rockingham","geo_location":{ "type": "Point", "coordinates": [-78.8179, 38.4905] }},
{"zip_code":"22815","country":"US","city":"Broadway","state":"Virginia","state_ab":"VA","county":"Rockingham","geo_location":{ "type": "Point", "coordinates": [-78.7875, 38.6083] }},
{"zip_code":"22842","country":"US","city":"Mount Jackson","state":"Virginia","state_ab":"VA","county":"Shenandoah","geo_location":{ "type": "Point", "coordinates": [-78.6803, 38.7857] }},
{"zip_code":"22545","country":"US","city":"Ruby","state":"Virginia","state_ab":"VA","county":"Stafford","geo_location":{ "type": "Point", "coordinates": [-77.543, 38.5086] }},
{"zip_code":"24602","country":"US","city":"Bandy","state":"Virginia","state_ab":"VA","county":"Tazewell","geo_location":{ "type": "Point", "coordinates": [-81.6508, 37.1661] }},
{"zip_code":"22442","country":"US","city":"Coles Point","state":"Virginia","state_ab":"VA","county":"Westmoreland","geo_location":{ "type": "Point", "coordinates": [-76.7903, 38.1218] }},
{"zip_code":"22558","country":"US","city":"Stratford","state":"Virginia","state_ab":"VA","county":"Westmoreland","geo_location":{ "type": "Point", "coordinates": [-76.7903, 38.1218] }},
{"zip_code":"24215","country":"US","city":"Andover","state":"Virginia","state_ab":"VA","county":"Wise","geo_location":{ "type": "Point", "coordinates": [-82.7964, 36.9234] }},
{"zip_code":"23692","country":"US","city":"Yorktown","state":"Virginia","state_ab":"VA","county":"York","geo_location":{ "type": "Point", "coordinates": [-76.4581, 37.1686] }},
{"zip_code":"24202","country":"US","city":"Bristol","state":"Virginia","state_ab":"VA","county":"Bristol (city)","geo_location":{ "type": "Point", "coordinates": [-82.2126, 36.6609] }},
{"zip_code":"22905","country":"US","city":"Charlottesville","state":"Virginia","state_ab":"VA","county":"Charlottesville (city)","geo_location":{ "type": "Point", "coordinates": [-78.4851, 38.0401] }},
{"zip_code":"23328","country":"US","city":"Chesapeake","state":"Virginia","state_ab":"VA","county":"Chesapeake (city)","geo_location":{ "type": "Point", "coordinates": [-76.2785, 36.7085] }},
{"zip_code":"22402","country":"US","city":"Fredericksburg","state":"Virginia","state_ab":"VA","county":"Fredericksburg (city)","geo_location":{ "type": "Point", "coordinates": [-77.4897, 38.2996] }},
{"zip_code":"23665","country":"US","city":"Hampton","state":"Virginia","state_ab":"VA","county":"Hampton (city)","geo_location":{ "type": "Point", "coordinates": [-76.36, 37.0831] }},
{"zip_code":"20112","country":"US","city":"Manassas","state":"Virginia","state_ab":"VA","county":"Manassas Park (city)","geo_location":{ "type": "Point", "coordinates": [-77.4248, 38.6665] }},
{"zip_code":"24112","country":"US","city":"Martinsville","state":"Virginia","state_ab":"VA","county":"Martinsville (city)","geo_location":{ "type": "Point", "coordinates": [-79.8691, 36.6871] }},
{"zip_code":"23612","country":"US","city":"Newport News","state":"Virginia","state_ab":"VA","county":"Newport News (city)","geo_location":{ "type": "Point", "coordinates": [-76.5248, 37.1959] }},
{"zip_code":"23508","country":"US","city":"Norfolk","state":"Virginia","state_ab":"VA","county":"Norfolk (city)","geo_location":{ "type": "Point", "coordinates": [-76.3004, 36.8859] }},
{"zip_code":"23805","country":"US","city":"Petersburg","state":"Virginia","state_ab":"VA","county":"Petersburg (city)","geo_location":{ "type": "Point", "coordinates": [-77.3854, 37.1819] }},
{"zip_code":"23702","country":"US","city":"Portsmouth","state":"Virginia","state_ab":"VA","county":"Portsmouth (city)","geo_location":{ "type": "Point", "coordinates": [-76.327, 36.8035] }},
{"zip_code":"23212","country":"US","city":"Richmond","state":"Virginia","state_ab":"VA","county":"City of Richmond","geo_location":{ "type": "Point", "coordinates": [-77.4471, 37.5593] }},
{"zip_code":"23225","country":"US","city":"Richmond","state":"Virginia","state_ab":"VA","county":"Richmond (city)","geo_location":{ "type": "Point", "coordinates": [-77.5047, 37.5158] }},
{"zip_code":"23278","country":"US","city":"Richmond","state":"Virginia","state_ab":"VA","county":"Richmond (city)","geo_location":{ "type": "Point", "coordinates": [-77.4932, 37.5242] }},
{"zip_code":"23292","country":"US","city":"Richmond","state":"Virginia","state_ab":"VA","county":"Richmond (city)","geo_location":{ "type": "Point", "coordinates": [-77.4932, 37.5242] }},
{"zip_code":"24008","country":"US","city":"Roanoke","state":"Virginia","state_ab":"VA","county":"Roanoke (city)","geo_location":{ "type": "Point", "coordinates": [-79.9579, 37.2742] }},
{"zip_code":"24022","country":"US","city":"Roanoke","state":"Virginia","state_ab":"VA","county":"Roanoke (city)","geo_location":{ "type": "Point", "coordinates": [-79.9332, 37.2784] }},
{"zip_code":"24035","country":"US","city":"Roanoke","state":"Virginia","state_ab":"VA","county":"Roanoke (city)","geo_location":{ "type": "Point", "coordinates": [-79.9579, 37.2742] }},
{"zip_code":"24048","country":"US","city":"Roanoke","state":"Virginia","state_ab":"VA","county":"Roanoke (city)","geo_location":{ "type": "Point", "coordinates": [-79.9579, 37.2742] }},
{"zip_code":"23432","country":"US","city":"Suffolk","state":"Virginia","state_ab":"VA","county":"Suffolk (city)","geo_location":{ "type": "Point", "coordinates": [-76.5598, 36.8668] }},
{"zip_code":"23458","country":"US","city":"Virginia Beach","state":"Virginia","state_ab":"VA","county":"Virginia Beach (city)","geo_location":{ "type": "Point", "coordinates": [-76.1558, 36.8474] }},
{"zip_code":"5472","country":"US","city":"New Haven","state":"Vermont","state_ab":"VT","county":"Addison","geo_location":{ "type": "Point", "coordinates": [-73.1735, 44.1126] }},
{"zip_code":"5252","country":"US","city":"East Arlington","state":"Vermont","state_ab":"VT","county":"Bennington","geo_location":{ "type": "Point", "coordinates": [-73.0611, 43.0668] }},
{"zip_code":"5768","country":"US","city":"Rupert","state":"Vermont","state_ab":"VT","county":"Bennington","geo_location":{ "type": "Point", "coordinates": [-73.0552, 43.027] }},
{"zip_code":"5832","country":"US","city":"East Burke","state":"Vermont","state_ab":"VT","county":"Caledonia","geo_location":{ "type": "Point", "coordinates": [-71.9357, 44.6078] }},
{"zip_code":"5405","country":"US","city":"Burlington","state":"Vermont","state_ab":"VT","county":"Chittenden","geo_location":{ "type": "Point", "coordinates": [-73.0825, 44.4421] }},
{"zip_code":"5445","country":"US","city":"Charlotte","state":"Vermont","state_ab":"VT","county":"Chittenden","geo_location":{ "type": "Point", "coordinates": [-73.228, 44.3113] }},
{"zip_code":"5858","country":"US","city":"North Concord","state":"Vermont","state_ab":"VT","county":"Essex","geo_location":{ "type": "Point", "coordinates": [-71.7867, 44.5501] }},
{"zip_code":"5485","country":"US","city":"Sheldon Springs","state":"Vermont","state_ab":"VT","county":"Franklin","geo_location":{ "type": "Point", "coordinates": [-72.9632, 44.9056] }},
{"zip_code":"5458","country":"US","city":"Grand Isle","state":"Vermont","state_ab":"VT","county":"Grand Isle","geo_location":{ "type": "Point", "coordinates": [-73.3056, 44.7197] }},
{"zip_code":"5652","country":"US","city":"Eden","state":"Vermont","state_ab":"VT","county":"Lamoille","geo_location":{ "type": "Point", "coordinates": [-72.5863, 44.7343] }},
{"zip_code":"5665","country":"US","city":"North Hyde Park","state":"Vermont","state_ab":"VT","county":"Lamoille","geo_location":{ "type": "Point", "coordinates": [-72.5971, 44.6731] }},
{"zip_code":"5045","country":"US","city":"Fairlee","state":"Vermont","state_ab":"VT","county":"Orange","geo_location":{ "type": "Point", "coordinates": [-72.1902, 43.901] }},
{"zip_code":"5058","country":"US","city":"Post Mills","state":"Vermont","state_ab":"VT","county":"Orange","geo_location":{ "type": "Point", "coordinates": [-72.27, 43.8858] }},
{"zip_code":"5072","country":"US","city":"Strafford","state":"Vermont","state_ab":"VT","county":"Orange","geo_location":{ "type": "Point", "coordinates": [-72.3636, 43.8723] }},
{"zip_code":"5085","country":"US","city":"West Newbury","state":"Vermont","state_ab":"VT","county":"Orange","geo_location":{ "type": "Point", "coordinates": [-72.4114, 43.996] }},
{"zip_code":"5845","country":"US","city":"Irasburg","state":"Vermont","state_ab":"VT","county":"Orleans","geo_location":{ "type": "Point", "coordinates": [-72.2763, 44.8081] }},
{"zip_code":"5872","country":"US","city":"West Charleston","state":"Vermont","state_ab":"VT","county":"Orleans","geo_location":{ "type": "Point", "coordinates": [-72.0521, 44.8729] }},
{"zip_code":"5702","country":"US","city":"Rutland","state":"Vermont","state_ab":"VT","county":"Rutland","geo_location":{ "type": "Point", "coordinates": [-72.9906, 43.4128] }},
{"zip_code":"5742","country":"US","city":"East Wallingford","state":"Vermont","state_ab":"VT","county":"Rutland","geo_location":{ "type": "Point", "coordinates": [-72.8844, 43.4461] }},
{"zip_code":"5678","country":"US","city":"Websterville","state":"Vermont","state_ab":"VT","county":"Washington","geo_location":{ "type": "Point", "coordinates": [-72.4658, 44.1558] }},
{"zip_code":"5148","country":"US","city":"Londonderry","state":"Vermont","state_ab":"VT","county":"Windham","geo_location":{ "type": "Point", "coordinates": [-72.788, 43.2281] }},
{"zip_code":"5302","country":"US","city":"Brattleboro","state":"Vermont","state_ab":"VT","county":"Windham","geo_location":{ "type": "Point", "coordinates": [-72.7204, 42.9947] }},
{"zip_code":"5342","country":"US","city":"Jacksonville","state":"Vermont","state_ab":"VT","county":"Windham","geo_location":{ "type": "Point", "coordinates": [-72.8071, 42.7778] }},
{"zip_code":"5355","country":"US","city":"Wardsboro","state":"Vermont","state_ab":"VT","county":"Windham","geo_location":{ "type": "Point", "coordinates": [-72.8077, 43.0326] }},
{"zip_code":"5032","country":"US","city":"Bethel","state":"Vermont","state_ab":"VT","county":"Windsor","geo_location":{ "type": "Point", "coordinates": [-72.6528, 43.8195] }},
{"zip_code":"99332","country":"US","city":"Hatton","state":"Washington","state_ab":"WA","county":"Adams","geo_location":{ "type": "Point", "coordinates": [-118.8, 46.7706] }},
{"zip_code":"99345","country":"US","city":"Paterson","state":"Washington","state_ab":"WA","county":"Benton","geo_location":{ "type": "Point", "coordinates": [-119.7559, 45.9911] }},
{"zip_code":"98382","country":"US","city":"Sequim","state":"Washington","state_ab":"WA","county":"Clallam","geo_location":{ "type": "Point", "coordinates": [-123.1198, 48.0881] }},
{"zip_code":"98665","country":"US","city":"Vancouver","state":"Washington","state_ab":"WA","county":"Clark","geo_location":{ "type": "Point", "coordinates": [-122.6616, 45.6892] }},
{"zip_code":"98625","country":"US","city":"Kalama","state":"Washington","state_ab":"WA","county":"Cowlitz","geo_location":{ "type": "Point", "coordinates": [-122.8166, 46.0112] }},
{"zip_code":"98845","country":"US","city":"Palisades","state":"Washington","state_ab":"WA","county":"Douglas","geo_location":{ "type": "Point", "coordinates": [-119.8023, 47.4694] }},
{"zip_code":"98858","country":"US","city":"Waterville","state":"Washington","state_ab":"WA","county":"Douglas","geo_location":{ "type": "Point", "coordinates": [-119.9887, 47.6295] }},
{"zip_code":"99138","country":"US","city":"Inchelium","state":"Washington","state_ab":"WA","county":"Ferry","geo_location":{ "type": "Point", "coordinates": [-118.3552, 48.2924] }},
{"zip_code":"98832","country":"US","city":"Marlin","state":"Washington","state_ab":"WA","county":"Grant","geo_location":{ "type": "Point", "coordinates": [-119.064, 47.3014] }},
{"zip_code":"98535","country":"US","city":"Copalis Beach","state":"Washington","state_ab":"WA","county":"Grays Harbor","geo_location":{ "type": "Point", "coordinates": [-124.1397, 47.1491] }},
{"zip_code":"98562","country":"US","city":"Moclips","state":"Washington","state_ab":"WA","county":"Grays Harbor","geo_location":{ "type": "Point", "coordinates": [-124.2039, 47.2387] }},
{"zip_code":"98575","country":"US","city":"Quinault","state":"Washington","state_ab":"WA","county":"Grays Harbor","geo_location":{ "type": "Point", "coordinates": [-123.8307, 47.4603] }},
{"zip_code":"98278","country":"US","city":"Oak Harbor","state":"Washington","state_ab":"WA","county":"Island","geo_location":{ "type": "Point", "coordinates": [-122.6695, 48.3402] }},
{"zip_code":"98368","country":"US","city":"Port Townsend","state":"Washington","state_ab":"WA","county":"Jefferson","geo_location":{ "type": "Point", "coordinates": [-122.7945, 48.104] }},
{"zip_code":"98005","country":"US","city":"Bellevue","state":"Washington","state_ab":"WA","county":"King","geo_location":{ "type": "Point", "coordinates": [-122.1663, 47.615] }},
{"zip_code":"98032","country":"US","city":"Kent","state":"Washington","state_ab":"WA","county":"King","geo_location":{ "type": "Point", "coordinates": [-122.2854, 47.3776] }},
{"zip_code":"98045","country":"US","city":"North Bend","state":"Washington","state_ab":"WA","county":"King","geo_location":{ "type": "Point", "coordinates": [-121.7571, 47.4755] }},
{"zip_code":"98058","country":"US","city":"Renton","state":"Washington","state_ab":"WA","county":"King","geo_location":{ "type": "Point", "coordinates": [-122.1216, 47.4465] }},
{"zip_code":"98072","country":"US","city":"Woodinville","state":"Washington","state_ab":"WA","county":"King","geo_location":{ "type": "Point", "coordinates": [-122.1271, 47.7684] }},
{"zip_code":"98108","country":"US","city":"Seattle","state":"Washington","state_ab":"WA","county":"King","geo_location":{ "type": "Point", "coordinates": [-122.3129, 47.5413] }},
{"zip_code":"98122","country":"US","city":"Seattle","state":"Washington","state_ab":"WA","county":"King","geo_location":{ "type": "Point", "coordinates": [-122.3056, 47.6116] }},
{"zip_code":"98148","country":"US","city":"Seattle","state":"Washington","state_ab":"WA","county":"King","geo_location":{ "type": "Point", "coordinates": [-122.3249, 47.4441] }},
{"zip_code":"98175","country":"US","city":"Seattle","state":"Washington","state_ab":"WA","county":"King County","geo_location":{ "type": "Point", "coordinates": [-122.3004, 47.7161] }},
{"zip_code":"98188","country":"US","city":"Seattle","state":"Washington","state_ab":"WA","county":"King","geo_location":{ "type": "Point", "coordinates": [-122.2731, 47.4483] }},
{"zip_code":"98315","country":"US","city":"Silverdale","state":"Washington","state_ab":"WA","county":"Kitsap","geo_location":{ "type": "Point", "coordinates": [-122.7161, 47.692] }},
{"zip_code":"98342","country":"US","city":"Indianola","state":"Washington","state_ab":"WA","county":"Kitsap","geo_location":{ "type": "Point", "coordinates": [-122.5196, 47.7514] }},
{"zip_code":"98922","country":"US","city":"Cle Elum","state":"Washington","state_ab":"WA","county":"Kittitas","geo_location":{ "type": "Point", "coordinates": [-120.9685, 47.2063] }},
{"zip_code":"98355","country":"US","city":"Mineral","state":"Washington","state_ab":"WA","county":"Lewis","geo_location":{ "type": "Point", "coordinates": [-122.1861, 46.7096] }},
{"zip_code":"98522","country":"US","city":"Adna","state":"Washington","state_ab":"WA","county":"Lewis","geo_location":{ "type": "Point", "coordinates": [-123.2984, 46.5713] }},
{"zip_code":"99008","country":"US","city":"Edwall","state":"Washington","state_ab":"WA","county":"Lincoln","geo_location":{ "type": "Point", "coordinates": [-117.9071, 47.5379] }},
{"zip_code":"98548","country":"US","city":"Hoodsport","state":"Washington","state_ab":"WA","county":"Mason","geo_location":{ "type": "Point", "coordinates": [-123.1739, 47.4235] }},
{"zip_code":"98588","country":"US","city":"Tahuya","state":"Washington","state_ab":"WA","county":"Mason","geo_location":{ "type": "Point", "coordinates": [-123.0232, 47.4446] }},
{"zip_code":"98638","country":"US","city":"Naselle","state":"Washington","state_ab":"WA","county":"Pacific","geo_location":{ "type": "Point", "coordinates": [-123.8044, 46.3528] }},
{"zip_code":"99152","country":"US","city":"Metaline","state":"Washington","state_ab":"WA","county":"Pend Oreille","geo_location":{ "type": "Point", "coordinates": [-117.3963, 48.8496] }},
{"zip_code":"98328","country":"US","city":"Eatonville","state":"Washington","state_ab":"WA","county":"Pierce","geo_location":{ "type": "Point", "coordinates": [-122.2696, 46.8708] }},
{"zip_code":"98395","country":"US","city":"Wauna","state":"Washington","state_ab":"WA","county":"Pierce","geo_location":{ "type": "Point", "coordinates": [-122.8328, 47.266] }},
{"zip_code":"98405","country":"US","city":"Tacoma","state":"Washington","state_ab":"WA","county":"Pierce","geo_location":{ "type": "Point", "coordinates": [-122.4643, 47.2484] }},
{"zip_code":"98418","country":"US","city":"Tacoma","state":"Washington","state_ab":"WA","county":"Pierce","geo_location":{ "type": "Point", "coordinates": [-122.4465, 47.2232] }},
{"zip_code":"98445","country":"US","city":"Tacoma","state":"Washington","state_ab":"WA","county":"Pierce","geo_location":{ "type": "Point", "coordinates": [-122.4094, 47.1291] }},
{"zip_code":"98498","country":"US","city":"Lakewood","state":"Washington","state_ab":"WA","county":"Pierce","geo_location":{ "type": "Point", "coordinates": [-122.5485, 47.1591] }},
{"zip_code":"98238","country":"US","city":"Conway","state":"Washington","state_ab":"WA","county":"Skagit","geo_location":{ "type": "Point", "coordinates": [-122.3456, 48.34] }},
{"zip_code":"98252","country":"US","city":"Granite Falls","state":"Washington","state_ab":"WA","county":"Snohomish","geo_location":{ "type": "Point", "coordinates": [-121.9428, 48.079] }},
{"zip_code":"98292","country":"US","city":"Stanwood","state":"Washington","state_ab":"WA","county":"Snohomish","geo_location":{ "type": "Point", "coordinates": [-122.378, 48.2011] }},
{"zip_code":"99022","country":"US","city":"Medical Lake","state":"Washington","state_ab":"WA","county":"Spokane","geo_location":{ "type": "Point", "coordinates": [-117.704, 47.615] }},
{"zip_code":"99202","country":"US","city":"Spokane","state":"Washington","state_ab":"WA","county":"Spokane","geo_location":{ "type": "Point", "coordinates": [-117.381, 47.6547] }},
{"zip_code":"99215","country":"US","city":"Spokane","state":"Washington","state_ab":"WA","county":"Spokane","geo_location":{ "type": "Point", "coordinates": [-117.4317, 47.6536] }},
{"zip_code":"99228","country":"US","city":"Spokane","state":"Washington","state_ab":"WA","county":"Spokane","geo_location":{ "type": "Point", "coordinates": [-117.4317, 47.6536] }},
{"zip_code":"99255","country":"US","city":"Spokane","state":"Washington","state_ab":"WA","county":"Spokane County","geo_location":{ "type": "Point", "coordinates": [-117.424, 47.6581] }},
{"zip_code":"98508","country":"US","city":"Olympia","state":"Washington","state_ab":"WA","county":"Thurston","geo_location":{ "type": "Point", "coordinates": [-122.7024, 46.9781] }},
{"zip_code":"98612","country":"US","city":"Cathlamet","state":"Washington","state_ab":"WA","county":"Wahkiakum","geo_location":{ "type": "Point", "coordinates": [-123.3627, 46.1954] }},
{"zip_code":"98225","country":"US","city":"Bellingham","state":"Washington","state_ab":"WA","county":"Whatcom","geo_location":{ "type": "Point", "coordinates": [-122.4887, 48.749] }},
{"zip_code":"99125","country":"US","city":"Endicott","state":"Washington","state_ab":"WA","county":"Whitman","geo_location":{ "type": "Point", "coordinates": [-117.723, 46.9364] }},
{"zip_code":"99165","country":"US","city":"Pullman","state":"Washington","state_ab":"WA","county":"Whitman","geo_location":{ "type": "Point", "coordinates": [-117.6443, 46.8387] }},
{"zip_code":"98908","country":"US","city":"Yakima","state":"Washington","state_ab":"WA","county":"Yakima","geo_location":{ "type": "Point", "coordinates": [-120.7094, 46.6165] }},
{"zip_code":"98935","country":"US","city":"Mabton","state":"Washington","state_ab":"WA","county":"Yakima","geo_location":{ "type": "Point", "coordinates": [-120.0151, 46.2121] }},
{"zip_code":"98948","country":"US","city":"Toppenish","state":"Washington","state_ab":"WA","county":"Yakima","geo_location":{ "type": "Point", "coordinates": [-120.3305, 46.3751] }},
{"zip_code":"54728","country":"US","city":"Chetek","state":"Wisconsin","state_ab":"WI","county":"Barron","geo_location":{ "type": "Point", "coordinates": [-91.6542, 45.317] }},
{"zip_code":"54805","country":"US","city":"Almena","state":"Wisconsin","state_ab":"WI","county":"Barron","geo_location":{ "type": "Point", "coordinates": [-92.0027, 45.4195] }},
{"zip_code":"54818","country":"US","city":"Brill","state":"Wisconsin","state_ab":"WI","county":"Barron","geo_location":{ "type": "Point", "coordinates": [-91.8482, 45.4234] }},
{"zip_code":"54832","country":"US","city":"Drummond","state":"Wisconsin","state_ab":"WI","county":"Bayfield","geo_location":{ "type": "Point", "coordinates": [-91.2856, 46.3119] }},
{"zip_code":"54162","country":"US","city":"Pulaski","state":"Wisconsin","state_ab":"WI","county":"Brown","geo_location":{ "type": "Point", "coordinates": [-88.2634, 44.6611] }},
{"zip_code":"54302","country":"US","city":"Green Bay","state":"Wisconsin","state_ab":"WI","county":"Brown","geo_location":{ "type": "Point", "coordinates": [-87.9771, 44.5025] }},
{"zip_code":"54755","country":"US","city":"Mondovi","state":"Wisconsin","state_ab":"WI","county":"Buffalo","geo_location":{ "type": "Point", "coordinates": [-91.6807, 44.4877] }},
{"zip_code":"54845","country":"US","city":"Hertel","state":"Wisconsin","state_ab":"WI","county":"Burnett","geo_location":{ "type": "Point", "coordinates": [-92.1404, 45.8076] }},
{"zip_code":"54872","country":"US","city":"Siren","state":"Wisconsin","state_ab":"WI","county":"Burnett","geo_location":{ "type": "Point", "coordinates": [-92.3892, 45.7821] }},
{"zip_code":"54768","country":"US","city":"Stanley","state":"Wisconsin","state_ab":"WI","county":"Chippewa","geo_location":{ "type": "Point", "coordinates": [-90.9389, 44.9689] }},
{"zip_code":"54405","country":"US","city":"Abbotsford","state":"Wisconsin","state_ab":"WI","county":"Clark","geo_location":{ "type": "Point", "coordinates": [-90.2994, 44.9641] }},
{"zip_code":"54498","country":"US","city":"Withee","state":"Wisconsin","state_ab":"WI","county":"Clark","geo_location":{ "type": "Point", "coordinates": [-90.6049, 44.9757] }},
{"zip_code":"53932","country":"US","city":"Fall River","state":"Wisconsin","state_ab":"WI","county":"Columbia","geo_location":{ "type": "Point", "coordinates": [-89.0625, 43.4008] }},
{"zip_code":"53532","country":"US","city":"De Forest","state":"Wisconsin","state_ab":"WI","county":"Dane","geo_location":{ "type": "Point", "coordinates": [-89.3297, 43.2357] }},
{"zip_code":"53558","country":"US","city":"Mc Farland","state":"Wisconsin","state_ab":"WI","county":"Dane","geo_location":{ "type": "Point", "coordinates": [-89.2948, 43.0107] }},
{"zip_code":"53572","country":"US","city":"Mount Horeb","state":"Wisconsin","state_ab":"WI","county":"Dane","geo_location":{ "type": "Point", "coordinates": [-89.7414, 43.002] }},
{"zip_code":"53598","country":"US","city":"Windsor","state":"Wisconsin","state_ab":"WI","county":"Dane","geo_location":{ "type": "Point", "coordinates": [-89.3418, 43.2078] }},
{"zip_code":"53725","country":"US","city":"Madison","state":"Wisconsin","state_ab":"WI","county":"Dane","geo_location":{ "type": "Point", "coordinates": [-89.4239, 43.0696] }},
{"zip_code":"53778","country":"US","city":"Madison","state":"Wisconsin","state_ab":"WI","county":"Dane","geo_location":{ "type": "Point", "coordinates": [-89.4239, 43.0696] }},
{"zip_code":"53792","country":"US","city":"Madison","state":"Wisconsin","state_ab":"WI","county":"Dane","geo_location":{ "type": "Point", "coordinates": [-89.4239, 43.0696] }},
{"zip_code":"54212","country":"US","city":"Fish Creek","state":"Wisconsin","state_ab":"WI","county":"Door","geo_location":{ "type": "Point", "coordinates": [-87.2064, 45.1155] }},
{"zip_code":"54702","country":"US","city":"Eau Claire","state":"Wisconsin","state_ab":"WI","county":"Eau Claire","geo_location":{ "type": "Point", "coordinates": [-91.2859, 44.7266] }},
{"zip_code":"54742","country":"US","city":"Fall Creek","state":"Wisconsin","state_ab":"WI","county":"Eau Claire","geo_location":{ "type": "Point", "coordinates": [-91.2856, 44.7684] }},
{"zip_code":"54935","country":"US","city":"Fond Du Lac","state":"Wisconsin","state_ab":"WI","county":"Fond du Lac","geo_location":{ "type": "Point", "coordinates": [-88.4352, 43.7742] }},
{"zip_code":"53518","country":"US","city":"Blue River","state":"Wisconsin","state_ab":"WI","county":"Grant","geo_location":{ "type": "Point", "coordinates": [-90.5873, 43.2366] }},
{"zip_code":"53802","country":"US","city":"Beetown","state":"Wisconsin","state_ab":"WI","county":"Grant","geo_location":{ "type": "Point", "coordinates": [-90.9364, 42.8736] }},
{"zip_code":"53945","country":"US","city":"Manchester","state":"Wisconsin","state_ab":"WI","county":"Green Lake County","geo_location":{ "type": "Point", "coordinates": [-89.0482, 43.6905] }},
{"zip_code":"53158","country":"US","city":"Pleasant Prairie","state":"Wisconsin","state_ab":"WI","county":"Kenosha","geo_location":{ "type": "Point", "coordinates": [-87.8855, 42.5293] }},
{"zip_code":"54418","country":"US","city":"Bryant","state":"Wisconsin","state_ab":"WI","county":"Langlade","geo_location":{ "type": "Point", "coordinates": [-88.9983, 45.203] }},
{"zip_code":"54445","country":"US","city":"Lily","state":"Wisconsin","state_ab":"WI","county":"Langlade County","geo_location":{ "type": "Point", "coordinates": [-88.8385, 45.3187] }},
{"zip_code":"54485","country":"US","city":"Summit Lake","state":"Wisconsin","state_ab":"WI","county":"Langlade","geo_location":{ "type": "Point", "coordinates": [-89.2179, 45.3965] }},
{"zip_code":"53015","country":"US","city":"Cleveland","state":"Wisconsin","state_ab":"WI","county":"Manitowoc","geo_location":{ "type": "Point", "coordinates": [-87.7673, 43.9217] }},
{"zip_code":"53042","country":"US","city":"Kiel","state":"Wisconsin","state_ab":"WI","county":"Manitowoc","geo_location":{ "type": "Point", "coordinates": [-87.9956, 43.9341] }},
{"zip_code":"54432","country":"US","city":"Galloway","state":"Wisconsin","state_ab":"WI","county":"Marathon","geo_location":{ "type": "Point", "coordinates": [-89.7701, 44.9009] }},
{"zip_code":"54135","country":"US","city":"Keshena","state":"Wisconsin","state_ab":"WI","county":"Menominee","geo_location":{ "type": "Point", "coordinates": [-88.6357, 44.9146] }},
{"zip_code":"53132","country":"US","city":"Franklin","state":"Wisconsin","state_ab":"WI","county":"Milwaukee","geo_location":{ "type": "Point", "coordinates": [-88.0086, 42.9017] }},
{"zip_code":"53172","country":"US","city":"South Milwaukee","state":"Wisconsin","state_ab":"WI","county":"Milwaukee","geo_location":{ "type": "Point", "coordinates": [-87.8646, 42.9105] }},
{"zip_code":"53208","country":"US","city":"Milwaukee","state":"Wisconsin","state_ab":"WI","county":"Milwaukee","geo_location":{ "type": "Point", "coordinates": [-87.9625, 43.0488] }},
{"zip_code":"53222","country":"US","city":"Milwaukee","state":"Wisconsin","state_ab":"WI","county":"Milwaukee","geo_location":{ "type": "Point", "coordinates": [-88.0269, 43.0828] }},
{"zip_code":"53235","country":"US","city":"Saint Francis","state":"Wisconsin","state_ab":"WI","county":"Milwaukee","geo_location":{ "type": "Point", "coordinates": [-87.8687, 42.9731] }},
{"zip_code":"53288","country":"US","city":"Milwaukee","state":"Wisconsin","state_ab":"WI","county":"Milwaukee","geo_location":{ "type": "Point", "coordinates": [-87.9098, 43.0406] }},
{"zip_code":"54638","country":"US","city":"Kendall","state":"Wisconsin","state_ab":"WI","county":"Monroe","geo_location":{ "type": "Point", "coordinates": [-90.4107, 43.8161] }},
{"zip_code":"54175","country":"US","city":"Townsend","state":"Wisconsin","state_ab":"WI","county":"Oconto","geo_location":{ "type": "Point", "coordinates": [-88.6107, 45.3148] }},
{"zip_code":"54548","country":"US","city":"Minocqua","state":"Wisconsin","state_ab":"WI","county":"Oneida","geo_location":{ "type": "Point", "coordinates": [-89.758, 45.8719] }},
{"zip_code":"54562","country":"US","city":"Three Lakes","state":"Wisconsin","state_ab":"WI","county":"Oneida","geo_location":{ "type": "Point", "coordinates": [-89.1328, 45.8046] }},
{"zip_code":"54922","country":"US","city":"Bear Creek","state":"Wisconsin","state_ab":"WI","county":"Outagamie","geo_location":{ "type": "Point", "coordinates": [-88.7404, 44.5348] }},
{"zip_code":"54005","country":"US","city":"Clear Lake","state":"Wisconsin","state_ab":"WI","county":"Polk","geo_location":{ "type": "Point", "coordinates": [-92.2749, 45.2365] }},
{"zip_code":"54858","country":"US","city":"Milltown","state":"Wisconsin","state_ab":"WI","county":"Polk","geo_location":{ "type": "Point", "coordinates": [-92.5017, 45.5271] }},
{"zip_code":"54458","country":"US","city":"Nelsonville","state":"Wisconsin","state_ab":"WI","county":"Portage","geo_location":{ "type": "Point", "coordinates": [-89.3109, 44.4902] }},
{"zip_code":"53105","country":"US","city":"Burlington","state":"Wisconsin","state_ab":"WI","county":"Racine","geo_location":{ "type": "Point", "coordinates": [-88.2749, 42.666] }},
{"zip_code":"53185","country":"US","city":"Waterford","state":"Wisconsin","state_ab":"WI","county":"Racine","geo_location":{ "type": "Point", "coordinates": [-88.1974, 42.7632] }},
{"zip_code":"53402","country":"US","city":"Racine","state":"Wisconsin","state_ab":"WI","county":"Racine","geo_location":{ "type": "Point", "coordinates": [-87.796, 42.7726] }},
{"zip_code":"53505","country":"US","city":"Avalon","state":"Wisconsin","state_ab":"WI","county":"Rock","geo_location":{ "type": "Point", "coordinates": [-88.8307, 42.6593] }},
{"zip_code":"53545","country":"US","city":"Janesville","state":"Wisconsin","state_ab":"WI","county":"Rock","geo_location":{ "type": "Point", "coordinates": [-89.0405, 42.7355] }},
{"zip_code":"53958","country":"US","city":"Reedsburg","state":"Wisconsin","state_ab":"WI","county":"Sauk","geo_location":{ "type": "Point", "coordinates": [-89.9559, 43.3938] }},
{"zip_code":"54948","country":"US","city":"Leopolis","state":"Wisconsin","state_ab":"WI","county":"Shawano","geo_location":{ "type": "Point", "coordinates": [-88.8722, 44.7812] }},
{"zip_code":"53082","country":"US","city":"Sheboygan","state":"Wisconsin","state_ab":"WI","county":"Sheboygan","geo_location":{ "type": "Point", "coordinates": [-87.6187, 43.7183] }},
{"zip_code":"54612","country":"US","city":"Arcadia","state":"Wisconsin","state_ab":"WI","county":"Trempealeau","geo_location":{ "type": "Point", "coordinates": [-91.4805, 44.2539] }},
{"zip_code":"54625","country":"US","city":"Dodge","state":"Wisconsin","state_ab":"WI","county":"Trempealeau","geo_location":{ "type": "Point", "coordinates": [-91.5204, 44.1431] }},
{"zip_code":"54652","country":"US","city":"Readstown","state":"Wisconsin","state_ab":"WI","county":"Vernon","geo_location":{ "type": "Point", "coordinates": [-90.7579, 43.4508] }},
{"zip_code":"54665","country":"US","city":"Viroqua","state":"Wisconsin","state_ab":"WI","county":"Vernon","geo_location":{ "type": "Point", "coordinates": [-90.8939, 43.5442] }},
{"zip_code":"53585","country":"US","city":"Sharon","state":"Wisconsin","state_ab":"WI","county":"Walworth","geo_location":{ "type": "Point", "coordinates": [-88.7265, 42.5194] }},
{"zip_code":"53002","country":"US","city":"Allenton","state":"Wisconsin","state_ab":"WI","county":"Washington","geo_location":{ "type": "Point", "coordinates": [-88.3539, 43.4681] }},
{"zip_code":"53095","country":"US","city":"West Bend","state":"Wisconsin","state_ab":"WI","county":"Washington","geo_location":{ "type": "Point", "coordinates": [-88.1845, 43.4224] }},
{"zip_code":"53118","country":"US","city":"Dousman","state":"Wisconsin","state_ab":"WI","county":"Waukesha","geo_location":{ "type": "Point", "coordinates": [-88.4568, 42.9851] }},
{"zip_code":"54962","country":"US","city":"Ogdensburg","state":"Wisconsin","state_ab":"WI","county":"Waupaca","geo_location":{ "type": "Point", "coordinates": [-88.9932, 44.4268] }},
{"zip_code":"54975","country":"US","city":"Royalton","state":"Wisconsin","state_ab":"WI","county":"Waupaca","geo_location":{ "type": "Point", "coordinates": [-88.915, 44.4619] }},
{"zip_code":"54472","country":"US","city":"Marshfield","state":"Wisconsin","state_ab":"WI","county":"Wood","geo_location":{ "type": "Point", "coordinates": [-90.0214, 44.4666] }},
{"zip_code":"26275","country":"US","city":"Junior","state":"West Virginia","state_ab":"WV","county":"Barbour","geo_location":{ "type": "Point", "coordinates": [-79.9494, 38.9784] }},
{"zip_code":"25142","country":"US","city":"Nellis","state":"West Virginia","state_ab":"WV","county":"Boone","geo_location":{ "type": "Point", "coordinates": [-81.7321, 38.153] }},
{"zip_code":"25205","country":"US","city":"Uneeda","state":"West Virginia","state_ab":"WV","county":"Boone","geo_location":{ "type": "Point", "coordinates": [-81.8053, 38.0428] }},
{"zip_code":"25708","country":"US","city":"Huntington","state":"West Virginia","state_ab":"WV","county":"Cabell","geo_location":{ "type": "Point", "coordinates": [-82.2774, 38.4134] }},
{"zip_code":"25722","country":"US","city":"Huntington","state":"West Virginia","state_ab":"WV","county":"Cabell","geo_location":{ "type": "Point", "coordinates": [-82.2774, 38.4134] }},
{"zip_code":"25775","country":"US","city":"Huntington","state":"West Virginia","state_ab":"WV","county":"Cabell","geo_location":{ "type": "Point", "coordinates": [-82.2774, 38.4134] }},
{"zip_code":"25285","country":"US","city":"Wallback","state":"West Virginia","state_ab":"WV","county":"Clay","geo_location":{ "type": "Point", "coordinates": [-81.1114, 38.5432] }},
{"zip_code":"25115","country":"US","city":"Kanawha Falls","state":"West Virginia","state_ab":"WV","county":"Fayette","geo_location":{ "type": "Point", "coordinates": [-81.0648, 38.0413] }},
{"zip_code":"25812","country":"US","city":"Ansted","state":"West Virginia","state_ab":"WV","county":"Fayette","geo_location":{ "type": "Point", "coordinates": [-81.0955, 38.1369] }},
{"zip_code":"25942","country":"US","city":"Winona","state":"West Virginia","state_ab":"WV","county":"Fayette","geo_location":{ "type": "Point", "coordinates": [-81.0648, 38.0413] }},
{"zip_code":"25258","country":"US","city":"Lockney","state":"West Virginia","state_ab":"WV","county":"Gilmer","geo_location":{ "type": "Point", "coordinates": [-80.8313, 38.9136] }},
{"zip_code":"26855","country":"US","city":"Cabins","state":"West Virginia","state_ab":"WV","county":"Grant","geo_location":{ "type": "Point", "coordinates": [-79.2783, 38.9512] }},
{"zip_code":"24925","country":"US","city":"Caldwell","state":"West Virginia","state_ab":"WV","county":"Greenbrier","geo_location":{ "type": "Point", "coordinates": [-80.3773, 37.7735] }},
{"zip_code":"24938","country":"US","city":"Frankford","state":"West Virginia","state_ab":"WV","county":"Greenbrier","geo_location":{ "type": "Point", "coordinates": [-80.3353, 37.9154] }},
{"zip_code":"26765","country":"US","city":"Three Churches","state":"West Virginia","state_ab":"WV","county":"Hampshire County","geo_location":{ "type": "Point", "coordinates": [-78.6427, 39.3724] }},
{"zip_code":"25245","country":"US","city":"Given","state":"West Virginia","state_ab":"WV","county":"Jackson","geo_location":{ "type": "Point", "coordinates": [-81.7223, 38.707] }},
{"zip_code":"25272","country":"US","city":"Rock Castle","state":"West Virginia","state_ab":"WV","county":"Jackson County","geo_location":{ "type": "Point", "coordinates": [-81.7711, 38.7081] }},
{"zip_code":"25425","country":"US","city":"Harpers Ferry","state":"West Virginia","state_ab":"WV","county":"Jefferson","geo_location":{ "type": "Point", "coordinates": [-77.7694, 39.3153] }},
{"zip_code":"25438","country":"US","city":"Ranson","state":"West Virginia","state_ab":"WV","county":"Jefferson","geo_location":{ "type": "Point", "coordinates": [-77.8606, 39.2995] }},
{"zip_code":"25025","country":"US","city":"Blount","state":"West Virginia","state_ab":"WV","county":"Kanawha","geo_location":{ "type": "Point", "coordinates": [-81.4052, 38.3121] }},
{"zip_code":"25052","country":"US","city":"Crown Hill","state":"West Virginia","state_ab":"WV","county":"Kanawha County","geo_location":{ "type": "Point", "coordinates": [-81.4137, 38.1999] }},
{"zip_code":"25102","country":"US","city":"Handley","state":"West Virginia","state_ab":"WV","county":"Kanawha","geo_location":{ "type": "Point", "coordinates": [-81.3657, 38.1879] }},
{"zip_code":"25182","country":"US","city":"Sharon","state":"West Virginia","state_ab":"WV","county":"Kanawha","geo_location":{ "type": "Point", "coordinates": [-81.5547, 38.2968] }},
{"zip_code":"25322","country":"US","city":"Charleston","state":"West Virginia","state_ab":"WV","county":"Kanawha","geo_location":{ "type": "Point", "coordinates": [-81.5603, 38.5347] }},
{"zip_code":"25335","country":"US","city":"Charleston","state":"West Virginia","state_ab":"WV","county":"Kanawha","geo_location":{ "type": "Point", "coordinates": [-81.5547, 38.2968] }},
{"zip_code":"25362","country":"US","city":"Charleston","state":"West Virginia","state_ab":"WV","county":"Kanawha","geo_location":{ "type": "Point", "coordinates": [-81.5547, 38.2968] }},
{"zip_code":"25375","country":"US","city":"Charleston","state":"West Virginia","state_ab":"WV","county":"Kanawha","geo_location":{ "type": "Point", "coordinates": [-81.5547, 38.2968] }},
{"zip_code":"26338","country":"US","city":"Camden","state":"West Virginia","state_ab":"WV","county":"Lewis","geo_location":{ "type": "Point", "coordinates": [-80.5915, 39.0893] }},
{"zip_code":"26378","country":"US","city":"Jane Lew","state":"West Virginia","state_ab":"WV","county":"Lewis","geo_location":{ "type": "Point", "coordinates": [-80.4311, 39.11] }},
{"zip_code":"25568","country":"US","city":"Sweetland","state":"West Virginia","state_ab":"WV","county":"Lincoln County","geo_location":{ "type": "Point", "coordinates": [-82.0345, 38.2629] }},
{"zip_code":"25632","country":"US","city":"Lyburn","state":"West Virginia","state_ab":"WV","county":"Logan","geo_location":{ "type": "Point", "coordinates": [-81.9217, 37.7656] }},
{"zip_code":"25645","country":"US","city":"Stirrat","state":"West Virginia","state_ab":"WV","county":"Logan","geo_location":{ "type": "Point", "coordinates": [-81.9024, 37.8332] }},
{"zip_code":"24808","country":"US","city":"Anawalt","state":"West Virginia","state_ab":"WV","county":"McDowell","geo_location":{ "type": "Point", "coordinates": [-81.4151, 37.3362] }},
{"zip_code":"24848","country":"US","city":"Jenkinjones","state":"West Virginia","state_ab":"WV","county":"McDowell","geo_location":{ "type": "Point", "coordinates": [-81.6539, 37.3752] }},
{"zip_code":"24862","country":"US","city":"Mohawk","state":"West Virginia","state_ab":"WV","county":"McDowell","geo_location":{ "type": "Point", "coordinates": [-81.9142, 37.4879] }},
{"zip_code":"24888","country":"US","city":"Thorpe","state":"West Virginia","state_ab":"WV","county":"McDowell","geo_location":{ "type": "Point", "coordinates": [-81.6539, 37.3752] }},
{"zip_code":"26572","country":"US","city":"Four States","state":"West Virginia","state_ab":"WV","county":"Marion","geo_location":{ "type": "Point", "coordinates": [-80.2185, 39.5143] }},
{"zip_code":"26585","country":"US","city":"Metz","state":"West Virginia","state_ab":"WV","county":"Marion","geo_location":{ "type": "Point", "coordinates": [-80.4168, 39.6078] }},
{"zip_code":"26055","country":"US","city":"Proctor","state":"West Virginia","state_ab":"WV","county":"Marshall","geo_location":{ "type": "Point", "coordinates": [-80.7618, 39.7207] }},
{"zip_code":"25502","country":"US","city":"Apple Grove","state":"West Virginia","state_ab":"WV","county":"Mason","geo_location":{ "type": "Point", "coordinates": [-82.1068, 38.6575] }},
{"zip_code":"25515","country":"US","city":"Gallipolis Ferry","state":"West Virginia","state_ab":"WV","county":"Mason","geo_location":{ "type": "Point", "coordinates": [-82.1535, 38.765] }},
{"zip_code":"24732","country":"US","city":"Kellysville","state":"West Virginia","state_ab":"WV","county":"Mercer","geo_location":{ "type": "Point", "coordinates": [-81.1058, 37.4164] }},
{"zip_code":"25672","country":"US","city":"Edgarton","state":"West Virginia","state_ab":"WV","county":"Mingo","geo_location":{ "type": "Point", "coordinates": [-82.108, 37.7431] }},
{"zip_code":"25685","country":"US","city":"Naugatuck","state":"West Virginia","state_ab":"WV","county":"Mingo","geo_location":{ "type": "Point", "coordinates": [-82.108, 37.7431] }},
{"zip_code":"26505","country":"US","city":"Morgantown","state":"West Virginia","state_ab":"WV","county":"Monongalia","geo_location":{ "type": "Point", "coordinates": [-79.944, 39.6505] }},
{"zip_code":"26662","country":"US","city":"Canvas","state":"West Virginia","state_ab":"WV","county":"Nicholas","geo_location":{ "type": "Point", "coordinates": [-80.7446, 38.2624] }},
{"zip_code":"26675","country":"US","city":"Keslers Cross Lanes","state":"West Virginia","state_ab":"WV","county":"Nicholas","geo_location":{ "type": "Point", "coordinates": [-80.8342, 38.3184] }},
{"zip_code":"26802","country":"US","city":"Brandywine","state":"West Virginia","state_ab":"WV","county":"Pendleton","geo_location":{ "type": "Point", "coordinates": [-79.2096, 38.6357] }},
{"zip_code":"26815","country":"US","city":"Sugar Grove","state":"West Virginia","state_ab":"WV","county":"Pendleton","geo_location":{ "type": "Point", "coordinates": [-79.3593, 38.489] }},
{"zip_code":"25168","country":"US","city":"Red House","state":"West Virginia","state_ab":"WV","county":"Putnam","geo_location":{ "type": "Point", "coordinates": [-81.9045, 38.5463] }},
{"zip_code":"25825","country":"US","city":"Cool Ridge","state":"West Virginia","state_ab":"WV","county":"Raleigh","geo_location":{ "type": "Point", "coordinates": [-81.0933, 37.6655] }},
{"zip_code":"25865","country":"US","city":"Lester","state":"West Virginia","state_ab":"WV","county":"Raleigh","geo_location":{ "type": "Point", "coordinates": [-81.3095, 37.7265] }},
{"zip_code":"25878","country":"US","city":"Midway","state":"West Virginia","state_ab":"WV","county":"Raleigh","geo_location":{ "type": "Point", "coordinates": [-81.24, 37.7171] }},
{"zip_code":"25902","country":"US","city":"Odd","state":"West Virginia","state_ab":"WV","county":"Raleigh","geo_location":{ "type": "Point", "coordinates": [-81.1872, 37.593] }},
{"zip_code":"25915","country":"US","city":"Rhodell","state":"West Virginia","state_ab":"WV","county":"Raleigh","geo_location":{ "type": "Point", "coordinates": [-81.2749, 37.6254] }},
{"zip_code":"26145","country":"US","city":"Five Forks","state":"West Virginia","state_ab":"WV","county":"Ritchie County","geo_location":{ "type": "Point", "coordinates": [-81.0847, 38.9751] }},
{"zip_code":"26325","country":"US","city":"Auburn","state":"West Virginia","state_ab":"WV","county":"Ritchie","geo_location":{ "type": "Point", "coordinates": [-80.8837, 39.0864] }},
{"zip_code":"26415","country":"US","city":"Pennsboro","state":"West Virginia","state_ab":"WV","county":"Ritchie","geo_location":{ "type": "Point", "coordinates": [-81.0019, 39.2791] }},
{"zip_code":"25555","country":"US","city":"Prichard","state":"West Virginia","state_ab":"WV","county":"Wayne","geo_location":{ "type": "Point", "coordinates": [-82.5753, 38.23] }},
{"zip_code":"26208","country":"US","city":"Camden On Gauley","state":"West Virginia","state_ab":"WV","county":"Webster","geo_location":{ "type": "Point", "coordinates": [-80.5907, 38.3871] }},
{"zip_code":"26222","country":"US","city":"Hacker Valley","state":"West Virginia","state_ab":"WV","county":"Webster","geo_location":{ "type": "Point", "coordinates": [-80.4322, 38.645] }},
{"zip_code":"26288","country":"US","city":"Webster Springs","state":"West Virginia","state_ab":"WV","county":"Webster","geo_location":{ "type": "Point", "coordinates": [-80.4476, 38.4832] }},
{"zip_code":"26105","country":"US","city":"Vienna","state":"West Virginia","state_ab":"WV","county":"Wood","geo_location":{ "type": "Point", "coordinates": [-81.5411, 39.3251] }},
{"zip_code":"26185","country":"US","city":"Wick","state":"West Virginia","state_ab":"WV","county":"Wood County","geo_location":{ "type": "Point", "coordinates": [-80.968, 39.4217] }},
{"zip_code":"24822","country":"US","city":"Clear Fork","state":"West Virginia","state_ab":"WV","county":"Wyoming","geo_location":{ "type": "Point", "coordinates": [-81.54, 37.6033] }},
{"zip_code":"25928","country":"US","city":"Stephenson","state":"West Virginia","state_ab":"WV","county":"Wyoming","geo_location":{ "type": "Point", "coordinates": [-81.3339, 37.5798] }},
{"zip_code":"82422","country":"US","city":"Emblem","state":"Wyoming","state_ab":"WY","county":"Big Horn","geo_location":{ "type": "Point", "coordinates": [-107.8835, 44.5836] }},
{"zip_code":"82718","country":"US","city":"Gillette","state":"Wyoming","state_ab":"WY","county":"Campbell","geo_location":{ "type": "Point", "coordinates": [-105.5492, 43.9282] }},
{"zip_code":"82732","country":"US","city":"Wright","state":"Wyoming","state_ab":"WY","county":"Campbell","geo_location":{ "type": "Point", "coordinates": [-105.5201, 43.7614] }},
{"zip_code":"82332","country":"US","city":"Savery","state":"Wyoming","state_ab":"WY","county":"Carbon","geo_location":{ "type": "Point", "coordinates": [-107.4234, 41.0395] }},
{"zip_code":"82615","country":"US","city":"Shirley Basin","state":"Wyoming","state_ab":"WY","county":"Carbon","geo_location":{ "type": "Point", "coordinates": [-106.9992, 41.7169] }},
{"zip_code":"82512","country":"US","city":"Crowheart","state":"Wyoming","state_ab":"WY","county":"Fremont","geo_location":{ "type": "Point", "coordinates": [-109.296, 43.3716] }},
{"zip_code":"82642","country":"US","city":"Lysite","state":"Wyoming","state_ab":"WY","county":"Fremont","geo_location":{ "type": "Point", "coordinates": [-107.6488, 43.3284] }},
{"zip_code":"82008","country":"US","city":"Cheyenne","state":"Wyoming","state_ab":"WY","county":"Laramie","geo_location":{ "type": "Point", "coordinates": [-104.6664, 41.3274] }},
{"zip_code":"83128","country":"US","city":"Alpine","state":"Wyoming","state_ab":"WY","county":"Lincoln","geo_location":{ "type": "Point", "coordinates": [-110.8845, 43.0303] }},
{"zip_code":"82602","country":"US","city":"Casper","state":"Wyoming","state_ab":"WY","county":"Natrona","geo_location":{ "type": "Point", "coordinates": [-106.357, 42.8896] }},
{"zip_code":"82228","country":"US","city":"Node","state":"Wyoming","state_ab":"WY","county":"Niobrara County","geo_location":{ "type": "Point", "coordinates": [-104.2963, 42.7478] }},
{"zip_code":"82242","country":"US","city":"Van Tassell","state":"Wyoming","state_ab":"WY","county":"Niobrara","geo_location":{ "type": "Point", "coordinates": [-104.1408, 42.7033] }},
{"zip_code":"82435","country":"US","city":"Powell","state":"Wyoming","state_ab":"WY","county":"Park","geo_location":{ "type": "Point", "coordinates": [-108.7773, 44.7561] }},
{"zip_code":"82215","country":"US","city":"Hartville","state":"Wyoming","state_ab":"WY","county":"Platte","geo_location":{ "type": "Point", "coordinates": [-104.7296, 42.3334] }},
{"zip_code":"82835","country":"US","city":"Clearmont","state":"Wyoming","state_ab":"WY","county":"Sheridan","geo_location":{ "type": "Point", "coordinates": [-106.4581, 44.661] }},
{"zip_code":"82925","country":"US","city":"Cora","state":"Wyoming","state_ab":"WY","county":"Sublette","geo_location":{ "type": "Point", "coordinates": [-109.9154, 43.1399] }},
{"zip_code":"83115","country":"US","city":"Daniel","state":"Wyoming","state_ab":"WY","county":"Sublette","geo_location":{ "type": "Point", "coordinates": [-110.1336, 42.9176] }},
{"zip_code":"82938","country":"US","city":"Mc Kinnon","state":"Wyoming","state_ab":"WY","county":"Sweetwater","geo_location":{ "type": "Point", "coordinates": [-109.8745, 41.0409] }},
{"zip_code":"83012","country":"US","city":"Moose","state":"Wyoming","state_ab":"WY","county":"Teton","geo_location":{ "type": "Point", "coordinates": [-110.742, 43.715] }},
{"zip_code":"83025","country":"US","city":"Teton Village","state":"Wyoming","state_ab":"WY","county":"Teton","geo_location":{ "type": "Point", "coordinates": [-110.8314, 43.5924] }},
{"zip_code":"51579","country":"US","city":"Woodbine","state":"Iowa","state_ab":"IA","county":"Harrison","geo_location":{ "type": "Point", "coordinates": [-95.7008, 41.7373] }},
{"zip_code":"52659","country":"US","city":"Winfield","state":"Iowa","state_ab":"IA","county":"Henry","geo_location":{ "type": "Point", "coordinates": [-91.4379, 41.1257] }},
{"zip_code":"52220","country":"US","city":"Conroy","state":"Iowa","state_ab":"IA","county":"Iowa","geo_location":{ "type": "Point", "coordinates": [-92.0102, 41.7354] }},
{"zip_code":"52309","country":"US","city":"Monmouth","state":"Iowa","state_ab":"IA","county":"Jackson","geo_location":{ "type": "Point", "coordinates": [-90.8786, 42.0772] }},
{"zip_code":"52556","country":"US","city":"Fairfield","state":"Iowa","state_ab":"IA","county":"Jefferson","geo_location":{ "type": "Point", "coordinates": [-91.9576, 41.0039] }},
{"zip_code":"52246","country":"US","city":"Iowa City","state":"Iowa","state_ab":"IA","county":"Johnson","geo_location":{ "type": "Point", "coordinates": [-91.5669, 41.6438] }},
{"zip_code":"52310","country":"US","city":"Monticello","state":"Iowa","state_ab":"IA","county":"Jones","geo_location":{ "type": "Point", "coordinates": [-91.1989, 42.2326] }},
{"zip_code":"52323","country":"US","city":"Oxford Junction","state":"Iowa","state_ab":"IA","county":"Jones","geo_location":{ "type": "Point", "coordinates": [-90.9543, 41.9854] }},
{"zip_code":"50136","country":"US","city":"Keswick","state":"Iowa","state_ab":"IA","county":"Keokuk","geo_location":{ "type": "Point", "coordinates": [-92.2395, 41.4613] }},
{"zip_code":"50590","country":"US","city":"Swea City","state":"Iowa","state_ab":"IA","county":"Kossuth","geo_location":{ "type": "Point", "coordinates": [-94.3193, 43.4022] }},
{"zip_code":"52619","country":"US","city":"Argyle","state":"Iowa","state_ab":"IA","county":"Lee","geo_location":{ "type": "Point", "coordinates": [-91.5639, 40.5657] }},
{"zip_code":"52219","country":"US","city":"Prairieburg","state":"Iowa","state_ab":"IA","county":"Linn","geo_location":{ "type": "Point", "coordinates": [-91.3954, 42.231] }},
{"zip_code":"52233","country":"US","city":"Hiawatha","state":"Iowa","state_ab":"IA","county":"Linn","geo_location":{ "type": "Point", "coordinates": [-91.677, 42.0425] }},
{"zip_code":"52336","country":"US","city":"Springville","state":"Iowa","state_ab":"IA","county":"Linn","geo_location":{ "type": "Point", "coordinates": [-91.4394, 42.0607] }},
{"zip_code":"52350","country":"US","city":"Viola","state":"Iowa","state_ab":"IA","county":"Linn","geo_location":{ "type": "Point", "coordinates": [-91.385, 42.0912] }},
{"zip_code":"52646","country":"US","city":"Oakville","state":"Iowa","state_ab":"IA","county":"Louisa","geo_location":{ "type": "Point", "coordinates": [-91.0439, 41.1003] }},
{"zip_code":"51230","country":"US","city":"Alvord","state":"Iowa","state_ab":"IA","county":"Lyon","geo_location":{ "type": "Point", "coordinates": [-96.291, 43.3201] }},
{"zip_code":"51243","country":"US","city":"Little Rock","state":"Iowa","state_ab":"IA","county":"Lyon","geo_location":{ "type": "Point", "coordinates": [-95.8926, 43.4496] }},
{"zip_code":"50033","country":"US","city":"Bevington","state":"Iowa","state_ab":"IA","county":"Madison","geo_location":{ "type": "Point", "coordinates": [-93.7928, 41.363] }},
{"zip_code":"50240","country":"US","city":"Saint Charles","state":"Iowa","state_ab":"IA","county":"Madison","geo_location":{ "type": "Point", "coordinates": [-93.8242, 41.2924] }},
{"zip_code":"50253","country":"US","city":"Taintor","state":"Iowa","state_ab":"IA","county":"Mahaska County","geo_location":{ "type": "Point", "coordinates": [-92.7382, 41.5011] }},
{"zip_code":"52543","country":"US","city":"Cedar","state":"Iowa","state_ab":"IA","county":"Mahaska","geo_location":{ "type": "Point", "coordinates": [-92.509, 41.2121] }},
{"zip_code":"50163","country":"US","city":"Melcher","state":"Iowa","state_ab":"IA","county":"Marion","geo_location":{ "type": "Point", "coordinates": [-93.1732, 41.2422] }},
{"zip_code":"50239","country":"US","city":"Saint Anthony","state":"Iowa","state_ab":"IA","county":"Marshall","geo_location":{ "type": "Point", "coordinates": [-93.1824, 42.152] }},
{"zip_code":"51540","country":"US","city":"Hastings","state":"Iowa","state_ab":"IA","county":"Mills","geo_location":{ "type": "Point", "coordinates": [-95.5008, 41.0132] }},
{"zip_code":"50460","country":"US","city":"Orchard","state":"Iowa","state_ab":"IA","county":"Mitchell","geo_location":{ "type": "Point", "coordinates": [-92.72, 43.2355] }},
{"zip_code":"51010","country":"US","city":"Castana","state":"Iowa","state_ab":"IA","county":"Monona","geo_location":{ "type": "Point", "coordinates": [-95.9431, 42.1054] }},
{"zip_code":"51063","country":"US","city":"Whiting","state":"Iowa","state_ab":"IA","county":"Monona","geo_location":{ "type": "Point", "coordinates": [-96.1822, 42.1522] }},
{"zip_code":"50150","country":"US","city":"Lovilia","state":"Iowa","state_ab":"IA","county":"Monroe","geo_location":{ "type": "Point", "coordinates": [-92.9293, 41.1272] }},
{"zip_code":"52569","country":"US","city":"Melrose","state":"Iowa","state_ab":"IA","county":"Monroe","geo_location":{ "type": "Point", "coordinates": [-93.0145, 40.9665] }},
{"zip_code":"51566","country":"US","city":"Red Oak","state":"Iowa","state_ab":"IA","county":"Montgomery","geo_location":{ "type": "Point", "coordinates": [-95.2269, 41.0079] }},
{"zip_code":"52749","country":"US","city":"Fruitland","state":"Iowa","state_ab":"IA","county":"Muscatine","geo_location":{ "type": "Point", "coordinates": [-91.1237, 41.3486] }},
{"zip_code":"52776","country":"US","city":"West Liberty","state":"Iowa","state_ab":"IA","county":"Muscatine","geo_location":{ "type": "Point", "coordinates": [-91.2668, 41.5701] }},
{"zip_code":"51009","country":"US","city":"Calumet","state":"Iowa","state_ab":"IA","county":"O'Brien","geo_location":{ "type": "Point", "coordinates": [-95.5515, 42.9444] }},
{"zip_code":"51346","country":"US","city":"Hartley","state":"Iowa","state_ab":"IA","county":"O'Brien","geo_location":{ "type": "Point", "coordinates": [-95.4817, 43.18] }},
{"zip_code":"51603","country":"US","city":"Shenandoah","state":"Iowa","state_ab":"IA","county":"Page","geo_location":{ "type": "Point", "coordinates": [-95.1493, 40.7383] }},
{"zip_code":"51630","country":"US","city":"Blanchard","state":"Iowa","state_ab":"IA","county":"Page","geo_location":{ "type": "Point", "coordinates": [-95.2054, 40.6122] }},
{"zip_code":"51656","country":"US","city":"Yorktown","state":"Iowa","state_ab":"IA","county":"Page","geo_location":{ "type": "Point", "coordinates": [-95.1562, 40.7374] }},
{"zip_code":"50536","country":"US","city":"Emmetsburg","state":"Iowa","state_ab":"IA","county":"Palo Alto","geo_location":{ "type": "Point", "coordinates": [-94.6825, 43.1082] }},
{"zip_code":"51050","country":"US","city":"Remsen","state":"Iowa","state_ab":"IA","county":"Plymouth","geo_location":{ "type": "Point", "coordinates": [-95.9544, 42.8149] }},
{"zip_code":"50073","country":"US","city":"Elkhart","state":"Iowa","state_ab":"IA","county":"Polk","geo_location":{ "type": "Point", "coordinates": [-93.4855, 41.8114] }},
{"zip_code":"50226","country":"US","city":"Polk City","state":"Iowa","state_ab":"IA","county":"Polk","geo_location":{ "type": "Point", "coordinates": [-93.6893, 41.7549] }},
{"zip_code":"50266","country":"US","city":"West Des Moines","state":"Iowa","state_ab":"IA","county":"Polk","geo_location":{ "type": "Point", "coordinates": [-93.7994, 41.5695] }},
{"zip_code":"50303","country":"US","city":"Des Moines","state":"Iowa","state_ab":"IA","county":"Polk","geo_location":{ "type": "Point", "coordinates": [-93.5722, 41.6727] }},
{"zip_code":"50316","country":"US","city":"Des Moines","state":"Iowa","state_ab":"IA","county":"Polk","geo_location":{ "type": "Point", "coordinates": [-93.6, 41.6092] }},
{"zip_code":"50329","country":"US","city":"Des Moines","state":"Iowa","state_ab":"IA","county":"Polk","geo_location":{ "type": "Point", "coordinates": [-93.5722, 41.6727] }},
{"zip_code":"50330","country":"US","city":"Des Moines","state":"Iowa","state_ab":"IA","county":"Polk","geo_location":{ "type": "Point", "coordinates": [-93.5722, 41.6727] }},
{"zip_code":"50369","country":"US","city":"Des Moines","state":"Iowa","state_ab":"IA","county":"Polk","geo_location":{ "type": "Point", "coordinates": [-93.5722, 41.6727] }},
{"zip_code":"50396","country":"US","city":"Des Moines","state":"Iowa","state_ab":"IA","county":"Polk","geo_location":{ "type": "Point", "coordinates": [-93.5722, 41.6727] }},
{"zip_code":"50936","country":"US","city":"Des Moines","state":"Iowa","state_ab":"IA","county":"Polk","geo_location":{ "type": "Point", "coordinates": [-93.5722, 41.6727] }},
{"zip_code":"50950","country":"US","city":"Des Moines","state":"Iowa","state_ab":"IA","county":"Polk","geo_location":{ "type": "Point", "coordinates": [-93.5722, 41.6727] }},
{"zip_code":"51526","country":"US","city":"Crescent","state":"Iowa","state_ab":"IA","county":"Pottawattamie","geo_location":{ "type": "Point", "coordinates": [-95.8276, 41.3644] }},
{"zip_code":"51553","country":"US","city":"Minden","state":"Iowa","state_ab":"IA","county":"Pottawattamie","geo_location":{ "type": "Point", "coordinates": [-95.5519, 41.4654] }},
{"zip_code":"51593","country":"US","city":"Harlan","state":"Iowa","state_ab":"IA","county":"Pottawattamie","geo_location":{ "type": "Point", "coordinates": [-95.5872, 41.3329] }},
{"zip_code":"50860","country":"US","city":"Redding","state":"Iowa","state_ab":"IA","county":"Ringgold","geo_location":{ "type": "Point", "coordinates": [-94.3595, 40.6053] }},
{"zip_code":"51450","country":"US","city":"Lake View","state":"Iowa","state_ab":"IA","county":"Sac","geo_location":{ "type": "Point", "coordinates": [-95.0486, 42.3154] }},
{"zip_code":"52800","country":"US","city":"Davenport","state":"Iowa","state_ab":"IA","county":"Scott County","geo_location":{ "type": "Point", "coordinates": [-90.5314, 41.5628] }},
{"zip_code":"51023","country":"US","city":"Hawarden","state":"Iowa","state_ab":"IA","county":"Sioux","geo_location":{ "type": "Point", "coordinates": [-96.473, 43.0013] }},
{"zip_code":"51036","country":"US","city":"Maurice","state":"Iowa","state_ab":"IA","county":"Sioux","geo_location":{ "type": "Point", "coordinates": [-96.1655, 42.9626] }},
{"zip_code":"50046","country":"US","city":"Cambridge","state":"Iowa","state_ab":"IA","county":"Story","geo_location":{ "type": "Point", "coordinates": [-93.5305, 41.9025] }},
{"zip_code":"50833","country":"US","city":"Bedford","state":"Iowa","state_ab":"IA","county":"Taylor","geo_location":{ "type": "Point", "coordinates": [-94.7324, 40.6683] }},
{"zip_code":"50149","country":"US","city":"Lorimor","state":"Iowa","state_ab":"IA","county":"Union","geo_location":{ "type": "Point", "coordinates": [-94.0639, 41.1233] }},
{"zip_code":"52570","country":"US","city":"Milton","state":"Iowa","state_ab":"IA","county":"Van Buren","geo_location":{ "type": "Point", "coordinates": [-92.1438, 40.6721] }},
{"zip_code":"52620","country":"US","city":"Bonaparte","state":"Iowa","state_ab":"IA","county":"Van Buren","geo_location":{ "type": "Point", "coordinates": [-91.7897, 40.7148] }},
{"zip_code":"52530","country":"US","city":"Agency","state":"Iowa","state_ab":"IA","county":"Wapello","geo_location":{ "type": "Point", "coordinates": [-92.3162, 40.9957] }},
{"zip_code":"50060","country":"US","city":"Corydon","state":"Iowa","state_ab":"IA","county":"Wayne","geo_location":{ "type": "Point", "coordinates": [-93.3274, 40.7771] }},
{"zip_code":"50123","country":"US","city":"Humeston","state":"Iowa","state_ab":"IA","county":"Wayne","geo_location":{ "type": "Point", "coordinates": [-93.5101, 40.8469] }},
{"zip_code":"52583","country":"US","city":"Promise City","state":"Iowa","state_ab":"IA","county":"Wayne","geo_location":{ "type": "Point", "coordinates": [-93.1527, 40.7585] }},
{"zip_code":"50523","country":"US","city":"Callender","state":"Iowa","state_ab":"IA","county":"Webster","geo_location":{ "type": "Point", "coordinates": [-94.282, 42.3494] }},
{"zip_code":"50473","country":"US","city":"Scarville","state":"Iowa","state_ab":"IA","county":"Winnebago","geo_location":{ "type": "Point", "coordinates": [-93.6423, 43.4673] }},
{"zip_code":"52143","country":"US","city":"Festina","state":"Iowa","state_ab":"IA","county":"Winneshiek County","geo_location":{ "type": "Point", "coordinates": [-91.8668, 43.1194] }},
{"zip_code":"50446","country":"US","city":"Joice","state":"Iowa","state_ab":"IA","county":"Worth","geo_location":{ "type": "Point", "coordinates": [-93.4454, 43.3761] }},
{"zip_code":"50459","country":"US","city":"Northwood","state":"Iowa","state_ab":"IA","county":"Worth","geo_location":{ "type": "Point", "coordinates": [-93.2419, 43.4506] }},
{"zip_code":"83709","country":"US","city":"Boise","state":"Idaho","state_ab":"ID","county":"Ada","geo_location":{ "type": "Point", "coordinates": [-116.2941, 43.5741] }},
{"zip_code":"83723","country":"US","city":"Boise","state":"Idaho","state_ab":"ID","county":"Ada","geo_location":{ "type": "Point", "coordinates": [-116.244, 43.4599] }},
{"zip_code":"83620","country":"US","city":"Fruitvale","state":"Idaho","state_ab":"ID","county":"Adams","geo_location":{ "type": "Point", "coordinates": [-116.4299, 44.8177] }},
{"zip_code":"83206","country":"US","city":"Pocatello","state":"Idaho","state_ab":"ID","county":"Bannock","geo_location":{ "type": "Point", "coordinates": [-112.3138, 42.6395] }},
{"zip_code":"83246","country":"US","city":"Lava Hot Springs","state":"Idaho","state_ab":"ID","county":"Bannock","geo_location":{ "type": "Point", "coordinates": [-112.0176, 42.6185] }},
{"zip_code":"83220","country":"US","city":"Bern","state":"Idaho","state_ab":"ID","county":"Bear Lake","geo_location":{ "type": "Point", "coordinates": [-111.3926, 42.3191] }},
{"zip_code":"83233","country":"US","city":"Dingle","state":"Idaho","state_ab":"ID","county":"Bear Lake","geo_location":{ "type": "Point", "coordinates": [-111.2174, 42.1774] }},
{"zip_code":"83260","country":"US","city":"Ovid","state":"Idaho","state_ab":"ID","county":"Bear Lake County","geo_location":{ "type": "Point", "coordinates": [-111.4527, 42.3124] }},
{"zip_code":"83866","country":"US","city":"Santa","state":"Idaho","state_ab":"ID","county":"Benewah","geo_location":{ "type": "Point", "coordinates": [-116.431, 47.1544] }},
{"zip_code":"83646","country":"US","city":"Meridian","state":"Idaho","state_ab":"ID","county":"Boise County","geo_location":{ "type": "Point", "coordinates": [-116.4306, 43.6498] }},
{"zip_code":"83813","country":"US","city":"Cocolalla","state":"Idaho","state_ab":"ID","county":"Bonner","geo_location":{ "type": "Point", "coordinates": [-116.6571, 48.1248] }},
{"zip_code":"83840","country":"US","city":"Kootenai","state":"Idaho","state_ab":"ID","county":"Bonner","geo_location":{ "type": "Point", "coordinates": [-116.5153, 48.3144] }},
{"zip_code":"83826","country":"US","city":"Eastport","state":"Idaho","state_ab":"ID","county":"Boundary","geo_location":{ "type": "Point", "coordinates": [-116.5407, 48.7506] }},
{"zip_code":"83853","country":"US","city":"Porthill","state":"Idaho","state_ab":"ID","county":"Boundary","geo_location":{ "type": "Point", "coordinates": [-116.4775, 48.992] }},
{"zip_code":"83606","country":"US","city":"Caldwell","state":"Idaho","state_ab":"ID","county":"Canyon","geo_location":{ "type": "Point", "coordinates": [-116.7989, 43.7249] }},
{"zip_code":"83660","country":"US","city":"Parma","state":"Idaho","state_ab":"ID","county":"Canyon","geo_location":{ "type": "Point", "coordinates": [-116.9401, 43.7896] }},
{"zip_code":"83686","country":"US","city":"Nampa","state":"Idaho","state_ab":"ID","county":"Canyon","geo_location":{ "type": "Point", "coordinates": [-116.566, 43.5441] }},
{"zip_code":"83323","country":"US","city":"Declo","state":"Idaho","state_ab":"ID","county":"Cassia","geo_location":{ "type": "Point", "coordinates": [-113.4338, 42.5245] }},
{"zip_code":"83633","country":"US","city":"King Hill","state":"Idaho","state_ab":"ID","county":"Elmore","geo_location":{ "type": "Point", "coordinates": [-115.1899, 42.9799] }},
{"zip_code":"83286","country":"US","city":"Weston","state":"Idaho","state_ab":"ID","county":"Franklin","geo_location":{ "type": "Point", "coordinates": [-111.9715, 42.0446] }},
{"zip_code":"83530","country":"US","city":"Grangeville","state":"Idaho","state_ab":"ID","county":"Idaho","geo_location":{ "type": "Point", "coordinates": [-116.1076, 45.9272] }},
{"zip_code":"83466","country":"US","city":"North Fork","state":"Idaho","state_ab":"ID","county":"Lemhi","geo_location":{ "type": "Point", "coordinates": [-114.0419, 45.4242] }},
{"zip_code":"83543","country":"US","city":"Nezperce","state":"Idaho","state_ab":"ID","county":"Lewis","geo_location":{ "type": "Point", "coordinates": [-116.2393, 46.2475] }},
{"zip_code":"83349","country":"US","city":"Richfield","state":"Idaho","state_ab":"ID","county":"Lincoln","geo_location":{ "type": "Point", "coordinates": [-114.1508, 43.0588] }},
{"zip_code":"83440","country":"US","city":"Rexburg","state":"Idaho","state_ab":"ID","county":"Madison","geo_location":{ "type": "Point", "coordinates": [-111.789, 43.81] }},
{"zip_code":"83336","country":"US","city":"Heyburn","state":"Idaho","state_ab":"ID","county":"Minidoka","geo_location":{ "type": "Point", "coordinates": [-113.7709, 42.5599] }},
{"zip_code":"83350","country":"US","city":"Rupert","state":"Idaho","state_ab":"ID","county":"Minidoka","geo_location":{ "type": "Point", "coordinates": [-113.6481, 42.6888] }},
{"zip_code":"83619","country":"US","city":"Fruitland","state":"Idaho","state_ab":"ID","county":"Payette","geo_location":{ "type": "Point", "coordinates": [-116.9143, 44.0027] }},
{"zip_code":"83839","country":"US","city":"Kingston","state":"Idaho","state_ab":"ID","county":"Shoshone","geo_location":{ "type": "Point", "coordinates": [-116.2887, 47.5509] }},
{"zip_code":"62339","country":"US","city":"Golden","state":"Illinois","state_ab":"IL","county":"Adams","geo_location":{ "type": "Point", "coordinates": [-91.0296, 40.1203] }},
{"zip_code":"62353","country":"US","city":"Mount Sterling","state":"Illinois","state_ab":"IL","county":"Brown","geo_location":{ "type": "Point", "coordinates": [-90.7414, 39.9803] }},
{"zip_code":"61323","country":"US","city":"Dover","state":"Illinois","state_ab":"IL","county":"Bureau","geo_location":{ "type": "Point", "coordinates": [-89.396, 41.4362] }},
{"zip_code":"61349","country":"US","city":"Ohio","state":"Illinois","state_ab":"IL","county":"Bureau","geo_location":{ "type": "Point", "coordinates": [-89.4574, 41.5371] }},
{"zip_code":"61376","country":"US","city":"Walnut","state":"Illinois","state_ab":"IL","county":"Bureau","geo_location":{ "type": "Point", "coordinates": [-89.6092, 41.5394] }},
{"zip_code":"62070","country":"US","city":"Mozier","state":"Illinois","state_ab":"IL","county":"Calhoun","geo_location":{ "type": "Point", "coordinates": [-90.6938, 39.1343] }},
{"zip_code":"61053","country":"US","city":"Mount Carroll","state":"Illinois","state_ab":"IL","county":"Carroll","geo_location":{ "type": "Point", "coordinates": [-89.9845, 42.1053] }},
{"zip_code":"61826","country":"US","city":"Champaign","state":"Illinois","state_ab":"IL","county":"Champaign","geo_location":{ "type": "Point", "coordinates": [-88.3613, 40.1131] }},
{"zip_code":"61840","country":"US","city":"Dewey","state":"Illinois","state_ab":"IL","county":"Champaign","geo_location":{ "type": "Point", "coordinates": [-88.277, 40.3131] }},
{"zip_code":"61853","country":"US","city":"Mahomet","state":"Illinois","state_ab":"IL","county":"Champaign","geo_location":{ "type": "Point", "coordinates": [-88.3928, 40.1964] }}]}