{"value": [{"zip_code":"27939","country":"US","city":"Grandy","state":"North Carolina","state_ab":"NC","county":"Currituck","geo_location":{ "type": "Point", "coordinates": [-75.8768, 36.2339] }},
{"zip_code":"27966","country":"US","city":"Powells Point","state":"North Carolina","state_ab":"NC","county":"Currituck","geo_location":{ "type": "Point", "coordinates": [-75.8273, 36.1207] }},
{"zip_code":"27953","country":"US","city":"Manns Harbor","state":"North Carolina","state_ab":"NC","county":"Dare","geo_location":{ "type": "Point", "coordinates": [-75.8467, 35.8238] }},
{"zip_code":"27360","country":"US","city":"Thomasville","state":"North Carolina","state_ab":"NC","county":"Davidson","geo_location":{ "type": "Point", "coordinates": [-80.0913, 35.8713] }},
{"zip_code":"27373","country":"US","city":"Wallburg","state":"North Carolina","state_ab":"NC","county":"Davidson","geo_location":{ "type": "Point", "coordinates": [-80.276, 35.8829] }},
{"zip_code":"28349","country":"US","city":"Kenansville","state":"North Carolina","state_ab":"NC","county":"Duplin","geo_location":{ "type": "Point", "coordinates": [-77.8969, 35.0152] }},
{"zip_code":"28453","country":"US","city":"Magnolia","state":"North Carolina","state_ab":"NC","county":"Duplin","geo_location":{ "type": "Point", "coordinates": [-78.0432, 34.8957] }},
{"zip_code":"28466","country":"US","city":"Wallace","state":"North Carolina","state_ab":"NC","county":"Duplin","geo_location":{ "type": "Point", "coordinates": [-77.9429, 34.7542] }},
{"zip_code":"27706","country":"US","city":"Durham","state":"North Carolina","state_ab":"NC","county":"Durham","geo_location":{ "type": "Point", "coordinates": [-78.9422, 35.997] }},
{"zip_code":"27809","country":"US","city":"Battleboro","state":"North Carolina","state_ab":"NC","county":"Edgecombe","geo_location":{ "type": "Point", "coordinates": [-77.7074, 36.0067] }},
{"zip_code":"27009","country":"US","city":"Belews Creek","state":"North Carolina","state_ab":"NC","county":"Forsyth","geo_location":{ "type": "Point", "coordinates": [-80.093, 36.2269] }},
{"zip_code":"27010","country":"US","city":"Bethania","state":"North Carolina","state_ab":"NC","county":"Forsyth","geo_location":{ "type": "Point", "coordinates": [-80.3387, 36.183] }},
{"zip_code":"27023","country":"US","city":"Lewisville","state":"North Carolina","state_ab":"NC","county":"Forsyth","geo_location":{ "type": "Point", "coordinates": [-80.4206, 36.0967] }},
{"zip_code":"27050","country":"US","city":"Tobaccoville","state":"North Carolina","state_ab":"NC","county":"Forsyth","geo_location":{ "type": "Point", "coordinates": [-80.3915, 36.2336] }},
{"zip_code":"27113","country":"US","city":"Winston Salem","state":"North Carolina","state_ab":"NC","county":"Forsyth","geo_location":{ "type": "Point", "coordinates": [-80.2073, 36.0275] }},
{"zip_code":"28053","country":"US","city":"Gastonia","state":"North Carolina","state_ab":"NC","county":"Gaston","geo_location":{ "type": "Point", "coordinates": [-81.2134, 35.2751] }},
{"zip_code":"27926","country":"US","city":"Corapeake","state":"North Carolina","state_ab":"NC","county":"Gates","geo_location":{ "type": "Point", "coordinates": [-76.5979, 36.5179] }},
{"zip_code":"27979","country":"US","city":"Sunbury","state":"North Carolina","state_ab":"NC","county":"Gates","geo_location":{ "type": "Point", "coordinates": [-76.6096, 36.4316] }},
{"zip_code":"27283","country":"US","city":"Julian","state":"North Carolina","state_ab":"NC","county":"Guilford","geo_location":{ "type": "Point", "coordinates": [-79.6386, 35.9543] }},
{"zip_code":"27409","country":"US","city":"Greensboro","state":"North Carolina","state_ab":"NC","county":"Guilford","geo_location":{ "type": "Point", "coordinates": [-79.9086, 36.0777] }},
{"zip_code":"27410","country":"US","city":"Greensboro","state":"North Carolina","state_ab":"NC","county":"Guilford","geo_location":{ "type": "Point", "coordinates": [-79.8794, 36.1032] }},
{"zip_code":"27823","country":"US","city":"Enfield","state":"North Carolina","state_ab":"NC","county":"Halifax","geo_location":{ "type": "Point", "coordinates": [-77.7129, 36.1973] }},
{"zip_code":"27850","country":"US","city":"Littleton","state":"North Carolina","state_ab":"NC","county":"Halifax","geo_location":{ "type": "Point", "coordinates": [-77.8528, 36.4169] }},
{"zip_code":"27890","country":"US","city":"Weldon","state":"North Carolina","state_ab":"NC","county":"Halifax","geo_location":{ "type": "Point", "coordinates": [-77.6035, 36.4206] }},
{"zip_code":"28323","country":"US","city":"Bunnlevel","state":"North Carolina","state_ab":"NC","county":"Harnett","geo_location":{ "type": "Point", "coordinates": [-78.8405, 35.3119] }},
{"zip_code":"28710","country":"US","city":"Bat Cave","state":"North Carolina","state_ab":"NC","county":"Henderson","geo_location":{ "type": "Point", "coordinates": [-82.5448, 35.4319] }},
{"zip_code":"28790","country":"US","city":"Zirconia","state":"North Carolina","state_ab":"NC","county":"Henderson","geo_location":{ "type": "Point", "coordinates": [-82.4574, 35.2153] }},
{"zip_code":"28376","country":"US","city":"Raeford","state":"North Carolina","state_ab":"NC","county":"Hoke","geo_location":{ "type": "Point", "coordinates": [-79.2228, 34.989] }},
{"zip_code":"28660","country":"US","city":"Olin","state":"North Carolina","state_ab":"NC","county":"Iredell","geo_location":{ "type": "Point", "coordinates": [-80.8511, 35.9593] }},
{"zip_code":"28699","country":"US","city":"Scotts","state":"North Carolina","state_ab":"NC","county":"Iredell","geo_location":{ "type": "Point", "coordinates": [-81.0076, 35.831] }},
{"zip_code":"28723","country":"US","city":"Cullowhee","state":"North Carolina","state_ab":"NC","county":"Jackson","geo_location":{ "type": "Point", "coordinates": [-83.1475, 35.2409] }},
{"zip_code":"28736","country":"US","city":"Glenville","state":"North Carolina","state_ab":"NC","county":"Jackson","geo_location":{ "type": "Point", "coordinates": [-83.09, 35.1882] }},
{"zip_code":"28789","country":"US","city":"Whittier","state":"North Carolina","state_ab":"NC","county":"Jackson","geo_location":{ "type": "Point", "coordinates": [-83.2872, 35.4469] }},
{"zip_code":"27593","country":"US","city":"Wilsons Mills","state":"North Carolina","state_ab":"NC","county":"Johnston","geo_location":{ "type": "Point", "coordinates": [-78.3607, 35.5907] }},
{"zip_code":"28503","country":"US","city":"Kinston","state":"North Carolina","state_ab":"NC","county":"Lenoir","geo_location":{ "type": "Point", "coordinates": [-77.595, 35.3191] }},
{"zip_code":"28080","country":"US","city":"Iron Station","state":"North Carolina","state_ab":"NC","county":"Lincoln","geo_location":{ "type": "Point", "coordinates": [-81.107, 35.4657] }},
{"zip_code":"28093","country":"US","city":"Lincolnton","state":"North Carolina","state_ab":"NC","county":"Lincoln","geo_location":{ "type": "Point", "coordinates": [-81.2395, 35.4848] }},
{"zip_code":"28749","country":"US","city":"Little Switzerland","state":"North Carolina","state_ab":"NC","county":"McDowell","geo_location":{ "type": "Point", "coordinates": [-82.0595, 35.7387] }},
{"zip_code":"28763","country":"US","city":"Otto","state":"North Carolina","state_ab":"NC","county":"Macon","geo_location":{ "type": "Point", "coordinates": [-83.3854, 35.0515] }},
{"zip_code":"28130","country":"US","city":"Paw Creek","state":"North Carolina","state_ab":"NC","county":"Mecklenburg","geo_location":{ "type": "Point", "coordinates": [-80.8042, 35.26] }},
{"zip_code":"28206","country":"US","city":"Charlotte","state":"North Carolina","state_ab":"NC","county":"Mecklenburg","geo_location":{ "type": "Point", "coordinates": [-80.8265, 35.2522] }},
{"zip_code":"28219","country":"US","city":"Charlotte","state":"North Carolina","state_ab":"NC","county":"Mecklenburg","geo_location":{ "type": "Point", "coordinates": [-80.8042, 35.26] }},
{"zip_code":"28220","country":"US","city":"Charlotte","state":"North Carolina","state_ab":"NC","county":"Mecklenburg","geo_location":{ "type": "Point", "coordinates": [-80.8042, 35.26] }},
{"zip_code":"28233","country":"US","city":"Charlotte","state":"North Carolina","state_ab":"NC","county":"Mecklenburg","geo_location":{ "type": "Point", "coordinates": [-80.8254, 35.4894] }},
{"zip_code":"28246","country":"US","city":"Charlotte","state":"North Carolina","state_ab":"NC","county":"Mecklenburg","geo_location":{ "type": "Point", "coordinates": [-80.8425, 35.2275] }},
{"zip_code":"28260","country":"US","city":"Charlotte","state":"North Carolina","state_ab":"NC","county":"Mecklenburg","geo_location":{ "type": "Point", "coordinates": [-80.8042, 35.26] }},
{"zip_code":"28273","country":"US","city":"Charlotte","state":"North Carolina","state_ab":"NC","county":"Mecklenburg","geo_location":{ "type": "Point", "coordinates": [-80.9338, 35.1287] }},
{"zip_code":"28286","country":"US","city":"Charlotte","state":"North Carolina","state_ab":"NC","county":"Mecklenburg","geo_location":{ "type": "Point", "coordinates": [-80.8042, 35.26] }},
{"zip_code":"28299","country":"US","city":"Charlotte","state":"North Carolina","state_ab":"NC","county":"Mecklenburg","geo_location":{ "type": "Point", "coordinates": [-80.8042, 35.26] }},
{"zip_code":"27229","country":"US","city":"Candor","state":"North Carolina","state_ab":"NC","county":"Montgomery","geo_location":{ "type": "Point", "coordinates": [-79.7876, 35.2234] }},
{"zip_code":"27306","country":"US","city":"Mount Gilead","state":"North Carolina","state_ab":"NC","county":"Montgomery","geo_location":{ "type": "Point", "coordinates": [-79.9871, 35.2274] }},
{"zip_code":"28350","country":"US","city":"Lakeview","state":"North Carolina","state_ab":"NC","county":"Moore","geo_location":{ "type": "Point", "coordinates": [-79.3157, 35.2306] }},
{"zip_code":"28480","country":"US","city":"Wrightsville Beach","state":"North Carolina","state_ab":"NC","county":"New Hanover","geo_location":{ "type": "Point", "coordinates": [-77.7932, 34.2228] }},
{"zip_code":"27876","country":"US","city":"Seaboard","state":"North Carolina","state_ab":"NC","county":"Northampton","geo_location":{ "type": "Point", "coordinates": [-77.4113, 36.4886] }},
{"zip_code":"28543","country":"US","city":"Tarawa Terrace","state":"North Carolina","state_ab":"NC","county":"Onslow","geo_location":{ "type": "Point", "coordinates": [-77.3831, 34.7354] }},
{"zip_code":"27243","country":"US","city":"Efland","state":"North Carolina","state_ab":"NC","county":"Orange","geo_location":{ "type": "Point", "coordinates": [-79.1884, 36.0912] }},
{"zip_code":"28529","country":"US","city":"Grantsboro","state":"North Carolina","state_ab":"NC","county":"Pamlico","geo_location":{ "type": "Point", "coordinates": [-76.871, 35.0668] }},
{"zip_code":"28556","country":"US","city":"Merritt","state":"North Carolina","state_ab":"NC","county":"Pamlico","geo_location":{ "type": "Point", "coordinates": [-76.6719, 35.1224] }},
{"zip_code":"28583","country":"US","city":"Stonewall","state":"North Carolina","state_ab":"NC","county":"Pamlico","geo_location":{ "type": "Point", "coordinates": [-76.7406, 35.1371] }},
{"zip_code":"27836","country":"US","city":"Greenville","state":"North Carolina","state_ab":"NC","county":"Pitt","geo_location":{ "type": "Point", "coordinates": [-77.3926, 35.5804] }},
{"zip_code":"28530","country":"US","city":"Grifton","state":"North Carolina","state_ab":"NC","county":"Pitt","geo_location":{ "type": "Point", "coordinates": [-77.4193, 35.3757] }},
{"zip_code":"28750","country":"US","city":"Lynn","state":"North Carolina","state_ab":"NC","county":"Polk","geo_location":{ "type": "Point", "coordinates": [-82.2362, 35.2362] }},
{"zip_code":"27203","country":"US","city":"Asheboro","state":"North Carolina","state_ab":"NC","county":"Randolph","geo_location":{ "type": "Point", "coordinates": [-79.7893, 35.7323] }},
{"zip_code":"27230","country":"US","city":"Cedar Falls","state":"North Carolina","state_ab":"NC","county":"Randolph","geo_location":{ "type": "Point", "coordinates": [-79.8797, 35.8028] }},
{"zip_code":"28363","country":"US","city":"Marston","state":"North Carolina","state_ab":"NC","county":"Richmond","geo_location":{ "type": "Point", "coordinates": [-79.6127, 34.9728] }},
{"zip_code":"27320","country":"US","city":"Reidsville","state":"North Carolina","state_ab":"NC","county":"Rockingham","geo_location":{ "type": "Point", "coordinates": [-79.6642, 36.3432] }},
{"zip_code":"28039","country":"US","city":"East Spencer","state":"North Carolina","state_ab":"NC","county":"Rowan","geo_location":{ "type": "Point", "coordinates": [-80.4354, 35.6805] }},
{"zip_code":"28040","country":"US","city":"Ellenboro","state":"North Carolina","state_ab":"NC","county":"Rutherford","geo_location":{ "type": "Point", "coordinates": [-81.7707, 35.3344] }},
{"zip_code":"28129","country":"US","city":"Oakboro","state":"North Carolina","state_ab":"NC","county":"Stanly","geo_location":{ "type": "Point", "coordinates": [-80.3413, 35.246] }},
{"zip_code":"27049","country":"US","city":"Toast","state":"North Carolina","state_ab":"NC","county":"Surry","geo_location":{ "type": "Point", "coordinates": [-80.6558, 36.5513] }},
{"zip_code":"28079","country":"US","city":"Indian Trail","state":"North Carolina","state_ab":"NC","county":"Union","geo_location":{ "type": "Point", "coordinates": [-80.6597, 35.0831] }},
{"zip_code":"28103","country":"US","city":"Marshville","state":"North Carolina","state_ab":"NC","county":"Union","geo_location":{ "type": "Point", "coordinates": [-80.3781, 35.0167] }},
{"zip_code":"27553","country":"US","city":"Manson","state":"North Carolina","state_ab":"NC","county":"Vance","geo_location":{ "type": "Point", "coordinates": [-78.2952, 36.4603] }},
{"zip_code":"27513","country":"US","city":"Cary","state":"North Carolina","state_ab":"NC","county":"Wake","geo_location":{ "type": "Point", "coordinates": [-78.7941, 35.7956] }},
{"zip_code":"27526","country":"US","city":"Fuquay Varina","state":"North Carolina","state_ab":"NC","county":"Wake","geo_location":{ "type": "Point", "coordinates": [-78.7908, 35.58] }},
{"zip_code":"27539","country":"US","city":"Apex","state":"North Carolina","state_ab":"NC","county":"Wake","geo_location":{ "type": "Point", "coordinates": [-78.8408, 35.7225] }},
{"zip_code":"27540","country":"US","city":"Holly Springs","state":"North Carolina","state_ab":"NC","county":"Wake","geo_location":{ "type": "Point", "coordinates": [-78.8458, 35.6263] }},
{"zip_code":"27603","country":"US","city":"Raleigh","state":"North Carolina","state_ab":"NC","county":"Wake","geo_location":{ "type": "Point", "coordinates": [-78.6563, 35.7076] }},
{"zip_code":"27616","country":"US","city":"Raleigh","state":"North Carolina","state_ab":"NC","county":"Wake","geo_location":{ "type": "Point", "coordinates": [-78.5381, 35.8673] }},
{"zip_code":"27629","country":"US","city":"Raleigh","state":"North Carolina","state_ab":"NC","county":"Wake","geo_location":{ "type": "Point", "coordinates": [-78.5524, 35.8175] }},
{"zip_code":"27656","country":"US","city":"Raleigh","state":"North Carolina","state_ab":"NC","county":"Wake","geo_location":{ "type": "Point", "coordinates": [-78.6253, 35.7977] }},
{"zip_code":"28686","country":"US","city":"Triplett","state":"North Carolina","state_ab":"NC","county":"Watauga County","geo_location":{ "type": "Point", "coordinates": [-81.4895, 36.1833] }},
{"zip_code":"27863","country":"US","city":"Pikeville","state":"North Carolina","state_ab":"NC","county":"Wayne","geo_location":{ "type": "Point", "coordinates": [-77.9578, 35.4929] }},
{"zip_code":"28606","country":"US","city":"Boomer","state":"North Carolina","state_ab":"NC","county":"Wilkes","geo_location":{ "type": "Point", "coordinates": [-81.3137, 36.0552] }},
{"zip_code":"28659","country":"US","city":"North Wilkesboro","state":"North Carolina","state_ab":"NC","county":"Wilkes","geo_location":{ "type": "Point", "coordinates": [-81.1286, 36.2017] }},
{"zip_code":"58049","country":"US","city":"Kathryn","state":"North Dakota","state_ab":"ND","county":"Barnes","geo_location":{ "type": "Point", "coordinates": [-97.9763, 46.7177] }},
{"zip_code":"58063","country":"US","city":"Oriska","state":"North Dakota","state_ab":"ND","county":"Barnes","geo_location":{ "type": "Point", "coordinates": [-97.7853, 46.9433] }},
{"zip_code":"58320","country":"US","city":"Brinsmade","state":"North Dakota","state_ab":"ND","county":"Benson","geo_location":{ "type": "Point", "coordinates": [-99.4047, 48.2864] }},
{"zip_code":"58346","country":"US","city":"Leeds","state":"North Dakota","state_ab":"ND","county":"Benson","geo_location":{ "type": "Point", "coordinates": [-99.4325, 48.1653] }},
{"zip_code":"58386","country":"US","city":"York","state":"North Dakota","state_ab":"ND","county":"Benson","geo_location":{ "type": "Point", "coordinates": [-99.6025, 48.2565] }},
{"zip_code":"58360","country":"US","city":"Overly","state":"North Dakota","state_ab":"ND","county":"Bottineau County","geo_location":{ "type": "Point", "coordinates": [-100.176, 48.679] }},
{"zip_code":"58760","country":"US","city":"Maxbass","state":"North Dakota","state_ab":"ND","county":"Bottineau","geo_location":{ "type": "Point", "coordinates": [-101.2563, 48.7722] }},
{"zip_code":"58773","country":"US","city":"Powers Lake","state":"North Dakota","state_ab":"ND","county":"Burke","geo_location":{ "type": "Point", "coordinates": [-102.6795, 48.6551] }},
{"zip_code":"58553","country":"US","city":"Mckenzie","state":"North Dakota","state_ab":"ND","county":"Burleigh","geo_location":{ "type": "Point", "coordinates": [-100.3995, 46.8311] }},
{"zip_code":"58036","country":"US","city":"Gardner","state":"North Dakota","state_ab":"ND","county":"Cass","geo_location":{ "type": "Point", "coordinates": [-96.9901, 47.1252] }},
{"zip_code":"58126","country":"US","city":"Fargo","state":"North Dakota","state_ab":"ND","county":"Cass","geo_location":{ "type": "Point", "coordinates": [-97.2297, 46.9346] }},
{"zip_code":"58269","country":"US","city":"Osnabrock","state":"North Dakota","state_ab":"ND","county":"Cavalier","geo_location":{ "type": "Point", "coordinates": [-98.2327, 48.6419] }},
{"zip_code":"58436","country":"US","city":"Ellendale","state":"North Dakota","state_ab":"ND","county":"Dickey","geo_location":{ "type": "Point", "coordinates": [-98.5138, 46.0073] }},
{"zip_code":"58203","country":"US","city":"Grand Forks","state":"North Dakota","state_ab":"ND","county":"Grand Forks","geo_location":{ "type": "Point", "coordinates": [-97.0672, 47.9272] }},
{"zip_code":"58256","country":"US","city":"Manvel","state":"North Dakota","state_ab":"ND","county":"Grand Forks","geo_location":{ "type": "Point", "coordinates": [-97.1943, 48.0853] }},
{"zip_code":"58490","country":"US","city":"Verona","state":"North Dakota","state_ab":"ND","county":"LaMoure","geo_location":{ "type": "Point", "coordinates": [-98.0895, 46.3712] }},
{"zip_code":"58489","country":"US","city":"Venturia","state":"North Dakota","state_ab":"ND","county":"McIntosh","geo_location":{ "type": "Point", "coordinates": [-99.6498, 46.028] }},
{"zip_code":"58540","country":"US","city":"Garrison","state":"North Dakota","state_ab":"ND","county":"McLean","geo_location":{ "type": "Point", "coordinates": [-101.6142, 47.6675] }},
{"zip_code":"58579","country":"US","city":"Wilton","state":"North Dakota","state_ab":"ND","county":"McLean","geo_location":{ "type": "Point", "coordinates": [-100.7944, 47.1709] }},
{"zip_code":"58759","country":"US","city":"Max","state":"North Dakota","state_ab":"ND","county":"McLean","geo_location":{ "type": "Point", "coordinates": [-101.2932, 47.8156] }},
{"zip_code":"58580","country":"US","city":"Zap","state":"North Dakota","state_ab":"ND","county":"Mercer","geo_location":{ "type": "Point", "coordinates": [-101.9256, 47.2897] }},
{"zip_code":"58566","country":"US","city":"Saint Anthony","state":"North Dakota","state_ab":"ND","county":"Morton","geo_location":{ "type": "Point", "coordinates": [-100.8972, 46.5888] }},
{"zip_code":"58216","country":"US","city":"Bathgate","state":"North Dakota","state_ab":"ND","county":"Pembina","geo_location":{ "type": "Point", "coordinates": [-97.4832, 48.8686] }},
{"zip_code":"58359","country":"US","city":"Orrin","state":"North Dakota","state_ab":"ND","county":"Pierce","geo_location":{ "type": "Point", "coordinates": [-100.1644, 48.0895] }},
{"zip_code":"58076","country":"US","city":"Wahpeton","state":"North Dakota","state_ab":"ND","county":"Richland","geo_location":{ "type": "Point", "coordinates": [-96.6081, 46.2718] }},
{"zip_code":"58463","country":"US","city":"Mcclusky","state":"North Dakota","state_ab":"ND","county":"Sheridan","geo_location":{ "type": "Point", "coordinates": [-100.452, 47.4896] }},
{"zip_code":"58643","country":"US","city":"Marmarth","state":"North Dakota","state_ab":"ND","county":"Slope","geo_location":{ "type": "Point", "coordinates": [-103.88, 46.3254] }},
{"zip_code":"58630","country":"US","city":"Gladstone","state":"North Dakota","state_ab":"ND","county":"Stark","geo_location":{ "type": "Point", "coordinates": [-102.5274, 46.8152] }},
{"zip_code":"58656","country":"US","city":"Taylor","state":"North Dakota","state_ab":"ND","county":"Stark","geo_location":{ "type": "Point", "coordinates": [-102.3756, 46.9284] }},
{"zip_code":"58230","country":"US","city":"Finley","state":"North Dakota","state_ab":"ND","county":"Steele","geo_location":{ "type": "Point", "coordinates": [-97.7442, 47.5306] }},
{"zip_code":"58476","country":"US","city":"Pingree","state":"North Dakota","state_ab":"ND","county":"Stutsman","geo_location":{ "type": "Point", "coordinates": [-99.0144, 47.2038] }},
{"zip_code":"58009","country":"US","city":"Blanchard","state":"North Dakota","state_ab":"ND","county":"Traill","geo_location":{ "type": "Point", "coordinates": [-97.2466, 47.3277] }},
{"zip_code":"58229","country":"US","city":"Fairdale","state":"North Dakota","state_ab":"ND","county":"Walsh","geo_location":{ "type": "Point", "coordinates": [-98.2066, 48.4819] }},
{"zip_code":"58243","country":"US","city":"Hoople","state":"North Dakota","state_ab":"ND","county":"Walsh","geo_location":{ "type": "Point", "coordinates": [-97.6183, 48.5198] }},
{"zip_code":"58270","country":"US","city":"Park River","state":"North Dakota","state_ab":"ND","county":"Walsh","geo_location":{ "type": "Point", "coordinates": [-97.7439, 48.4039] }},
{"zip_code":"58733","country":"US","city":"Des Lacs","state":"North Dakota","state_ab":"ND","county":"Ward","geo_location":{ "type": "Point", "coordinates": [-101.5672, 48.2557] }},
{"zip_code":"58746","country":"US","city":"Kenmare","state":"North Dakota","state_ab":"ND","county":"Ward","geo_location":{ "type": "Point", "coordinates": [-102.0852, 48.7182] }},
{"zip_code":"58319","country":"US","city":"Bremen","state":"North Dakota","state_ab":"ND","county":"Wells","geo_location":{ "type": "Point", "coordinates": [-99.6644, 47.6635] }},
{"zip_code":"58423","country":"US","city":"Chaseley","state":"North Dakota","state_ab":"ND","county":"Wells","geo_location":{ "type": "Point", "coordinates": [-99.8241, 47.449] }},
{"zip_code":"58450","country":"US","city":"Heaton","state":"North Dakota","state_ab":"ND","county":"Wells County","geo_location":{ "type": "Point", "coordinates": [-99.5781, 47.4611] }},
{"zip_code":"58849","country":"US","city":"Ray","state":"North Dakota","state_ab":"ND","county":"Williams","geo_location":{ "type": "Point", "coordinates": [-103.1654, 48.3217] }},
{"zip_code":"68956","country":"US","city":"Kenesaw","state":"Nebraska","state_ab":"NE","county":"Adams","geo_location":{ "type": "Point", "coordinates": [-98.6572, 40.6165] }},
{"zip_code":"68620","country":"US","city":"Albion","state":"Nebraska","state_ab":"NE","county":"Boone","geo_location":{ "type": "Point", "coordinates": [-97.9991, 41.7049] }},
{"zip_code":"68660","country":"US","city":"Saint Edward","state":"Nebraska","state_ab":"NE","county":"Boone","geo_location":{ "type": "Point", "coordinates": [-97.8801, 41.5708] }},
{"zip_code":"69210","country":"US","city":"Ainsworth","state":"Nebraska","state_ab":"NE","county":"Brown","geo_location":{ "type": "Point", "coordinates": [-99.8615, 42.5403] }},
{"zip_code":"68840","country":"US","city":"Gibbon","state":"Nebraska","state_ab":"NE","county":"Buffalo","geo_location":{ "type": "Point", "coordinates": [-98.8543, 40.7444] }},
{"zip_code":"68866","country":"US","city":"Pleasanton","state":"Nebraska","state_ab":"NE","county":"Buffalo","geo_location":{ "type": "Point", "coordinates": [-99.1283, 40.9818] }},
{"zip_code":"68349","country":"US","city":"Elmwood","state":"Nebraska","state_ab":"NE","county":"Cass","geo_location":{ "type": "Point", "coordinates": [-96.2944, 40.8378] }},
{"zip_code":"68413","country":"US","city":"Nehawka","state":"Nebraska","state_ab":"NE","county":"Cass","geo_location":{ "type": "Point", "coordinates": [-95.993, 40.833] }},
{"zip_code":"68736","country":"US","city":"Fordyce","state":"Nebraska","state_ab":"NE","county":"Cedar","geo_location":{ "type": "Point", "coordinates": [-97.3567, 42.7309] }},
{"zip_code":"68749","country":"US","city":"Magnet","state":"Nebraska","state_ab":"NE","county":"Cedar","geo_location":{ "type": "Point", "coordinates": [-97.2504, 42.6097] }},
{"zip_code":"69160","country":"US","city":"Sidney","state":"Nebraska","state_ab":"NE","county":"Cheyenne","geo_location":{ "type": "Point", "coordinates": [-102.9959, 41.2205] }},
{"zip_code":"68659","country":"US","city":"Rogers","state":"Nebraska","state_ab":"NE","county":"Colfax","geo_location":{ "type": "Point", "coordinates": [-96.956, 41.5939] }},
{"zip_code":"68813","country":"US","city":"Anselmo","state":"Nebraska","state_ab":"NE","county":"Custer","geo_location":{ "type": "Point", "coordinates": [-99.8644, 41.6208] }},
{"zip_code":"68880","country":"US","city":"Weissert","state":"Nebraska","state_ab":"NE","county":"Custer","geo_location":{ "type": "Point", "coordinates": [-99.7281, 41.3939] }},
{"zip_code":"69120","country":"US","city":"Arnold","state":"Nebraska","state_ab":"NE","county":"Custer","geo_location":{ "type": "Point", "coordinates": [-100.1567, 41.4456] }},
{"zip_code":"68776","country":"US","city":"South Sioux City","state":"Nebraska","state_ab":"NE","county":"Dakota","geo_location":{ "type": "Point", "coordinates": [-96.4182, 42.4656] }},
{"zip_code":"69339","country":"US","city":"Crawford","state":"Nebraska","state_ab":"NE","county":"Dawes","geo_location":{ "type": "Point", "coordinates": [-103.4053, 42.6758] }},
{"zip_code":"69029","country":"US","city":"Farnam","state":"Nebraska","state_ab":"NE","county":"Dawson","geo_location":{ "type": "Point", "coordinates": [-100.2069, 40.7129] }},
{"zip_code":"68710","country":"US","city":"Allen","state":"Nebraska","state_ab":"NE","county":"Dixon","geo_location":{ "type": "Point", "coordinates": [-96.8574, 42.4437] }},
{"zip_code":"68026","country":"US","city":"Fremont","state":"Nebraska","state_ab":"NE","county":"Dodge","geo_location":{ "type": "Point", "coordinates": [-96.6174, 41.5679] }},
{"zip_code":"68633","country":"US","city":"Dodge","state":"Nebraska","state_ab":"NE","county":"Dodge","geo_location":{ "type": "Point", "coordinates": [-96.8969, 41.7052] }},
{"zip_code":"68103","country":"US","city":"Omaha","state":"Nebraska","state_ab":"NE","county":"Douglas","geo_location":{ "type": "Point", "coordinates": [-96.1711, 41.2917] }},
{"zip_code":"68116","country":"US","city":"Omaha","state":"Nebraska","state_ab":"NE","county":"Douglas","geo_location":{ "type": "Point", "coordinates": [-96.1495, 41.2879] }},
{"zip_code":"68130","country":"US","city":"Omaha","state":"Nebraska","state_ab":"NE","county":"Douglas","geo_location":{ "type": "Point", "coordinates": [-96.1688, 41.2355] }},
{"zip_code":"68183","country":"US","city":"Omaha","state":"Nebraska","state_ab":"NE","county":"Douglas","geo_location":{ "type": "Point", "coordinates": [-96.1711, 41.2917] }},
{"zip_code":"69030","country":"US","city":"Haigler","state":"Nebraska","state_ab":"NE","county":"Dundy","geo_location":{ "type": "Point", "coordinates": [-101.9371, 40.0642] }},
{"zip_code":"68929","country":"US","city":"Bloomington","state":"Nebraska","state_ab":"NE","county":"Franklin","geo_location":{ "type": "Point", "coordinates": [-99.0094, 40.1383] }},
{"zip_code":"68309","country":"US","city":"Barneston","state":"Nebraska","state_ab":"NE","county":"Gage","geo_location":{ "type": "Point", "coordinates": [-96.5963, 40.0412] }},
{"zip_code":"68310","country":"US","city":"Beatrice","state":"Nebraska","state_ab":"NE","county":"Gage","geo_location":{ "type": "Point", "coordinates": [-96.7435, 40.2705] }},
{"zip_code":"68466","country":"US","city":"Wymore","state":"Nebraska","state_ab":"NE","county":"Gage","geo_location":{ "type": "Point", "coordinates": [-96.6613, 40.113] }},
{"zip_code":"69366","country":"US","city":"Whitman","state":"Nebraska","state_ab":"NE","county":"Grant","geo_location":{ "type": "Point", "coordinates": [-101.5216, 41.9584] }},
{"zip_code":"68969","country":"US","city":"Ragan","state":"Nebraska","state_ab":"NE","county":"Harlan","geo_location":{ "type": "Point", "coordinates": [-99.4049, 40.1765] }},
{"zip_code":"69043","country":"US","city":"Stratton","state":"Nebraska","state_ab":"NE","county":"Hitchcock","geo_location":{ "type": "Point", "coordinates": [-101.2183, 40.1445] }},
{"zip_code":"68763","country":"US","city":"Oneill","state":"Nebraska","state_ab":"NE","county":"Holt","geo_location":{ "type": "Point", "coordinates": [-98.6456, 42.4857] }},
{"zip_code":"68350","country":"US","city":"Endicott","state":"Nebraska","state_ab":"NE","county":"Jefferson","geo_location":{ "type": "Point", "coordinates": [-97.0813, 40.0496] }},
{"zip_code":"68440","country":"US","city":"Steele City","state":"Nebraska","state_ab":"NE","county":"Jefferson","geo_location":{ "type": "Point", "coordinates": [-96.9907, 40.0425] }},
{"zip_code":"69146","country":"US","city":"Lemoyne","state":"Nebraska","state_ab":"NE","county":"Keith","geo_location":{ "type": "Point", "coordinates": [-101.7673, 41.3236] }},
{"zip_code":"69133","country":"US","city":"Dix","state":"Nebraska","state_ab":"NE","county":"Kimball","geo_location":{ "type": "Point", "coordinates": [-103.4796, 41.227] }},
{"zip_code":"68789","country":"US","city":"Winnetoon","state":"Nebraska","state_ab":"NE","county":"Knox","geo_location":{ "type": "Point", "coordinates": [-98.005, 42.5334] }},
{"zip_code":"68336","country":"US","city":"Davey","state":"Nebraska","state_ab":"NE","county":"Lancaster","geo_location":{ "type": "Point", "coordinates": [-96.688, 40.9639] }},
{"zip_code":"68503","country":"US","city":"Lincoln","state":"Nebraska","state_ab":"NE","county":"Lancaster","geo_location":{ "type": "Point", "coordinates": [-96.6766, 40.8233] }},
{"zip_code":"68516","country":"US","city":"Lincoln","state":"Nebraska","state_ab":"NE","county":"Lancaster","geo_location":{ "type": "Point", "coordinates": [-96.6523, 40.7568] }},
{"zip_code":"68529","country":"US","city":"Lincoln","state":"Nebraska","state_ab":"NE","county":"Lancaster","geo_location":{ "type": "Point", "coordinates": [-96.7798, 40.8798] }},
{"zip_code":"68583","country":"US","city":"Lincoln","state":"Nebraska","state_ab":"NE","county":"Lancaster","geo_location":{ "type": "Point", "coordinates": [-96.6888, 40.7845] }},
{"zip_code":"68879","country":"US","city":"Taylor","state":"Nebraska","state_ab":"NE","county":"Loup","geo_location":{ "type": "Point", "coordinates": [-99.4543, 41.9141] }},
{"zip_code":"68826","country":"US","city":"Central City","state":"Nebraska","state_ab":"NE","county":"Merrick","geo_location":{ "type": "Point", "coordinates": [-98.0017, 41.1213] }},
{"zip_code":"68943","country":"US","city":"Hardy","state":"Nebraska","state_ab":"NE","county":"Nuckolls","geo_location":{ "type": "Point", "coordinates": [-97.9271, 40.0285] }},
{"zip_code":"68323","country":"US","city":"Burchard","state":"Nebraska","state_ab":"NE","county":"Pawnee","geo_location":{ "type": "Point", "coordinates": [-96.3488, 40.1057] }},
{"zip_code":"68376","country":"US","city":"Humboldt","state":"Nebraska","state_ab":"NE","county":"Richardson","geo_location":{ "type": "Point", "coordinates": [-95.9311, 40.1566] }},
{"zip_code":"68453","country":"US","city":"Tobias","state":"Nebraska","state_ab":"NE","county":"Saline","geo_location":{ "type": "Point", "coordinates": [-97.3184, 40.4262] }},
{"zip_code":"68040","country":"US","city":"Malmo","state":"Nebraska","state_ab":"NE","county":"Saunders","geo_location":{ "type": "Point", "coordinates": [-96.7327, 41.2984] }},
{"zip_code":"68066","country":"US","city":"Wahoo","state":"Nebraska","state_ab":"NE","county":"Saunders","geo_location":{ "type": "Point", "coordinates": [-96.6219, 41.2117] }},
{"zip_code":"69353","country":"US","city":"Mcgrew","state":"Nebraska","state_ab":"NE","county":"Scotts Bluff","geo_location":{ "type": "Point", "coordinates": [-103.4164, 41.7469] }},
{"zip_code":"68439","country":"US","city":"Staplehurst","state":"Nebraska","state_ab":"NE","county":"Seward","geo_location":{ "type": "Point", "coordinates": [-97.1859, 40.9845] }},
{"zip_code":"69340","country":"US","city":"Ellsworth","state":"Nebraska","state_ab":"NE","county":"Sheridan","geo_location":{ "type": "Point", "coordinates": [-102.3997, 42.5024] }},
{"zip_code":"68853","country":"US","city":"Loup City","state":"Nebraska","state_ab":"NE","county":"Sherman","geo_location":{ "type": "Point", "coordinates": [-98.9751, 41.2845] }},
{"zip_code":"68039","country":"US","city":"Macy","state":"Nebraska","state_ab":"NE","county":"Thurston","geo_location":{ "type": "Point", "coordinates": [-96.3589, 42.1177] }},
{"zip_code":"68723","country":"US","city":"Carroll","state":"Nebraska","state_ab":"NE","county":"Wayne","geo_location":{ "type": "Point", "coordinates": [-97.1926, 42.277] }},
{"zip_code":"68790","country":"US","city":"Winside","state":"Nebraska","state_ab":"NE","county":"Wayne","geo_location":{ "type": "Point", "coordinates": [-97.1825, 42.1678] }},
{"zip_code":"68930","country":"US","city":"Blue Hill","state":"Nebraska","state_ab":"NE","county":"Webster","geo_location":{ "type": "Point", "coordinates": [-98.427, 40.311] }},
{"zip_code":"68970","country":"US","city":"Red Cloud","state":"Nebraska","state_ab":"NE","county":"Webster","geo_location":{ "type": "Point", "coordinates": [-98.5187, 40.0952] }},
{"zip_code":"3249","country":"US","city":"Gilford","state":"New Hampshire","state_ab":"NH","county":"Belknap County","geo_location":{ "type": "Point", "coordinates": [-71.4072, 43.5475] }},
{"zip_code":"2116","country":"US","city":"Boston","state":"Massachusetts","state_ab":"MA","county":"Suffolk","geo_location":{ "type": "Point", "coordinates": [-71.0768, 42.3492] }},
{"zip_code":"2129","country":"US","city":"Charlestown","state":"Massachusetts","state_ab":"MA","county":"Suffolk","geo_location":{ "type": "Point", "coordinates": [-71.0627, 42.3778] }},
{"zip_code":"2130","country":"US","city":"Jamaica Plain","state":"Massachusetts","state_ab":"MA","county":"Suffolk","geo_location":{ "type": "Point", "coordinates": [-71.1115, 42.3126] }},
{"zip_code":"2196","country":"US","city":"Boston","state":"Massachusetts","state_ab":"MA","county":"Suffolk","geo_location":{ "type": "Point", "coordinates": [-70.9196, 42.3389] }},
{"zip_code":"2206","country":"US","city":"Boston","state":"Massachusetts","state_ab":"MA","county":"Suffolk","geo_location":{ "type": "Point", "coordinates": [-70.9196, 42.3389] }},
{"zip_code":"1436","country":"US","city":"Baldwinville","state":"Massachusetts","state_ab":"MA","county":"Worcester","geo_location":{ "type": "Point", "coordinates": [-72.0646, 42.5936] }},
{"zip_code":"1526","country":"US","city":"Manchaug","state":"Massachusetts","state_ab":"MA","county":"Worcester","geo_location":{ "type": "Point", "coordinates": [-71.8969, 42.3648] }},
{"zip_code":"1540","country":"US","city":"Oxford","state":"Massachusetts","state_ab":"MA","county":"Worcester","geo_location":{ "type": "Point", "coordinates": [-71.8687, 42.1129] }},
{"zip_code":"1566","country":"US","city":"Sturbridge","state":"Massachusetts","state_ab":"MA","county":"Worcester","geo_location":{ "type": "Point", "coordinates": [-72.0842, 42.1126] }},
{"zip_code":"1580","country":"US","city":"Westborough","state":"Massachusetts","state_ab":"MA","county":"Worcester","geo_location":{ "type": "Point", "coordinates": [-71.8969, 42.3648] }},
{"zip_code":"1603","country":"US","city":"Worcester","state":"Massachusetts","state_ab":"MA","county":"Worcester","geo_location":{ "type": "Point", "coordinates": [-71.838, 42.245] }},
{"zip_code":"21546","country":"US","city":"Nikep","state":"Maryland","state_ab":"MD","county":"Allegany County","geo_location":{ "type": "Point", "coordinates": [-78.9975, 39.5506] }},
{"zip_code":"21560","country":"US","city":"Spring Gap","state":"Maryland","state_ab":"MD","county":"Allegany","geo_location":{ "type": "Point", "coordinates": [-78.6871, 39.601] }},
{"zip_code":"21766","country":"US","city":"Little Orleans","state":"Maryland","state_ab":"MD","county":"Allegany","geo_location":{ "type": "Point", "coordinates": [-78.3781, 39.6876] }},
{"zip_code":"20776","country":"US","city":"Harwood","state":"Maryland","state_ab":"MD","county":"Anne Arundel","geo_location":{ "type": "Point", "coordinates": [-76.6145, 38.8582] }},
{"zip_code":"21056","country":"US","city":"Gibson Island","state":"Maryland","state_ab":"MD","county":"Anne Arundel","geo_location":{ "type": "Point", "coordinates": [-76.4324, 39.0751] }},
{"zip_code":"21106","country":"US","city":"Mayo","state":"Maryland","state_ab":"MD","county":"Anne Arundel","geo_location":{ "type": "Point", "coordinates": [-76.5809, 38.9715] }},
{"zip_code":"21146","country":"US","city":"Severna Park","state":"Maryland","state_ab":"MD","county":"Anne Arundel","geo_location":{ "type": "Point", "coordinates": [-76.5577, 39.0811] }},
{"zip_code":"21403","country":"US","city":"Annapolis","state":"Maryland","state_ab":"MD","county":"Anne Arundel","geo_location":{ "type": "Point", "coordinates": [-76.491, 38.9524] }},
{"zip_code":"21030","country":"US","city":"Cockeysville","state":"Maryland","state_ab":"MD","county":"Baltimore","geo_location":{ "type": "Point", "coordinates": [-76.6677, 39.4919] }},
{"zip_code":"21120","country":"US","city":"Parkton","state":"Maryland","state_ab":"MD","county":"Baltimore","geo_location":{ "type": "Point", "coordinates": [-76.6737, 39.6422] }},
{"zip_code":"21133","country":"US","city":"Randallstown","state":"Maryland","state_ab":"MD","county":"Baltimore","geo_location":{ "type": "Point", "coordinates": [-76.8002, 39.3746] }},
{"zip_code":"21236","country":"US","city":"Nottingham","state":"Maryland","state_ab":"MD","county":"Baltimore","geo_location":{ "type": "Point", "coordinates": [-76.4871, 39.3914] }},
{"zip_code":"21250","country":"US","city":"Baltimore","state":"Maryland","state_ab":"MD","county":"Baltimore","geo_location":{ "type": "Point", "coordinates": [-76.7131, 39.2582] }},
{"zip_code":"20736","country":"US","city":"Owings","state":"Maryland","state_ab":"MD","county":"Calvert","geo_location":{ "type": "Point", "coordinates": [-76.6061, 38.6955] }},
{"zip_code":"21609","country":"US","city":"Bethlehem","state":"Maryland","state_ab":"MD","county":"Caroline","geo_location":{ "type": "Point", "coordinates": [-75.9587, 38.7406] }},
{"zip_code":"21636","country":"US","city":"Goldsboro","state":"Maryland","state_ab":"MD","county":"Caroline","geo_location":{ "type": "Point", "coordinates": [-75.7926, 39.023] }},
{"zip_code":"21649","country":"US","city":"Marydel","state":"Maryland","state_ab":"MD","county":"Caroline","geo_location":{ "type": "Point", "coordinates": [-75.7622, 39.1082] }},
{"zip_code":"21919","country":"US","city":"Earleville","state":"Maryland","state_ab":"MD","county":"Cecil","geo_location":{ "type": "Point", "coordinates": [-75.9403, 39.4271] }},
{"zip_code":"21920","country":"US","city":"Elk Mills","state":"Maryland","state_ab":"MD","county":"Cecil","geo_location":{ "type": "Point", "coordinates": [-75.8282, 39.658] }},
{"zip_code":"20646","country":"US","city":"La Plata","state":"Maryland","state_ab":"MD","county":"Charles","geo_location":{ "type": "Point", "coordinates": [-76.9865, 38.5257] }},
{"zip_code":"21869","country":"US","city":"Vienna","state":"Maryland","state_ab":"MD","county":"Dorchester","geo_location":{ "type": "Point", "coordinates": [-75.8729, 38.4774] }},
{"zip_code":"21780","country":"US","city":"Sabillasville","state":"Maryland","state_ab":"MD","county":"Frederick","geo_location":{ "type": "Point", "coordinates": [-77.4693, 39.6828] }},
{"zip_code":"21793","country":"US","city":"Walkersville","state":"Maryland","state_ab":"MD","county":"Frederick","geo_location":{ "type": "Point", "coordinates": [-77.3484, 39.4787] }},
{"zip_code":"21520","country":"US","city":"Accident","state":"Maryland","state_ab":"MD","county":"Garrett","geo_location":{ "type": "Point", "coordinates": [-79.3085, 39.6355] }},
{"zip_code":"21160","country":"US","city":"Whiteford","state":"Maryland","state_ab":"MD","county":"Harford","geo_location":{ "type": "Point", "coordinates": [-76.316, 39.7077] }},
{"zip_code":"20723","country":"US","city":"Laurel","state":"Maryland","state_ab":"MD","county":"Howard","geo_location":{ "type": "Point", "coordinates": [-76.8435, 39.1208] }},
{"zip_code":"20763","country":"US","city":"Savage","state":"Maryland","state_ab":"MD","county":"Howard","geo_location":{ "type": "Point", "coordinates": [-76.8218, 39.138] }},
{"zip_code":"21029","country":"US","city":"Clarksville","state":"Maryland","state_ab":"MD","county":"Howard","geo_location":{ "type": "Point", "coordinates": [-76.9515, 39.2125] }},
{"zip_code":"21043","country":"US","city":"Ellicott City","state":"Maryland","state_ab":"MD","county":"Howard","geo_location":{ "type": "Point", "coordinates": [-76.8001, 39.2548] }},
{"zip_code":"21610","country":"US","city":"Betterton","state":"Maryland","state_ab":"MD","county":"Kent","geo_location":{ "type": "Point", "coordinates": [-76.0639, 39.3655] }},
{"zip_code":"21650","country":"US","city":"Massey","state":"Maryland","state_ab":"MD","county":"Kent","geo_location":{ "type": "Point", "coordinates": [-75.8215, 39.3126] }},
{"zip_code":"20800","country":"US","city":"Suburb Maryland Fac","state":"Maryland","state_ab":"MD","county":"Montgomery County","geo_location":{ "type": "Point", "coordinates": [-77.1578, 39.0984] }},
{"zip_code":"20813","country":"US","city":"Bethesda","state":"Maryland","state_ab":"MD","county":"Montgomery","geo_location":{ "type": "Point", "coordinates": [-77.2076, 39.144] }},
{"zip_code":"20839","country":"US","city":"Beallsville","state":"Maryland","state_ab":"MD","county":"Montgomery","geo_location":{ "type": "Point", "coordinates": [-77.4144, 39.1671] }},
{"zip_code":"20853","country":"US","city":"Rockville","state":"Maryland","state_ab":"MD","county":"Montgomery","geo_location":{ "type": "Point", "coordinates": [-77.095, 39.0887] }},
{"zip_code":"20866","country":"US","city":"Burtonsville","state":"Maryland","state_ab":"MD","county":"Montgomery","geo_location":{ "type": "Point", "coordinates": [-76.9339, 39.0922] }},
{"zip_code":"20879","country":"US","city":"Gaithersburg","state":"Maryland","state_ab":"MD","county":"Montgomery","geo_location":{ "type": "Point", "coordinates": [-77.1855, 39.173] }},
{"zip_code":"20880","country":"US","city":"Washington Grove","state":"Maryland","state_ab":"MD","county":"Montgomery","geo_location":{ "type": "Point", "coordinates": [-77.1726, 39.1388] }},
{"zip_code":"20903","country":"US","city":"Silver Spring","state":"Maryland","state_ab":"MD","county":"Montgomery","geo_location":{ "type": "Point", "coordinates": [-76.9846, 39.0095] }},
{"zip_code":"20916","country":"US","city":"Silver Spring","state":"Maryland","state_ab":"MD","county":"Montgomery","geo_location":{ "type": "Point", "coordinates": [-77.2076, 39.144] }},
{"zip_code":"20709","country":"US","city":"Laurel","state":"Maryland","state_ab":"MD","county":"Prince George's","geo_location":{ "type": "Point", "coordinates": [-76.8777, 38.8336] }},
{"zip_code":"20710","country":"US","city":"Bladensburg","state":"Maryland","state_ab":"MD","county":"Prince George's","geo_location":{ "type": "Point", "coordinates": [-76.9261, 38.9421] }},
{"zip_code":"20749","country":"US","city":"Fort Washington","state":"Maryland","state_ab":"MD","county":"Prince George's","geo_location":{ "type": "Point", "coordinates": [-76.8777, 38.8336] }},
{"zip_code":"20750","country":"US","city":"Oxon Hill","state":"Maryland","state_ab":"MD","county":"Prince George's","geo_location":{ "type": "Point", "coordinates": [-76.8777, 38.8336] }},
{"zip_code":"20789","country":"US","city":"Hyattsville","state":"Maryland","state_ab":"MD","county":"Prince George's County","geo_location":{ "type": "Point", "coordinates": [-76.9109, 38.9385] }},
{"zip_code":"20790","country":"US","city":"Capitol Heights","state":"Maryland","state_ab":"MD","county":"Prince George's","geo_location":{ "type": "Point", "coordinates": [-76.8777, 38.8336] }},
{"zip_code":"21623","country":"US","city":"Church Hill","state":"Maryland","state_ab":"MD","county":"Queen Anne's","geo_location":{ "type": "Point", "coordinates": [-75.988, 39.146] }},
{"zip_code":"21690","country":"US","city":"Chestertown","state":"Maryland","state_ab":"MD","county":"Queen Anne's","geo_location":{ "type": "Point", "coordinates": [-76.0921, 39.0346] }},
{"zip_code":"20606","country":"US","city":"Abell","state":"Maryland","state_ab":"MD","county":"St. Mary's","geo_location":{ "type": "Point", "coordinates": [-76.7481, 38.2471] }},
{"zip_code":"20619","country":"US","city":"California","state":"Maryland","state_ab":"MD","county":"St. Mary's","geo_location":{ "type": "Point", "coordinates": [-76.5312, 38.3006] }},
{"zip_code":"20620","country":"US","city":"Callaway","state":"Maryland","state_ab":"MD","county":"St. Mary's","geo_location":{ "type": "Point", "coordinates": [-76.521, 38.2275] }},
{"zip_code":"20659","country":"US","city":"Mechanicsville","state":"Maryland","state_ab":"MD","county":"St. Mary's","geo_location":{ "type": "Point", "coordinates": [-76.7254, 38.4293] }},
{"zip_code":"20660","country":"US","city":"Morganza","state":"Maryland","state_ab":"MD","county":"St. Mary's","geo_location":{ "type": "Point", "coordinates": [-76.6941, 38.364] }},
{"zip_code":"20686","country":"US","city":"Saint Marys City","state":"Maryland","state_ab":"MD","county":"St. Mary's","geo_location":{ "type": "Point", "coordinates": [-76.4207, 38.1888] }},
{"zip_code":"21816","country":"US","city":"Chance","state":"Maryland","state_ab":"MD","county":"Somerset County","geo_location":{ "type": "Point", "coordinates": [-75.9392, 38.1785] }},
{"zip_code":"21870","country":"US","city":"Wenona","state":"Maryland","state_ab":"MD","county":"Somerset","geo_location":{ "type": "Point", "coordinates": [-75.8882, 38.0927] }},
{"zip_code":"21663","country":"US","city":"Saint Michaels","state":"Maryland","state_ab":"MD","county":"Talbot","geo_location":{ "type": "Point", "coordinates": [-76.2215, 38.783] }},
{"zip_code":"21676","country":"US","city":"Wittman","state":"Maryland","state_ab":"MD","county":"Talbot","geo_location":{ "type": "Point", "coordinates": [-76.3001, 38.7846] }},
{"zip_code":"21713","country":"US","city":"Boonsboro","state":"Maryland","state_ab":"MD","county":"Washington","geo_location":{ "type": "Point", "coordinates": [-77.6957, 39.552] }},
{"zip_code":"21740","country":"US","city":"Hagerstown","state":"Maryland","state_ab":"MD","county":"Washington","geo_location":{ "type": "Point", "coordinates": [-77.7372, 39.632] }},
{"zip_code":"21779","country":"US","city":"Rohrersville","state":"Maryland","state_ab":"MD","county":"Washington","geo_location":{ "type": "Point", "coordinates": [-77.658, 39.4431] }},
{"zip_code":"21803","country":"US","city":"Salisbury","state":"Maryland","state_ab":"MD","county":"Wicomico","geo_location":{ "type": "Point", "coordinates": [-75.6276, 38.3884] }},
{"zip_code":"21830","country":"US","city":"Hebron","state":"Maryland","state_ab":"MD","county":"Wicomico","geo_location":{ "type": "Point", "coordinates": [-75.6963, 38.4026] }},
{"zip_code":"21856","country":"US","city":"Quantico","state":"Maryland","state_ab":"MD","county":"Wicomico","geo_location":{ "type": "Point", "coordinates": [-75.7851, 38.3339] }},
{"zip_code":"21829","country":"US","city":"Girdletree","state":"Maryland","state_ab":"MD","county":"Worcester","geo_location":{ "type": "Point", "coordinates": [-75.3902, 38.0958] }},
{"zip_code":"21843","country":"US","city":"Ocean City","state":"Maryland","state_ab":"MD","county":"Worcester","geo_location":{ "type": "Point", "coordinates": [-75.3241, 38.2231] }},
{"zip_code":"21209","country":"US","city":"Baltimore","state":"Maryland","state_ab":"MD","county":"Baltimore (city)","geo_location":{ "type": "Point", "coordinates": [-76.6744, 39.3716] }},
{"zip_code":"21210","country":"US","city":"Baltimore","state":"Maryland","state_ab":"MD","county":"Baltimore (city)","geo_location":{ "type": "Point", "coordinates": [-76.6321, 39.3507] }},
{"zip_code":"21223","country":"US","city":"Baltimore","state":"Maryland","state_ab":"MD","county":"Baltimore (city)","geo_location":{ "type": "Point", "coordinates": [-76.6476, 39.287] }},
{"zip_code":"21263","country":"US","city":"Baltimore","state":"Maryland","state_ab":"MD","county":"Baltimore (city)","geo_location":{ "type": "Point", "coordinates": [-76.6205, 39.2847] }},
{"zip_code":"21276","country":"US","city":"Baltimore","state":"Maryland","state_ab":"MD","county":"City of Baltimore","geo_location":{ "type": "Point", "coordinates": [-76.6054, 39.291] }},
{"zip_code":"21289","country":"US","city":"Baltimore","state":"Maryland","state_ab":"MD","county":"Baltimore (city)","geo_location":{ "type": "Point", "coordinates": [-76.6205, 39.2847] }},
{"zip_code":"21290","country":"US","city":"Baltimore","state":"Maryland","state_ab":"MD","county":"Baltimore (city)","geo_location":{ "type": "Point", "coordinates": [-76.6238, 39.2933] }},
{"zip_code":"4240","country":"US","city":"Lewiston","state":"Maine","state_ab":"ME","county":"Androscoggin","geo_location":{ "type": "Point", "coordinates": [-70.1916, 44.0985] }},
{"zip_code":"4253","country":"US","city":"Livermore","state":"Maine","state_ab":"ME","county":"Androscoggin","geo_location":{ "type": "Point", "coordinates": [-70.215, 44.4079] }},
{"zip_code":"4266","country":"US","city":"North Turner","state":"Maine","state_ab":"ME","county":"Androscoggin","geo_location":{ "type": "Point", "coordinates": [-70.2558, 44.358] }},
{"zip_code":"4280","country":"US","city":"Sabattus","state":"Maine","state_ab":"ME","county":"Androscoggin","geo_location":{ "type": "Point", "coordinates": [-70.0748, 44.1133] }},
{"zip_code":"4730","country":"US","city":"Houlton","state":"Maine","state_ab":"ME","county":"Aroostook","geo_location":{ "type": "Point", "coordinates": [-67.863, 46.1189] }},
{"zip_code":"4743","country":"US","city":"Fort Kent","state":"Maine","state_ab":"ME","county":"Aroostook","geo_location":{ "type": "Point", "coordinates": [-68.2559, 47.0565] }},
{"zip_code":"4756","country":"US","city":"Madawaska","state":"Maine","state_ab":"ME","county":"Aroostook","geo_location":{ "type": "Point", "coordinates": [-68.3328, 47.3294] }},
{"zip_code":"4769","country":"US","city":"Presque Isle","state":"Maine","state_ab":"ME","county":"Aroostook","geo_location":{ "type": "Point", "coordinates": [-68.0118, 46.6842] }},
{"zip_code":"4770","country":"US","city":"Quimby","state":"Maine","state_ab":"ME","county":"Aroostook","geo_location":{ "type": "Point", "coordinates": [-68.8868, 46.5162] }},
{"zip_code":"4783","country":"US","city":"Stockholm","state":"Maine","state_ab":"ME","county":"Aroostook","geo_location":{ "type": "Point", "coordinates": [-68.2086, 47.0643] }},
{"zip_code":"4019","country":"US","city":"Cliff Island","state":"Maine","state_ab":"ME","county":"Cumberland","geo_location":{ "type": "Point", "coordinates": [-70.1071, 43.6955] }},
{"zip_code":"4033","country":"US","city":"Freeport","state":"Maine","state_ab":"ME","county":"Cumberland","geo_location":{ "type": "Point", "coordinates": [-70.1031, 43.857] }},
{"zip_code":"4109","country":"US","city":"Portland","state":"Maine","state_ab":"ME","county":"Cumberland","geo_location":{ "type": "Point", "coordinates": [-70.1987, 43.6783] }},
{"zip_code":"4110","country":"US","city":"Cumberland Foreside","state":"Maine","state_ab":"ME","county":"Cumberland","geo_location":{ "type": "Point", "coordinates": [-70.1993, 43.759] }},
{"zip_code":"4123","country":"US","city":"Portland","state":"Maine","state_ab":"ME","county":"Cumberland","geo_location":{ "type": "Point", "coordinates": [-70.4707, 44.4081] }},
{"zip_code":"4239","country":"US","city":"Jay","state":"Maine","state_ab":"ME","county":"Franklin","geo_location":{ "type": "Point", "coordinates": [-70.2099, 44.516] }},
{"zip_code":"4936","country":"US","city":"Eustis","state":"Maine","state_ab":"ME","county":"Franklin","geo_location":{ "type": "Point", "coordinates": [-70.6283, 45.3356] }},
{"zip_code":"4420","country":"US","city":"Castine","state":"Maine","state_ab":"ME","county":"Hancock","geo_location":{ "type": "Point", "coordinates": [-68.798, 44.413] }},
{"zip_code":"4613","country":"US","city":"Birch Harbor","state":"Maine","state_ab":"ME","county":"Hancock","geo_location":{ "type": "Point", "coordinates": [-68.0317, 44.3842] }},
{"zip_code":"4640","country":"US","city":"Hancock","state":"Maine","state_ab":"ME","county":"Hancock","geo_location":{ "type": "Point", "coordinates": [-68.2402, 44.5046] }},
{"zip_code":"4653","country":"US","city":"Bass Harbor","state":"Maine","state_ab":"ME","county":"Hancock","geo_location":{ "type": "Point", "coordinates": [-68.3915, 44.6419] }},
{"zip_code":"4679","country":"US","city":"Southwest Harbor","state":"Maine","state_ab":"ME","county":"Hancock","geo_location":{ "type": "Point", "coordinates": [-68.3265, 44.2823] }},
{"zip_code":"4693","country":"US","city":"Winter Harbor","state":"Maine","state_ab":"ME","county":"Hancock","geo_location":{ "type": "Point", "coordinates": [-68.0843, 44.39] }},
{"zip_code":"4330","country":"US","city":"Augusta","state":"Maine","state_ab":"ME","county":"Kennebec","geo_location":{ "type": "Point", "coordinates": [-69.7665, 44.3232] }},
{"zip_code":"4343","country":"US","city":"East Winthrop","state":"Maine","state_ab":"ME","county":"Kennebec","geo_location":{ "type": "Point", "coordinates": [-69.7519, 44.4141] }},
{"zip_code":"4910","country":"US","city":"Albion","state":"Maine","state_ab":"ME","county":"Kennebec","geo_location":{ "type": "Point", "coordinates": [-69.4683, 44.5355] }},
{"zip_code":"4963","country":"US","city":"Oakland","state":"Maine","state_ab":"ME","county":"Kennebec","geo_location":{ "type": "Point", "coordinates": [-69.7401, 44.5173] }},
{"zip_code":"4989","country":"US","city":"Vassalboro","state":"Maine","state_ab":"ME","county":"Kennebec","geo_location":{ "type": "Point", "coordinates": [-69.6519, 44.4405] }},
{"zip_code":"4563","country":"US","city":"Cushing","state":"Maine","state_ab":"ME","county":"Knox","geo_location":{ "type": "Point", "coordinates": [-69.2721, 43.9867] }},
{"zip_code":"4846","country":"US","city":"Glen Cove","state":"Maine","state_ab":"ME","county":"Knox","geo_location":{ "type": "Point", "coordinates": [-69.0911, 44.131] }},
{"zip_code":"4859","country":"US","city":"Spruce Head","state":"Maine","state_ab":"ME","county":"Knox","geo_location":{ "type": "Point", "coordinates": [-69.1707, 44.0104] }},
{"zip_code":"4860","country":"US","city":"Tenants Harbor","state":"Maine","state_ab":"ME","county":"Knox","geo_location":{ "type": "Point", "coordinates": [-69.2315, 43.9555] }},
{"zip_code":"4536","country":"US","city":"Bayville","state":"Maine","state_ab":"ME","county":"Lincoln","geo_location":{ "type": "Point", "coordinates": [-69.5233, 44.0213] }},
{"zip_code":"4549","country":"US","city":"Isle Of Springs","state":"Maine","state_ab":"ME","county":"Lincoln","geo_location":{ "type": "Point", "coordinates": [-69.5233, 44.0213] }},
{"zip_code":"4576","country":"US","city":"Southport","state":"Maine","state_ab":"ME","county":"Lincoln","geo_location":{ "type": "Point", "coordinates": [-69.6626, 43.8199] }},
{"zip_code":"4226","country":"US","city":"East Andover","state":"Maine","state_ab":"ME","county":"Oxford","geo_location":{ "type": "Point", "coordinates": [-70.6993, 44.6084] }},
{"zip_code":"4279","country":"US","city":"Rumford Point","state":"Maine","state_ab":"ME","county":"Oxford County","geo_location":{ "type": "Point", "coordinates": [-70.7019, 44.557] }},
{"zip_code":"4419","country":"US","city":"Carmel","state":"Maine","state_ab":"ME","county":"Penobscot","geo_location":{ "type": "Point", "coordinates": [-68.9942, 44.8053] }},
{"zip_code":"4433","country":"US","city":"Enfield","state":"Maine","state_ab":"ME","county":"Penobscot County","geo_location":{ "type": "Point", "coordinates": [-68.5905, 45.2656] }},
{"zip_code":"4459","country":"US","city":"Mattawamkeag","state":"Maine","state_ab":"ME","county":"Penobscot","geo_location":{ "type": "Point", "coordinates": [-68.352, 45.5264] }},
{"zip_code":"4460","country":"US","city":"Medway","state":"Maine","state_ab":"ME","county":"Penobscot","geo_location":{ "type": "Point", "coordinates": [-68.5227, 45.607] }},
{"zip_code":"4473","country":"US","city":"Orono","state":"Maine","state_ab":"ME","county":"Penobscot","geo_location":{ "type": "Point", "coordinates": [-68.7172, 44.8865] }},
{"zip_code":"4406","country":"US","city":"Abbot","state":"Maine","state_ab":"ME","county":"Piscataquis","geo_location":{ "type": "Point", "coordinates": [-69.5699, 45.2345] }},
{"zip_code":"4446","country":"US","city":"Haynesville","state":"Maine","state_ab":"ME","county":"Piscataquis County","geo_location":{ "type": "Point", "coordinates": [-67.9882, 45.8311] }},
{"zip_code":"4086","country":"US","city":"Topsham","state":"Maine","state_ab":"ME","county":"Sagadahoc","geo_location":{ "type": "Point", "coordinates": [-69.9378, 43.9814] }},
{"zip_code":"4923","country":"US","city":"Cambridge","state":"Maine","state_ab":"ME","county":"Somerset","geo_location":{ "type": "Point", "coordinates": [-69.4419, 45.0513] }},
{"zip_code":"4950","country":"US","city":"Madison","state":"Maine","state_ab":"ME","county":"Somerset","geo_location":{ "type": "Point", "coordinates": [-69.8449, 44.8096] }},
{"zip_code":"4976","country":"US","city":"Skowhegan","state":"Maine","state_ab":"ME","county":"Somerset","geo_location":{ "type": "Point", "coordinates": [-69.6976, 44.7772] }},
{"zip_code":"4949","country":"US","city":"Liberty","state":"Maine","state_ab":"ME","county":"Waldo","geo_location":{ "type": "Point", "coordinates": [-69.3306, 44.3741] }},
{"zip_code":"4626","country":"US","city":"Cutler","state":"Maine","state_ab":"ME","county":"Washington","geo_location":{ "type": "Point", "coordinates": [-67.2499, 44.6753] }},
{"zip_code":"4666","country":"US","city":"Pembroke","state":"Maine","state_ab":"ME","county":"Washington","geo_location":{ "type": "Point", "coordinates": [-67.2002, 44.9654] }},
{"zip_code":"4680","country":"US","city":"Steuben","state":"Maine","state_ab":"ME","county":"Washington","geo_location":{ "type": "Point", "coordinates": [-67.9503, 44.4971] }},
{"zip_code":"3906","country":"US","city":"North Berwick","state":"Maine","state_ab":"ME","county":"York","geo_location":{ "type": "Point", "coordinates": [-70.7212, 43.3254] }},
{"zip_code":"4006","country":"US","city":"Biddeford Pool","state":"Maine","state_ab":"ME","county":"York","geo_location":{ "type": "Point", "coordinates": [-70.3598, 43.436] }},
{"zip_code":"4020","country":"US","city":"Cornish","state":"Maine","state_ab":"ME","county":"York","geo_location":{ "type": "Point", "coordinates": [-70.7784, 43.7796] }},
{"zip_code":"4046","country":"US","city":"Kennebunkport","state":"Maine","state_ab":"ME","county":"York","geo_location":{ "type": "Point", "coordinates": [-70.4729, 43.3923] }},
{"zip_code":"4060","country":"US","city":"North Shapleigh","state":"Maine","state_ab":"ME","county":"York County","geo_location":{ "type": "Point", "coordinates": [-70.8754, 43.5837] }},
{"zip_code":"4073","country":"US","city":"Sanford","state":"Maine","state_ab":"ME","county":"York","geo_location":{ "type": "Point", "coordinates": [-70.7585, 43.4285] }},
{"zip_code":"96960","country":"US","city":"Marshall Islands","state":"","state_ab":"MH","county":"","geo_location":{ "type": "Point", "coordinates": [171.237, 7.1128] }},
{"zip_code":"49890","country":"US","city":"Traunik","state":"Michigan","state_ab":"MI","county":"Alger County","geo_location":{ "type": "Point", "coordinates": [-86.986, 46.2571] }},
{"zip_code":"49010","country":"US","city":"Allegan","state":"Michigan","state_ab":"MI","county":"Allegan","geo_location":{ "type": "Point", "coordinates": [-85.8661, 42.5256] }},
{"zip_code":"49450","country":"US","city":"Pullman","state":"Michigan","state_ab":"MI","county":"Allegan","geo_location":{ "type": "Point", "coordinates": [-86.0799, 42.4651] }},
{"zip_code":"49629","country":"US","city":"Elk Rapids","state":"Michigan","state_ab":"MI","county":"Antrim","geo_location":{ "type": "Point", "coordinates": [-85.4082, 44.8955] }},
{"zip_code":"48703","country":"US","city":"Au Gres","state":"Michigan","state_ab":"MI","county":"Arenac","geo_location":{ "type": "Point", "coordinates": [-83.702, 44.0338] }},
{"zip_code":"49050","country":"US","city":"Dowling","state":"Michigan","state_ab":"MI","county":"Barry","geo_location":{ "type": "Point", "coordinates": [-85.2495, 42.5015] }},
{"zip_code":"49333","country":"US","city":"Middleville","state":"Michigan","state_ab":"MI","county":"Barry","geo_location":{ "type": "Point", "coordinates": [-85.4759, 42.6932] }},
{"zip_code":"48613","country":"US","city":"Bentley","state":"Michigan","state_ab":"MI","county":"Bay","geo_location":{ "type": "Point", "coordinates": [-84.1053, 43.9267] }},
{"zip_code":"49616","country":"US","city":"Benzonia","state":"Michigan","state_ab":"MI","county":"Benzie","geo_location":{ "type": "Point", "coordinates": [-86.0961, 44.5955] }},
{"zip_code":"49683","country":"US","city":"Thompsonville","state":"Michigan","state_ab":"MI","county":"Benzie","geo_location":{ "type": "Point", "coordinates": [-85.946, 44.5198] }},
{"zip_code":"49023","country":"US","city":"Benton Harbor","state":"Michigan","state_ab":"MI","county":"Berrien","geo_location":{ "type": "Point", "coordinates": [-86.7153, 42.0016] }},
{"zip_code":"49113","country":"US","city":"Galien","state":"Michigan","state_ab":"MI","county":"Berrien","geo_location":{ "type": "Point", "coordinates": [-86.5035, 41.8198] }},
{"zip_code":"49126","country":"US","city":"Sodus","state":"Michigan","state_ab":"MI","county":"Berrien","geo_location":{ "type": "Point", "coordinates": [-86.3921, 42.0521] }},
{"zip_code":"49036","country":"US","city":"Coldwater","state":"Michigan","state_ab":"MI","county":"Branch","geo_location":{ "type": "Point", "coordinates": [-85.0057, 41.9255] }},
{"zip_code":"49089","country":"US","city":"Sherwood","state":"Michigan","state_ab":"MI","county":"Branch","geo_location":{ "type": "Point", "coordinates": [-85.2408, 42.0107] }},
{"zip_code":"49720","country":"US","city":"Charlevoix","state":"Michigan","state_ab":"MI","county":"Charlevoix","geo_location":{ "type": "Point", "coordinates": [-85.2297, 45.2654] }},
{"zip_code":"49799","country":"US","city":"Wolverine","state":"Michigan","state_ab":"MI","county":"Cheboygan","geo_location":{ "type": "Point", "coordinates": [-84.6065, 45.2861] }},
{"zip_code":"49786","country":"US","city":"Kincheloe","state":"Michigan","state_ab":"MI","county":"Chippewa","geo_location":{ "type": "Point", "coordinates": [-84.3365, 46.4108] }},
{"zip_code":"48820","country":"US","city":"Dewitt","state":"Michigan","state_ab":"MI","county":"Clinton","geo_location":{ "type": "Point", "coordinates": [-84.5797, 42.8428] }},
{"zip_code":"48833","country":"US","city":"Eureka","state":"Michigan","state_ab":"MI","county":"Clinton","geo_location":{ "type": "Point", "coordinates": [-84.6007, 42.9442] }},
{"zip_code":"49733","country":"US","city":"Frederic","state":"Michigan","state_ab":"MI","county":"Crawford","geo_location":{ "type": "Point", "coordinates": [-84.6824, 44.8382] }},
{"zip_code":"49876","country":"US","city":"Quinnesec","state":"Michigan","state_ab":"MI","county":"Dickinson","geo_location":{ "type": "Point", "coordinates": [-87.9922, 45.7999] }},
{"zip_code":"49076","country":"US","city":"Olivet","state":"Michigan","state_ab":"MI","county":"Eaton","geo_location":{ "type": "Point", "coordinates": [-84.8973, 42.4459] }},
{"zip_code":"49706","country":"US","city":"Alanson","state":"Michigan","state_ab":"MI","county":"Emmet","geo_location":{ "type": "Point", "coordinates": [-84.7924, 45.4405] }},
{"zip_code":"48420","country":"US","city":"Clio","state":"Michigan","state_ab":"MI","county":"Genesee","geo_location":{ "type": "Point", "coordinates": [-83.7249, 43.1779] }},
{"zip_code":"48433","country":"US","city":"Flushing","state":"Michigan","state_ab":"MI","county":"Genesee","geo_location":{ "type": "Point", "coordinates": [-83.8424, 43.072] }},
{"zip_code":"48473","country":"US","city":"Swartz Creek","state":"Michigan","state_ab":"MI","county":"Genesee","geo_location":{ "type": "Point", "coordinates": [-83.817, 42.9468] }},
{"zip_code":"48509","country":"US","city":"Burton","state":"Michigan","state_ab":"MI","county":"Genesee","geo_location":{ "type": "Point", "coordinates": [-83.6041, 43.0259] }},
{"zip_code":"48550","country":"US","city":"Flint","state":"Michigan","state_ab":"MI","county":"Genesee","geo_location":{ "type": "Point", "coordinates": [-83.6887, 43.0349] }},
{"zip_code":"49643","country":"US","city":"Interlochen","state":"Michigan","state_ab":"MI","county":"Grand Traverse","geo_location":{ "type": "Point", "coordinates": [-85.8022, 44.6518] }},
{"zip_code":"49696","country":"US","city":"Traverse City","state":"Michigan","state_ab":"MI","county":"Grand Traverse","geo_location":{ "type": "Point", "coordinates": [-85.5751, 44.8162] }},
{"zip_code":"48806","country":"US","city":"Ashley","state":"Michigan","state_ab":"MI","county":"Gratiot","geo_location":{ "type": "Point", "coordinates": [-84.488, 43.1891] }},
{"zip_code":"49913","country":"US","city":"Calumet","state":"Michigan","state_ab":"MI","county":"Houghton","geo_location":{ "type": "Point", "coordinates": [-88.4588, 47.2439] }},
{"zip_code":"48819","country":"US","city":"Dansville","state":"Michigan","state_ab":"MI","county":"Ingham","geo_location":{ "type": "Point", "coordinates": [-84.2939, 42.5505] }},
{"zip_code":"48909","country":"US","city":"Lansing","state":"Michigan","state_ab":"MI","county":"Ingham","geo_location":{ "type": "Point", "coordinates": [-84.372, 42.5992] }},
{"zip_code":"48910","country":"US","city":"Lansing","state":"Michigan","state_ab":"MI","county":"Ingham","geo_location":{ "type": "Point", "coordinates": [-84.549, 42.7008] }},
{"zip_code":"48950","country":"US","city":"Lansing","state":"Michigan","state_ab":"MI","county":"Ingham","geo_location":{ "type": "Point", "coordinates": [-84.372, 42.5992] }},
{"zip_code":"48846","country":"US","city":"Ionia","state":"Michigan","state_ab":"MI","county":"Ionia","geo_location":{ "type": "Point", "coordinates": [-85.071, 42.9859] }},
{"zip_code":"48860","country":"US","city":"Muir","state":"Michigan","state_ab":"MI","county":"Ionia","geo_location":{ "type": "Point", "coordinates": [-84.9391, 43.0439] }},
{"zip_code":"48873","country":"US","city":"Pewamo","state":"Michigan","state_ab":"MI","county":"Ionia","geo_location":{ "type": "Point", "coordinates": [-84.8492, 43.0007] }},
{"zip_code":"48730","country":"US","city":"East Tawas","state":"Michigan","state_ab":"MI","county":"Iosco","geo_location":{ "type": "Point", "coordinates": [-83.4776, 44.3008] }},
{"zip_code":"48743","country":"US","city":"Long Lake","state":"Michigan","state_ab":"MI","county":"Iosco","geo_location":{ "type": "Point", "coordinates": [-83.8516, 44.4416] }},
{"zip_code":"48770","country":"US","city":"Whittemore","state":"Michigan","state_ab":"MI","county":"Iosco","geo_location":{ "type": "Point", "coordinates": [-83.8068, 44.2325] }},
{"zip_code":"48859","country":"US","city":"Mount Pleasant","state":"Michigan","state_ab":"MI","county":"Isabella","geo_location":{ "type": "Point", "coordinates": [-84.8473, 43.5647] }},
{"zip_code":"49203","country":"US","city":"Jackson","state":"Michigan","state_ab":"MI","county":"Jackson","geo_location":{ "type": "Point", "coordinates": [-84.4132, 42.229] }},
{"zip_code":"49230","country":"US","city":"Brooklyn","state":"Michigan","state_ab":"MI","county":"Jackson","geo_location":{ "type": "Point", "coordinates": [-84.2414, 42.1044] }},
{"zip_code":"49269","country":"US","city":"Parma","state":"Michigan","state_ab":"MI","county":"Jackson","geo_location":{ "type": "Point", "coordinates": [-84.5999, 42.2739] }},
{"zip_code":"49283","country":"US","city":"Spring Arbor","state":"Michigan","state_ab":"MI","county":"Jackson","geo_location":{ "type": "Point", "coordinates": [-84.5501, 42.2069] }},
{"zip_code":"49009","country":"US","city":"Kalamazoo","state":"Michigan","state_ab":"MI","county":"Kalamazoo","geo_location":{ "type": "Point", "coordinates": [-85.6863, 42.2809] }},
{"zip_code":"49306","country":"US","city":"Belmont","state":"Michigan","state_ab":"MI","county":"Kent","geo_location":{ "type": "Point", "coordinates": [-85.5632, 43.075] }},
{"zip_code":"49319","country":"US","city":"Cedar Springs","state":"Michigan","state_ab":"MI","county":"Kent","geo_location":{ "type": "Point", "coordinates": [-85.5452, 43.2215] }},
{"zip_code":"49656","country":"US","city":"Luther","state":"Michigan","state_ab":"MI","county":"Lake","geo_location":{ "type": "Point", "coordinates": [-85.6826, 44.0545] }},
{"zip_code":"48446","country":"US","city":"Lapeer","state":"Michigan","state_ab":"MI","county":"Lapeer","geo_location":{ "type": "Point", "coordinates": [-83.3332, 43.0579] }},
{"zip_code":"49630","country":"US","city":"Empire","state":"Michigan","state_ab":"MI","county":"Leelanau","geo_location":{ "type": "Point", "coordinates": [-85.9999, 44.8144] }},
{"zip_code":"49670","country":"US","city":"Northport","state":"Michigan","state_ab":"MI","county":"Leelanau","geo_location":{ "type": "Point", "coordinates": [-85.6173, 45.1157] }},
{"zip_code":"49229","country":"US","city":"Britton","state":"Michigan","state_ab":"MI","county":"Lenawee","geo_location":{ "type": "Point", "coordinates": [-83.8377, 41.9887] }},
{"zip_code":"49256","country":"US","city":"Morenci","state":"Michigan","state_ab":"MI","county":"Lenawee","geo_location":{ "type": "Point", "coordinates": [-84.2192, 41.7386] }},
{"zip_code":"49719","country":"US","city":"Cedarville","state":"Michigan","state_ab":"MI","county":"Mackinac","geo_location":{ "type": "Point", "coordinates": [-84.3488, 46.0024] }},
{"zip_code":"49760","country":"US","city":"Moran","state":"Michigan","state_ab":"MI","county":"Mackinac","geo_location":{ "type": "Point", "coordinates": [-85.0078, 46.0441] }},
{"zip_code":"48046","country":"US","city":"Mount Clemens","state":"Michigan","state_ab":"MI","county":"Macomb","geo_location":{ "type": "Point", "coordinates": [-82.9031, 42.6723] }},
{"zip_code":"48316","country":"US","city":"Utica","state":"Michigan","state_ab":"MI","county":"Macomb","geo_location":{ "type": "Point", "coordinates": [-83.0548, 42.6885] }},
{"zip_code":"49849","country":"US","city":"Ishpeming","state":"Michigan","state_ab":"MI","county":"Marquette","geo_location":{ "type": "Point", "coordinates": [-87.7091, 46.4387] }},
{"zip_code":"49410","country":"US","city":"Fountain","state":"Michigan","state_ab":"MI","county":"Mason","geo_location":{ "type": "Point", "coordinates": [-86.2169, 44.0363] }},
{"zip_code":"49320","country":"US","city":"Chippewa Lake","state":"Michigan","state_ab":"MI","county":"Mecosta","geo_location":{ "type": "Point", "coordinates": [-85.2783, 43.7553] }},
{"zip_code":"49346","country":"US","city":"Stanwood","state":"Michigan","state_ab":"MI","county":"Mecosta","geo_location":{ "type": "Point", "coordinates": [-85.4446, 43.6017] }},
{"zip_code":"49863","country":"US","city":"Nadeau","state":"Michigan","state_ab":"MI","county":"Menominee","geo_location":{ "type": "Point", "coordinates": [-87.5633, 45.6087] }},
{"zip_code":"48640","country":"US","city":"Midland","state":"Michigan","state_ab":"MI","county":"Midland","geo_location":{ "type": "Point", "coordinates": [-84.268, 43.6376] }},
{"zip_code":"48110","country":"US","city":"Azalia","state":"Michigan","state_ab":"MI","county":"Monroe","geo_location":{ "type": "Point", "coordinates": [-83.6643, 42.0082] }},
{"zip_code":"49270","country":"US","city":"Petersburg","state":"Michigan","state_ab":"MI","county":"Monroe","geo_location":{ "type": "Point", "coordinates": [-83.6877, 41.8757] }},
{"zip_code":"48886","country":"US","city":"Six Lakes","state":"Michigan","state_ab":"MI","county":"Montcalm","geo_location":{ "type": "Point", "coordinates": [-85.1416, 43.4337] }},
{"zip_code":"49746","country":"US","city":"Hillman","state":"Michigan","state_ab":"MI","county":"Montmorency","geo_location":{ "type": "Point", "coordinates": [-83.9468, 45.0691] }},
{"zip_code":"49463","country":"US","city":"Wabaningo","state":"Michigan","state_ab":"MI","county":"Muskegon","geo_location":{ "type": "Point", "coordinates": [-86.4689, 43.2955] }},
{"zip_code":"48033","country":"US","city":"Southfield","state":"Michigan","state_ab":"MI","county":"Oakland County","geo_location":{ "type": "Point", "coordinates": [-83.294, 42.4723] }},
{"zip_code":"48073","country":"US","city":"Royal Oak","state":"Michigan","state_ab":"MI","county":"Oakland","geo_location":{ "type": "Point", "coordinates": [-83.157, 42.519] }},
{"zip_code":"48086","country":"US","city":"Southfield","state":"Michigan","state_ab":"MI","county":"Oakland","geo_location":{ "type": "Point", "coordinates": [-83.3863, 42.6601] }},
{"zip_code":"48099","country":"US","city":"Troy","state":"Michigan","state_ab":"MI","county":"Oakland","geo_location":{ "type": "Point", "coordinates": [-83.1737, 42.5876] }},
{"zip_code":"48303","country":"US","city":"Bloomfield Hills","state":"Michigan","state_ab":"MI","county":"Oakland","geo_location":{ "type": "Point", "coordinates": [-83.3863, 42.6601] }},
{"zip_code":"48329","country":"US","city":"Waterford","state":"Michigan","state_ab":"MI","county":"Oakland","geo_location":{ "type": "Point", "coordinates": [-83.3879, 42.6877] }},
{"zip_code":"48330","country":"US","city":"Drayton Plains","state":"Michigan","state_ab":"MI","county":"Oakland","geo_location":{ "type": "Point", "coordinates": [-83.3637, 42.6754] }},
{"zip_code":"48343","country":"US","city":"Pontiac","state":"Michigan","state_ab":"MI","county":"Oakland","geo_location":{ "type": "Point", "coordinates": [-83.3863, 42.6601] }},
{"zip_code":"48356","country":"US","city":"Highland","state":"Michigan","state_ab":"MI","county":"Oakland","geo_location":{ "type": "Point", "coordinates": [-83.5895, 42.6692] }},
{"zip_code":"48370","country":"US","city":"Oxford","state":"Michigan","state_ab":"MI","county":"Oakland","geo_location":{ "type": "Point", "coordinates": [-83.2005, 42.8265] }},
{"zip_code":"48383","country":"US","city":"White Lake","state":"Michigan","state_ab":"MI","county":"Oakland","geo_location":{ "type": "Point", "coordinates": [-83.5398, 42.658] }},
{"zip_code":"49436","country":"US","city":"Mears","state":"Michigan","state_ab":"MI","county":"Oceana","geo_location":{ "type": "Point", "coordinates": [-86.4533, 43.6825] }},
{"zip_code":"49449","country":"US","city":"Pentwater","state":"Michigan","state_ab":"MI","county":"Oceana","geo_location":{ "type": "Point", "coordinates": [-86.3868, 43.8237] }},
{"zip_code":"48756","country":"US","city":"Prescott","state":"Michigan","state_ab":"MI","county":"Ogemaw","geo_location":{ "type": "Point", "coordinates": [-84.0212, 44.21] }},
{"zip_code":"49953","country":"US","city":"Ontonagon","state":"Michigan","state_ab":"MI","county":"Ontonagon","geo_location":{ "type": "Point", "coordinates": [-89.3485, 46.8275] }},
{"zip_code":"49409","country":"US","city":"Ferrysburg","state":"Michigan","state_ab":"MI","county":"Ottawa","geo_location":{ "type": "Point", "coordinates": [-86.2154, 43.0809] }},
{"zip_code":"49423","country":"US","city":"Holland","state":"Michigan","state_ab":"MI","county":"Ottawa","geo_location":{ "type": "Point", "coordinates": [-86.1164, 42.7692] }},
{"zip_code":"49759","country":"US","city":"Millersburg","state":"Michigan","state_ab":"MI","county":"Presque Isle","geo_location":{ "type": "Point", "coordinates": [-84.0854, 45.4309] }},
{"zip_code":"48653","country":"US","city":"Roscommon","state":"Michigan","state_ab":"MI","county":"Roscommon","geo_location":{ "type": "Point", "coordinates": [-84.6601, 44.4839] }},
{"zip_code":"48626","country":"US","city":"Hemlock","state":"Michigan","state_ab":"MI","county":"Saginaw","geo_location":{ "type": "Point", "coordinates": [-84.2266, 43.4099] }},
{"zip_code":"48006","country":"US","city":"Avoca","state":"Michigan","state_ab":"MI","county":"St. Clair","geo_location":{ "type": "Point", "coordinates": [-82.6955, 43.0752] }},
{"zip_code":"48059","country":"US","city":"Fort Gratiot","state":"Michigan","state_ab":"MI","county":"St. Clair","geo_location":{ "type": "Point", "coordinates": [-82.4905, 43.0888] }},
{"zip_code":"48060","country":"US","city":"Port Huron","state":"Michigan","state_ab":"MI","county":"St. Clair","geo_location":{ "type": "Point", "coordinates": [-82.4599, 42.9958] }},
{"zip_code":"48419","country":"US","city":"Carsonville","state":"Michigan","state_ab":"MI","county":"Sanilac","geo_location":{ "type": "Point", "coordinates": [-82.6022, 43.4258] }},
{"zip_code":"49836","country":"US","city":"Germfask","state":"Michigan","state_ab":"MI","county":"Schoolcraft","geo_location":{ "type": "Point", "coordinates": [-85.9159, 46.2363] }},
{"zip_code":"48460","country":"US","city":"New Lothrop","state":"Michigan","state_ab":"MI","county":"Shiawassee","geo_location":{ "type": "Point", "coordinates": [-83.9851, 43.1388] }},
{"zip_code":"48729","country":"US","city":"Deford","state":"Michigan","state_ab":"MI","county":"Tuscola","geo_location":{ "type": "Point", "coordinates": [-83.1702, 43.4735] }},
{"zip_code":"48769","country":"US","city":"Tuscola","state":"Michigan","state_ab":"MI","county":"Tuscola","geo_location":{ "type": "Point", "coordinates": [-83.6574, 43.327] }},
{"zip_code":"49063","country":"US","city":"Lacota","state":"Michigan","state_ab":"MI","county":"Van Buren","geo_location":{ "type": "Point", "coordinates": [-86.2099, 42.3936] }},
{"zip_code":"49090","country":"US","city":"South Haven","state":"Michigan","state_ab":"MI","county":"Van Buren","geo_location":{ "type": "Point", "coordinates": [-86.2542, 42.4041] }},
{"zip_code":"48109","country":"US","city":"Ann Arbor","state":"Michigan","state_ab":"MI","county":"Washtenaw","geo_location":{ "type": "Point", "coordinates": [-83.7112, 42.2763] }},
{"zip_code":"48176","country":"US","city":"Saline","state":"Michigan","state_ab":"MI","county":"Washtenaw","geo_location":{ "type": "Point", "coordinates": [-83.7849, 42.1698] }},
{"zip_code":"48189","country":"US","city":"Whitmore Lake","state":"Michigan","state_ab":"MI","county":"Washtenaw","geo_location":{ "type": "Point", "coordinates": [-83.7828, 42.4289] }},
{"zip_code":"48190","country":"US","city":"Whittaker","state":"Michigan","state_ab":"MI","county":"Washtenaw","geo_location":{ "type": "Point", "coordinates": [-83.5946, 42.1244] }},
{"zip_code":"48123","country":"US","city":"Dearborn","state":"Michigan","state_ab":"MI","county":"Wayne","geo_location":{ "type": "Point", "coordinates": [-83.1508, 42.2399] }},
{"zip_code":"48136","country":"US","city":"Garden City","state":"Michigan","state_ab":"MI","county":"Wayne","geo_location":{ "type": "Point", "coordinates": [-83.1508, 42.2399] }},
{"zip_code":"48150","country":"US","city":"Livonia","state":"Michigan","state_ab":"MI","county":"Wayne","geo_location":{ "type": "Point", "coordinates": [-83.3649, 42.3615] }},
{"zip_code":"48213","country":"US","city":"Detroit","state":"Michigan","state_ab":"MI","county":"Wayne","geo_location":{ "type": "Point", "coordinates": [-82.9925, 42.3982] }},
{"zip_code":"48226","country":"US","city":"Detroit","state":"Michigan","state_ab":"MI","county":"Wayne","geo_location":{ "type": "Point", "coordinates": [-83.0484, 42.3333] }},
{"zip_code":"48239","country":"US","city":"Redford","state":"Michigan","state_ab":"MI","county":"Wayne","geo_location":{ "type": "Point", "coordinates": [-83.2889, 42.3756] }},
{"zip_code":"48240","country":"US","city":"Redford","state":"Michigan","state_ab":"MI","county":"Wayne","geo_location":{ "type": "Point", "coordinates": [-83.3017, 42.4264] }},
{"zip_code":"48266","country":"US","city":"Detroit","state":"Michigan","state_ab":"MI","county":"Wayne","geo_location":{ "type": "Point", "coordinates": [-83.1508, 42.2399] }},
{"zip_code":"48279","country":"US","city":"Detroit","state":"Michigan","state_ab":"MI","county":"Wayne","geo_location":{ "type": "Point", "coordinates": [-83.1508, 42.2399] }},
{"zip_code":"56469","country":"US","city":"Palisade","state":"Minnesota","state_ab":"MN","county":"Aitkin","geo_location":{ "type": "Point", "coordinates": [-93.5627, 46.6895] }},
{"zip_code":"56650","country":"US","city":"Kelliher","state":"Minnesota","state_ab":"MN","county":"Beltrami","geo_location":{ "type": "Point", "coordinates": [-94.5382, 47.9272] }},
{"zip_code":"56663","country":"US","city":"Pennington","state":"Minnesota","state_ab":"MN","county":"Beltrami","geo_location":{ "type": "Point", "coordinates": [-94.4834, 47.4651] }},
{"zip_code":"56379","country":"US","city":"Sauk Rapids","state":"Minnesota","state_ab":"MN","county":"Benton","geo_location":{ "type": "Point", "coordinates": [-94.1591, 45.604] }},
{"zip_code":"56210","country":"US","city":"Barry","state":"Minnesota","state_ab":"MN","county":"Big Stone","geo_location":{ "type": "Point", "coordinates": [-96.5589, 45.5593] }},
{"zip_code":"56250","country":"US","city":"Johnson","state":"Minnesota","state_ab":"MN","county":"Big Stone County","geo_location":{ "type": "Point", "coordinates": [-96.2663, 45.573] }},
{"zip_code":"56276","country":"US","city":"Odessa","state":"Minnesota","state_ab":"MN","county":"Big Stone","geo_location":{ "type": "Point", "coordinates": [-96.4695, 45.3814] }},
{"zip_code":"56030","country":"US","city":"Essig","state":"Minnesota","state_ab":"MN","county":"Brown","geo_location":{ "type": "Point", "coordinates": [-94.6052, 44.3258] }},
{"zip_code":"55749","country":"US","city":"Holyoke","state":"Minnesota","state_ab":"MN","county":"Carlton","geo_location":{ "type": "Point", "coordinates": [-92.375, 46.4664] }},
{"zip_code":"55556","country":"US","city":"Young America","state":"Minnesota","state_ab":"MN","county":"Carver","geo_location":{ "type": "Point", "coordinates": [-93.7665, 44.8055] }},
{"zip_code":"55583","country":"US","city":"Norwood","state":"Minnesota","state_ab":"MN","county":"Carver","geo_location":{ "type": "Point", "coordinates": [-93.7665, 44.8055] }},
{"zip_code":"56430","country":"US","city":"Ah Gwah Ching","state":"Minnesota","state_ab":"MN","county":"Cass","geo_location":{ "type": "Point", "coordinates": [-94.6419, 46.8623] }},
{"zip_code":"55013","country":"US","city":"Chisago City","state":"Minnesota","state_ab":"MN","county":"Chisago","geo_location":{ "type": "Point", "coordinates": [-92.8921, 45.3611] }},
{"zip_code":"55079","country":"US","city":"Stacy","state":"Minnesota","state_ab":"MN","county":"Chisago","geo_location":{ "type": "Point", "coordinates": [-93.0177, 45.3975] }},
{"zip_code":"56546","country":"US","city":"Georgetown","state":"Minnesota","state_ab":"MN","county":"Clay","geo_location":{ "type": "Point", "coordinates": [-96.727, 47.0999] }},
{"zip_code":"56560","country":"US","city":"Moorhead","state":"Minnesota","state_ab":"MN","county":"Clay","geo_location":{ "type": "Point", "coordinates": [-96.7572, 46.8677] }},
{"zip_code":"56676","country":"US","city":"Shevlin","state":"Minnesota","state_ab":"MN","county":"Clearwater","geo_location":{ "type": "Point", "coordinates": [-95.245, 47.5004] }},
{"zip_code":"55606","country":"US","city":"Hovland","state":"Minnesota","state_ab":"MN","county":"Cook","geo_location":{ "type": "Point", "coordinates": [-90.0476, 47.8342] }},
{"zip_code":"56159","country":"US","city":"Mountain Lake","state":"Minnesota","state_ab":"MN","county":"Cottonwood","geo_location":{ "type": "Point", "coordinates": [-94.9273, 43.939] }},
{"zip_code":"56456","country":"US","city":"Jenkins","state":"Minnesota","state_ab":"MN","county":"Crow Wing","geo_location":{ "type": "Point", "coordinates": [-94.0859, 46.4807] }},
{"zip_code":"56326","country":"US","city":"Evansville","state":"Minnesota","state_ab":"MN","county":"Douglas","geo_location":{ "type": "Point", "coordinates": [-95.6951, 46.0153] }},
{"zip_code":"56016","country":"US","city":"Clarks Grove","state":"Minnesota","state_ab":"MN","county":"Freeborn","geo_location":{ "type": "Point", "coordinates": [-93.3232, 43.763] }},
{"zip_code":"56029","country":"US","city":"Emmons","state":"Minnesota","state_ab":"MN","county":"Freeborn","geo_location":{ "type": "Point", "coordinates": [-93.4824, 43.5089] }},
{"zip_code":"56043","country":"US","city":"Hayward","state":"Minnesota","state_ab":"MN","county":"Freeborn","geo_location":{ "type": "Point", "coordinates": [-93.2377, 43.6386] }},
{"zip_code":"56070","country":"US","city":"Myrtle","state":"Minnesota","state_ab":"MN","county":"Freeborn County","geo_location":{ "type": "Point", "coordinates": [-93.1633, 43.5639] }},
{"zip_code":"55026","country":"US","city":"Frontenac","state":"Minnesota","state_ab":"MN","county":"Goodhue","geo_location":{ "type": "Point", "coordinates": [-92.3582, 44.52] }},
{"zip_code":"55066","country":"US","city":"Red Wing","state":"Minnesota","state_ab":"MN","county":"Goodhue","geo_location":{ "type": "Point", "coordinates": [-92.5486, 44.5528] }},
{"zip_code":"55983","country":"US","city":"Wanamingo","state":"Minnesota","state_ab":"MN","county":"Goodhue","geo_location":{ "type": "Point", "coordinates": [-92.8103, 44.3121] }},
{"zip_code":"56339","country":"US","city":"Hoffman","state":"Minnesota","state_ab":"MN","county":"Grant","geo_location":{ "type": "Point", "coordinates": [-95.7955, 45.8233] }},
{"zip_code":"55323","country":"US","city":"Crystal Bay","state":"Minnesota","state_ab":"MN","county":"Hennepin","geo_location":{ "type": "Point", "coordinates": [-93.4719, 45.0159] }},
{"zip_code":"55400","country":"US","city":"Minneapolis","state":"Minnesota","state_ab":"MN","county":"Hennepin County","geo_location":{ "type": "Point", "coordinates": [-93.2, 44.9462] }},
{"zip_code":"55413","country":"US","city":"Minneapolis","state":"Minnesota","state_ab":"MN","county":"Hennepin","geo_location":{ "type": "Point", "coordinates": [-93.2552, 44.998] }},
{"zip_code":"55426","country":"US","city":"Minneapolis","state":"Minnesota","state_ab":"MN","county":"Hennepin","geo_location":{ "type": "Point", "coordinates": [-93.3829, 44.955] }},
{"zip_code":"55439","country":"US","city":"Minneapolis","state":"Minnesota","state_ab":"MN","county":"Hennepin","geo_location":{ "type": "Point", "coordinates": [-93.3753, 44.8744] }},
{"zip_code":"55440","country":"US","city":"Minneapolis","state":"Minnesota","state_ab":"MN","county":"Hennepin","geo_location":{ "type": "Point", "coordinates": [-93.4719, 45.0159] }},
{"zip_code":"55479","country":"US","city":"Minneapolis","state":"Minnesota","state_ab":"MN","county":"Hennepin","geo_location":{ "type": "Point", "coordinates": [-93.4719, 45.0159] }},
{"zip_code":"55480","country":"US","city":"Minneapolis","state":"Minnesota","state_ab":"MN","county":"Hennepin","geo_location":{ "type": "Point", "coordinates": [-93.4719, 45.0159] }},
{"zip_code":"55569","country":"US","city":"Osseo","state":"Minnesota","state_ab":"MN","county":"Hennepin","geo_location":{ "type": "Point", "coordinates": [-93.4719, 45.0159] }},
{"zip_code":"55570","country":"US","city":"Maple Plain","state":"Minnesota","state_ab":"MN","county":"Hennepin","geo_location":{ "type": "Point", "coordinates": [-93.4719, 45.0159] }},
{"zip_code":"55596","country":"US","city":"Loretto","state":"Minnesota","state_ab":"MN","county":"Hennepin","geo_location":{ "type": "Point", "coordinates": [-93.4719, 45.0159] }},
{"zip_code":"55943","country":"US","city":"Houston","state":"Minnesota","state_ab":"MN","county":"Houston","geo_location":{ "type": "Point", "coordinates": [-91.5626, 43.7929] }},
{"zip_code":"56470","country":"US","city":"Park Rapids","state":"Minnesota","state_ab":"MN","county":"Hubbard","geo_location":{ "type": "Point", "coordinates": [-95.0383, 46.9377] }},
{"zip_code":"55040","country":"US","city":"Isanti","state":"Minnesota","state_ab":"MN","county":"Isanti","geo_location":{ "type": "Point", "coordinates": [-93.2266, 45.4682] }},
{"zip_code":"55080","country":"US","city":"Stanchfield","state":"Minnesota","state_ab":"MN","county":"Isanti","geo_location":{ "type": "Point", "coordinates": [-93.2433, 45.6675] }},
{"zip_code":"55709","country":"US","city":"Bovey","state":"Minnesota","state_ab":"MN","county":"Itasca","geo_location":{ "type": "Point", "coordinates": [-93.3723, 47.2868] }},
{"zip_code":"56636","country":"US","city":"Deer River","state":"Minnesota","state_ab":"MN","county":"Itasca","geo_location":{ "type": "Point", "coordinates": [-93.8498, 47.3829] }},
{"zip_code":"56209","country":"US","city":"Atwater","state":"Minnesota","state_ab":"MN","county":"Kandiyohi","geo_location":{ "type": "Point", "coordinates": [-94.7938, 45.1116] }},
{"zip_code":"56289","country":"US","city":"Sunburg","state":"Minnesota","state_ab":"MN","county":"Kandiyohi","geo_location":{ "type": "Point", "coordinates": [-95.2049, 45.3583] }},
{"zip_code":"56740","country":"US","city":"Noyes","state":"Minnesota","state_ab":"MN","county":"Kittson","geo_location":{ "type": "Point", "coordinates": [-96.8129, 48.7719] }},
{"zip_code":"56649","country":"US","city":"International Falls","state":"Minnesota","state_ab":"MN","county":"Koochiching","geo_location":{ "type": "Point", "coordinates": [-93.1317, 48.5344] }},
{"zip_code":"56623","country":"US","city":"Baudette","state":"Minnesota","state_ab":"MN","county":"Lake of the Woods","geo_location":{ "type": "Point", "coordinates": [-94.5995, 48.6927] }},
{"zip_code":"56069","country":"US","city":"Montgomery","state":"Minnesota","state_ab":"MN","county":"Le Sueur","geo_location":{ "type": "Point", "coordinates": [-93.581, 44.4356] }},
{"zip_code":"56096","country":"US","city":"Waterville","state":"Minnesota","state_ab":"MN","county":"Le Sueur","geo_location":{ "type": "Point", "coordinates": [-93.5751, 44.2238] }},
{"zip_code":"55336","country":"US","city":"Glencoe","state":"Minnesota","state_ab":"MN","county":"McLeod","geo_location":{ "type": "Point", "coordinates": [-94.1616, 44.778] }}]}