{"value": [{"zip_code":"92679","country":"US","city":"Trabuco Canyon","state":"California","state_ab":"CA","county":"Orange","geo_location":{ "type": "Point", "coordinates": [-117.5894, 33.6415] }},
{"zip_code":"92693","country":"US","city":"San Juan Capistrano","state":"California","state_ab":"CA","county":"Orange","geo_location":{ "type": "Point", "coordinates": [-117.6651, 33.4977] }},
{"zip_code":"92703","country":"US","city":"Santa Ana","state":"California","state_ab":"CA","county":"Orange","geo_location":{ "type": "Point", "coordinates": [-117.9072, 33.7489] }},
{"zip_code":"92716","country":"US","city":"Irvine","state":"California","state_ab":"CA","county":"Orange County","geo_location":{ "type": "Point", "coordinates": [-117.7646, 33.6698] }},
{"zip_code":"92730","country":"US","city":"Irvine","state":"California","state_ab":"CA","county":"Orange County","geo_location":{ "type": "Point", "coordinates": [-117.7646, 33.6698] }},
{"zip_code":"92806","country":"US","city":"Anaheim","state":"California","state_ab":"CA","county":"Orange","geo_location":{ "type": "Point", "coordinates": [-117.8681, 33.8356] }},
{"zip_code":"92833","country":"US","city":"Fullerton","state":"California","state_ab":"CA","county":"Orange","geo_location":{ "type": "Point", "coordinates": [-117.9551, 33.8766] }},
{"zip_code":"92846","country":"US","city":"Garden Grove","state":"California","state_ab":"CA","county":"Orange","geo_location":{ "type": "Point", "coordinates": [-118.0325, 33.788] }},
{"zip_code":"92859","country":"US","city":"Orange","state":"California","state_ab":"CA","county":"Orange","geo_location":{ "type": "Point", "coordinates": [-117.7867, 33.8027] }},
{"zip_code":"92886","country":"US","city":"Yorba Linda","state":"California","state_ab":"CA","county":"Orange","geo_location":{ "type": "Point", "coordinates": [-117.7865, 33.9058] }},
{"zip_code":"92899","country":"US","city":"Anaheim","state":"California","state_ab":"CA","county":"Orange","geo_location":{ "type": "Point", "coordinates": [-117.8712, 33.8373] }},
{"zip_code":"95650","country":"US","city":"Loomis","state":"California","state_ab":"CA","county":"Placer","geo_location":{ "type": "Point", "coordinates": [-121.1698, 38.8071] }},
{"zip_code":"95663","country":"US","city":"Penryn","state":"California","state_ab":"CA","county":"Placer","geo_location":{ "type": "Point", "coordinates": [-121.1791, 38.8567] }},
{"zip_code":"95713","country":"US","city":"Colfax","state":"California","state_ab":"CA","county":"Placer","geo_location":{ "type": "Point", "coordinates": [-120.9549, 39.0783] }},
{"zip_code":"96020","country":"US","city":"Chester","state":"California","state_ab":"CA","county":"Plumas","geo_location":{ "type": "Point", "coordinates": [-121.2273, 40.2975] }},
{"zip_code":"92226","country":"US","city":"Blythe","state":"California","state_ab":"CA","county":"Riverside","geo_location":{ "type": "Point", "coordinates": [-114.6525, 33.5987] }},
{"zip_code":"92239","country":"US","city":"Desert Center","state":"California","state_ab":"CA","county":"Riverside","geo_location":{ "type": "Point", "coordinates": [-115.3666, 33.809] }},
{"zip_code":"92240","country":"US","city":"Desert Hot Springs","state":"California","state_ab":"CA","county":"Riverside","geo_location":{ "type": "Point", "coordinates": [-116.5219, 33.9531] }},
{"zip_code":"92253","country":"US","city":"La Quinta","state":"California","state_ab":"CA","county":"Riverside","geo_location":{ "type": "Point", "coordinates": [-116.3081, 33.6685] }},
{"zip_code":"92509","country":"US","city":"Riverside","state":"California","state_ab":"CA","county":"Riverside","geo_location":{ "type": "Point", "coordinates": [-117.445, 34.0033] }},
{"zip_code":"92536","country":"US","city":"Aguanga","state":"California","state_ab":"CA","county":"Riverside","geo_location":{ "type": "Point", "coordinates": [-116.7997, 33.4473] }},
{"zip_code":"96059","country":"US","city":"Manton","state":"California","state_ab":"CA","county":"Tehama","geo_location":{ "type": "Point", "coordinates": [-121.8365, 40.4331] }},
{"zip_code":"96046","country":"US","city":"Hyampom","state":"California","state_ab":"CA","county":"Trinity","geo_location":{ "type": "Point", "coordinates": [-123.4488, 40.6137] }},
{"zip_code":"93256","country":"US","city":"Pixley","state":"California","state_ab":"CA","county":"Tulare","geo_location":{ "type": "Point", "coordinates": [-119.2564, 35.9553] }},
{"zip_code":"93270","country":"US","city":"Terra Bella","state":"California","state_ab":"CA","county":"Tulare","geo_location":{ "type": "Point", "coordinates": [-119.0312, 35.957] }},
{"zip_code":"93603","country":"US","city":"Badger","state":"California","state_ab":"CA","county":"Tulare","geo_location":{ "type": "Point", "coordinates": [-119.0162, 36.5683] }},
{"zip_code":"93670","country":"US","city":"Yettem","state":"California","state_ab":"CA","county":"Tulare","geo_location":{ "type": "Point", "coordinates": [-119.2594, 36.4718] }},
{"zip_code":"95379","country":"US","city":"Tuolumne","state":"California","state_ab":"CA","county":"Tuolumne","geo_location":{ "type": "Point", "coordinates": [-120.2357, 37.9678] }},
{"zip_code":"93009","country":"US","city":"Ventura","state":"California","state_ab":"CA","county":"Ventura","geo_location":{ "type": "Point", "coordinates": [-119.1462, 34.3562] }},
{"zip_code":"93010","country":"US","city":"Camarillo","state":"California","state_ab":"CA","county":"Ventura","geo_location":{ "type": "Point", "coordinates": [-119.0464, 34.2313] }},
{"zip_code":"93023","country":"US","city":"Ojai","state":"California","state_ab":"CA","county":"Ventura","geo_location":{ "type": "Point", "coordinates": [-119.2565, 34.4451] }},
{"zip_code":"93036","country":"US","city":"Oxnard","state":"California","state_ab":"CA","county":"Ventura County","geo_location":{ "type": "Point", "coordinates": [-119.182, 34.2351] }},
{"zip_code":"93063","country":"US","city":"Simi Valley","state":"California","state_ab":"CA","county":"Ventura","geo_location":{ "type": "Point", "coordinates": [-118.6844, 34.3046] }},
{"zip_code":"95919","country":"US","city":"Brownsville","state":"California","state_ab":"CA","county":"Yuba","geo_location":{ "type": "Point", "coordinates": [-121.2612, 39.4525] }},
{"zip_code":"80036","country":"US","city":"Westminster","state":"Colorado","state_ab":"CO","county":"Adams","geo_location":{ "type": "Point", "coordinates": [-104.4079, 39.808] }},
{"zip_code":"80229","country":"US","city":"Denver","state":"Colorado","state_ab":"CO","county":"Adams","geo_location":{ "type": "Point", "coordinates": [-104.9227, 39.8671] }},
{"zip_code":"80603","country":"US","city":"Brighton","state":"Colorado","state_ab":"CO","county":"Adams","geo_location":{ "type": "Point", "coordinates": [-104.7746, 39.9515] }},
{"zip_code":"80010","country":"US","city":"Aurora","state":"Colorado","state_ab":"CO","county":"Arapahoe","geo_location":{ "type": "Point", "coordinates": [-104.8646, 39.7368] }},
{"zip_code":"80113","country":"US","city":"Englewood","state":"Colorado","state_ab":"CO","county":"Arapahoe County","geo_location":{ "type": "Point", "coordinates": [-104.9614, 39.6405] }},
{"zip_code":"80166","country":"US","city":"Littleton","state":"Colorado","state_ab":"CO","county":"Arapahoe","geo_location":{ "type": "Point", "coordinates": [-104.4083, 39.7388] }},
{"zip_code":"80306","country":"US","city":"Boulder","state":"Colorado","state_ab":"CO","county":"Boulder","geo_location":{ "type": "Point", "coordinates": [-105.3847, 40.1022] }},
{"zip_code":"80540","country":"US","city":"Lyons","state":"Colorado","state_ab":"CO","county":"Boulder","geo_location":{ "type": "Point", "coordinates": [-105.3231, 40.2357] }},
{"zip_code":"80023","country":"US","city":"Broomfield","state":"Colorado","state_ab":"CO","county":"Broomfield County","geo_location":{ "type": "Point", "coordinates": [-105.0148, 39.9619] }},
{"zip_code":"80810","country":"US","city":"Cheyenne Wells","state":"Colorado","state_ab":"CO","county":"Cheyenne","geo_location":{ "type": "Point", "coordinates": [-102.3582, 38.8198] }},
{"zip_code":"81026","country":"US","city":"Eads","state":"Colorado","state_ab":"CO","county":"Cheyenne County","geo_location":{ "type": "Point", "coordinates": [-102.8213, 38.4496] }},
{"zip_code":"80436","country":"US","city":"Dumont","state":"Colorado","state_ab":"CO","county":"Clear Creek","geo_location":{ "type": "Point", "coordinates": [-105.6356, 39.7531] }},
{"zip_code":"80476","country":"US","city":"Silver Plume","state":"Colorado","state_ab":"CO","county":"Clear Creek","geo_location":{ "type": "Point", "coordinates": [-105.7507, 39.6996] }},
{"zip_code":"81129","country":"US","city":"Conejos","state":"Colorado","state_ab":"CO","county":"Conejos","geo_location":{ "type": "Point", "coordinates": [-106.0265, 37.1011] }},
{"zip_code":"81413","country":"US","city":"Cedaredge","state":"Colorado","state_ab":"CO","county":"Delta","geo_location":{ "type": "Point", "coordinates": [-107.9268, 38.9119] }},
{"zip_code":"80203","country":"US","city":"Denver","state":"Colorado","state_ab":"CO","county":"Denver","geo_location":{ "type": "Point", "coordinates": [-104.9811, 39.7313] }},
{"zip_code":"80216","country":"US","city":"Denver","state":"Colorado","state_ab":"CO","county":"Denver","geo_location":{ "type": "Point", "coordinates": [-104.9669, 39.7835] }},
{"zip_code":"80230","country":"US","city":"Denver","state":"Colorado","state_ab":"CO","county":"Denver","geo_location":{ "type": "Point", "coordinates": [-104.8951, 39.7218] }},
{"zip_code":"80243","country":"US","city":"Denver","state":"Colorado","state_ab":"CO","county":"Denver","geo_location":{ "type": "Point", "coordinates": [-104.4083, 39.7388] }},
{"zip_code":"80256","country":"US","city":"Denver","state":"Colorado","state_ab":"CO","county":"Denver","geo_location":{ "type": "Point", "coordinates": [-104.9928, 39.7474] }},
{"zip_code":"80270","country":"US","city":"Denver","state":"Colorado","state_ab":"CO","county":"Denver","geo_location":{ "type": "Point", "coordinates": [-104.4083, 39.7388] }},
{"zip_code":"80126","country":"US","city":"Littleton","state":"Colorado","state_ab":"CO","county":"Douglas","geo_location":{ "type": "Point", "coordinates": [-104.9691, 39.5437] }},
{"zip_code":"80423","country":"US","city":"Bond","state":"Colorado","state_ab":"CO","county":"Eagle","geo_location":{ "type": "Point", "coordinates": [-106.6763, 39.8691] }},
{"zip_code":"80463","country":"US","city":"Mc Coy","state":"Colorado","state_ab":"CO","county":"Eagle","geo_location":{ "type": "Point", "coordinates": [-106.7309, 39.9134] }},
{"zip_code":"81620","country":"US","city":"Avon","state":"Colorado","state_ab":"CO","county":"Eagle","geo_location":{ "type": "Point", "coordinates": [-106.5108, 39.6313] }},
{"zip_code":"80809","country":"US","city":"Cascade","state":"Colorado","state_ab":"CO","county":"El Paso","geo_location":{ "type": "Point", "coordinates": [-104.995, 38.9455] }},
{"zip_code":"80913","country":"US","city":"Colorado Springs","state":"Colorado","state_ab":"CO","county":"El Paso","geo_location":{ "type": "Point", "coordinates": [-104.7536, 38.73] }},
{"zip_code":"80926","country":"US","city":"Colorado Springs","state":"Colorado","state_ab":"CO","county":"El Paso","geo_location":{ "type": "Point", "coordinates": [-104.8505, 38.6981] }},
{"zip_code":"80939","country":"US","city":"Colorado Springs","state":"Colorado","state_ab":"CO","county":"El Paso County","geo_location":{ "type": "Point", "coordinates": [-104.6774, 38.8776] }},
{"zip_code":"80940","country":"US","city":"Colorado Springs","state":"Colorado","state_ab":"CO","county":"El Paso","geo_location":{ "type": "Point", "coordinates": [-104.562, 38.8247] }},
{"zip_code":"81233","country":"US","city":"Howard","state":"Colorado","state_ab":"CO","county":"Fremont","geo_location":{ "type": "Point", "coordinates": [-105.7698, 38.41] }},
{"zip_code":"81246","country":"US","city":"Canon City","state":"Colorado","state_ab":"CO","county":"Fremont","geo_location":{ "type": "Point", "coordinates": [-105.4766, 38.4776] }},
{"zip_code":"81040","country":"US","city":"Gardner","state":"Colorado","state_ab":"CO","county":"Huerfano","geo_location":{ "type": "Point", "coordinates": [-105.1849, 37.7878] }},
{"zip_code":"81066","country":"US","city":"Walsenburg","state":"Colorado","state_ab":"CO","county":"Huerfano","geo_location":{ "type": "Point", "coordinates": [-105.3042, 37.7199] }},
{"zip_code":"80836","country":"US","city":"Stratton","state":"Colorado","state_ab":"CO","county":"Kit Carson","geo_location":{ "type": "Point", "coordinates": [-102.5979, 39.3087] }},
{"zip_code":"80513","country":"US","city":"Berthoud","state":"Colorado","state_ab":"CO","county":"Larimer","geo_location":{ "type": "Point", "coordinates": [-105.1055, 40.2993] }},
{"zip_code":"80526","country":"US","city":"Fort Collins","state":"Colorado","state_ab":"CO","county":"Larimer","geo_location":{ "type": "Point", "coordinates": [-105.1076, 40.5473] }},
{"zip_code":"80539","country":"US","city":"Loveland","state":"Colorado","state_ab":"CO","county":"Larimer","geo_location":{ "type": "Point", "coordinates": [-105.1634, 40.3864] }},
{"zip_code":"80553","country":"US","city":"Fort Collins","state":"Colorado","state_ab":"CO","county":"Larimer","geo_location":{ "type": "Point", "coordinates": [-105.5692, 40.6281] }},
{"zip_code":"80823","country":"US","city":"Karval","state":"Colorado","state_ab":"CO","county":"Lincoln","geo_location":{ "type": "Point", "coordinates": [-103.5006, 38.7119] }},
{"zip_code":"81503","country":"US","city":"Grand Junction","state":"Colorado","state_ab":"CO","county":"Mesa","geo_location":{ "type": "Point", "coordinates": [-108.4361, 39.0307] }},
{"zip_code":"81646","country":"US","city":"Molina","state":"Colorado","state_ab":"CO","county":"Mesa","geo_location":{ "type": "Point", "coordinates": [-108.0765, 39.1652] }},
{"zip_code":"81130","country":"US","city":"Creede","state":"Colorado","state_ab":"CO","county":"Mineral","geo_location":{ "type": "Point", "coordinates": [-106.9277, 37.8164] }},
{"zip_code":"81633","country":"US","city":"Dinosaur","state":"Colorado","state_ab":"CO","county":"Moffat","geo_location":{ "type": "Point", "coordinates": [-108.399, 40.377] }},
{"zip_code":"81323","country":"US","city":"Dolores","state":"Colorado","state_ab":"CO","county":"Montezuma","geo_location":{ "type": "Point", "coordinates": [-108.4717, 37.4666] }},
{"zip_code":"81220","country":"US","city":"Cimarron","state":"Colorado","state_ab":"CO","county":"Montrose","geo_location":{ "type": "Point", "coordinates": [-107.4824, 38.3876] }},
{"zip_code":"80733","country":"US","city":"Hillrose","state":"Colorado","state_ab":"CO","county":"Morgan","geo_location":{ "type": "Point", "coordinates": [-103.5057, 40.3459] }},
{"zip_code":"81039","country":"US","city":"Fowler","state":"Colorado","state_ab":"CO","county":"Otero","geo_location":{ "type": "Point", "coordinates": [-104.0299, 38.1231] }},
{"zip_code":"80449","country":"US","city":"Hartsel","state":"Colorado","state_ab":"CO","county":"Park","geo_location":{ "type": "Point", "coordinates": [-105.8788, 38.9673] }},
{"zip_code":"80746","country":"US","city":"Paoli","state":"Colorado","state_ab":"CO","county":"Phillips","geo_location":{ "type": "Point", "coordinates": [-102.4722, 40.6106] }},
{"zip_code":"81013","country":"US","city":"Pueblo","state":"Colorado","state_ab":"CO","county":"Pueblo","geo_location":{ "type": "Point", "coordinates": [-104.5523, 38.1286] }},
{"zip_code":"81143","country":"US","city":"Moffat","state":"Colorado","state_ab":"CO","county":"Saguache","geo_location":{ "type": "Point", "coordinates": [-105.8411, 38.0452] }},
{"zip_code":"81426","country":"US","city":"Ophir","state":"Colorado","state_ab":"CO","county":"San Miguel","geo_location":{ "type": "Point", "coordinates": [-107.852, 37.8562] }},
{"zip_code":"80863","country":"US","city":"Woodland Park","state":"Colorado","state_ab":"CO","county":"Teller","geo_location":{ "type": "Point", "coordinates": [-105.0623, 38.9969] }},
{"zip_code":"80720","country":"US","city":"Akron","state":"Colorado","state_ab":"CO","county":"Washington","geo_location":{ "type": "Point", "coordinates": [-103.2259, 40.1803] }},
{"zip_code":"80643","country":"US","city":"Keenesburg","state":"Colorado","state_ab":"CO","county":"Weld","geo_location":{ "type": "Point", "coordinates": [-104.4464, 40.0958] }},
{"zip_code":"80759","country":"US","city":"Yuma","state":"Colorado","state_ab":"CO","county":"Yuma","geo_location":{ "type": "Point", "coordinates": [-102.7072, 40.1301] }},
{"zip_code":"6430","country":"US","city":"Fairfield","state":"Connecticut","state_ab":"CT","county":"Fairfield","geo_location":{ "type": "Point", "coordinates": [-73.2571, 41.1664] }},
{"zip_code":"6470","country":"US","city":"Newtown","state":"Connecticut","state_ab":"CT","county":"Fairfield","geo_location":{ "type": "Point", "coordinates": [-73.3167, 41.3931] }},
{"zip_code":"6610","country":"US","city":"Bridgeport","state":"Connecticut","state_ab":"CT","county":"Fairfield","geo_location":{ "type": "Point", "coordinates": [-73.1688, 41.2005] }},
{"zip_code":"6650","country":"US","city":"Bridgeport","state":"Connecticut","state_ab":"CT","county":"Fairfield","geo_location":{ "type": "Point", "coordinates": [-73.3637, 41.3089] }},
{"zip_code":"6816","country":"US","city":"Danbury","state":"Connecticut","state_ab":"CT","county":"Fairfield","geo_location":{ "type": "Point", "coordinates": [-73.3637, 41.3089] }},
{"zip_code":"6829","country":"US","city":"Georgetown","state":"Connecticut","state_ab":"CT","county":"Fairfield","geo_location":{ "type": "Point", "coordinates": [-73.4279, 41.2555] }},
{"zip_code":"6830","country":"US","city":"Greenwich","state":"Connecticut","state_ab":"CT","county":"Fairfield","geo_location":{ "type": "Point", "coordinates": [-73.6262, 41.0427] }},
{"zip_code":"6856","country":"US","city":"Norwalk","state":"Connecticut","state_ab":"CT","county":"Fairfield","geo_location":{ "type": "Point", "coordinates": [-73.4204, 41.1112] }},
{"zip_code":"6870","country":"US","city":"Old Greenwich","state":"Connecticut","state_ab":"CT","county":"Fairfield","geo_location":{ "type": "Point", "coordinates": [-73.5673, 41.0354] }},
{"zip_code":"6883","country":"US","city":"Weston","state":"Connecticut","state_ab":"CT","county":"Fairfield","geo_location":{ "type": "Point", "coordinates": [-73.3715, 41.2195] }},
{"zip_code":"6896","country":"US","city":"Redding","state":"Connecticut","state_ab":"CT","county":"Fairfield","geo_location":{ "type": "Point", "coordinates": [-73.3863, 41.2711] }},
{"zip_code":"6906","country":"US","city":"Stamford","state":"Connecticut","state_ab":"CT","county":"Fairfield","geo_location":{ "type": "Point", "coordinates": [-73.5236, 41.0692] }},
{"zip_code":"6920","country":"US","city":"Stamford","state":"Connecticut","state_ab":"CT","county":"Fairfield","geo_location":{ "type": "Point", "coordinates": [-73.3637, 41.3089] }},
{"zip_code":"6016","country":"US","city":"Broad Brook","state":"Connecticut","state_ab":"CT","county":"Hartford","geo_location":{ "type": "Point", "coordinates": [-72.5444, 41.9042] }},
{"zip_code":"6030","country":"US","city":"Farmington","state":"Connecticut","state_ab":"CT","county":"Hartford","geo_location":{ "type": "Point", "coordinates": [-72.7188, 41.7918] }},
{"zip_code":"6070","country":"US","city":"Simsbury","state":"Connecticut","state_ab":"CT","county":"Hartford","geo_location":{ "type": "Point", "coordinates": [-72.8213, 41.8737] }},
{"zip_code":"6083","country":"US","city":"Enfield","state":"Connecticut","state_ab":"CT","county":"Hartford","geo_location":{ "type": "Point", "coordinates": [-72.7188, 41.7918] }},
{"zip_code":"6096","country":"US","city":"Windsor Locks","state":"Connecticut","state_ab":"CT","county":"Hartford","geo_location":{ "type": "Point", "coordinates": [-72.6458, 41.9261] }},
{"zip_code":"6106","country":"US","city":"Hartford","state":"Connecticut","state_ab":"CT","county":"Hartford","geo_location":{ "type": "Point", "coordinates": [-72.6947, 41.7498] }},
{"zip_code":"6119","country":"US","city":"West Hartford","state":"Connecticut","state_ab":"CT","county":"Hartford","geo_location":{ "type": "Point", "coordinates": [-72.7268, 41.7628] }},
{"zip_code":"6120","country":"US","city":"Hartford","state":"Connecticut","state_ab":"CT","county":"Hartford","geo_location":{ "type": "Point", "coordinates": [-72.6758, 41.786] }},
{"zip_code":"6133","country":"US","city":"West Hartford","state":"Connecticut","state_ab":"CT","county":"Hartford","geo_location":{ "type": "Point", "coordinates": [-72.7188, 41.7918] }},
{"zip_code":"6146","country":"US","city":"Hartford","state":"Connecticut","state_ab":"CT","county":"Hartford","geo_location":{ "type": "Point", "coordinates": [-72.7188, 41.7918] }},
{"zip_code":"6160","country":"US","city":"Hartford","state":"Connecticut","state_ab":"CT","county":"Hartford","geo_location":{ "type": "Point", "coordinates": [-72.6933, 41.7665] }},
{"zip_code":"6199","country":"US","city":"Hartford","state":"Connecticut","state_ab":"CT","county":"Hartford","geo_location":{ "type": "Point", "coordinates": [-72.6804, 41.9274] }},
{"zip_code":"6069","country":"US","city":"Sharon","state":"Connecticut","state_ab":"CT","county":"Litchfield","geo_location":{ "type": "Point", "coordinates": [-73.4578, 41.8714] }},
{"zip_code":"6753","country":"US","city":"Cornwall","state":"Connecticut","state_ab":"CT","county":"Litchfield","geo_location":{ "type": "Point", "coordinates": [-73.3323, 41.8281] }},
{"zip_code":"6779","country":"US","city":"Oakville","state":"Connecticut","state_ab":"CT","county":"Litchfield","geo_location":{ "type": "Point", "coordinates": [-73.0873, 41.5909] }},
{"zip_code":"6793","country":"US","city":"Washington","state":"Connecticut","state_ab":"CT","county":"Litchfield","geo_location":{ "type": "Point", "coordinates": [-73.2884, 41.6296] }},
{"zip_code":"6416","country":"US","city":"Cromwell","state":"Connecticut","state_ab":"CT","county":"Middlesex","geo_location":{ "type": "Point", "coordinates": [-72.6663, 41.6105] }},
{"zip_code":"6456","country":"US","city":"Middle Haddam","state":"Connecticut","state_ab":"CT","county":"Middlesex","geo_location":{ "type": "Point", "coordinates": [-72.5252, 41.538] }},
{"zip_code":"6469","country":"US","city":"Moodus","state":"Connecticut","state_ab":"CT","county":"Middlesex","geo_location":{ "type": "Point", "coordinates": [-72.4419, 41.5078] }},
{"zip_code":"6403","country":"US","city":"Beacon Falls","state":"Connecticut","state_ab":"CT","county":"New Haven","geo_location":{ "type": "Point", "coordinates": [-73.0597, 41.4369] }},
{"zip_code":"6443","country":"US","city":"Madison","state":"Connecticut","state_ab":"CT","county":"New Haven","geo_location":{ "type": "Point", "coordinates": [-72.6153, 41.309] }},
{"zip_code":"6483","country":"US","city":"Seymour","state":"Connecticut","state_ab":"CT","county":"New Haven","geo_location":{ "type": "Point", "coordinates": [-73.0817, 41.3862] }},
{"zip_code":"6506","country":"US","city":"New Haven","state":"Connecticut","state_ab":"CT","county":"New Haven","geo_location":{ "type": "Point", "coordinates": [-72.9275, 41.3657] }},
{"zip_code":"6519","country":"US","city":"New Haven","state":"Connecticut","state_ab":"CT","county":"New Haven","geo_location":{ "type": "Point", "coordinates": [-72.9373, 41.2963] }},
{"zip_code":"6520","country":"US","city":"New Haven","state":"Connecticut","state_ab":"CT","county":"New Haven","geo_location":{ "type": "Point", "coordinates": [-72.9275, 41.3657] }},
{"zip_code":"6533","country":"US","city":"New Haven","state":"Connecticut","state_ab":"CT","county":"New Haven","geo_location":{ "type": "Point", "coordinates": [-72.9275, 41.3657] }},
{"zip_code":"6726","country":"US","city":"Waterbury","state":"Connecticut","state_ab":"CT","county":"New Haven","geo_location":{ "type": "Point", "coordinates": [-72.9275, 41.3657] }},
{"zip_code":"6249","country":"US","city":"Lebanon","state":"Connecticut","state_ab":"CT","county":"New London","geo_location":{ "type": "Point", "coordinates": [-72.244, 41.633] }},
{"zip_code":"6339","country":"US","city":"Ledyard","state":"Connecticut","state_ab":"CT","county":"New London","geo_location":{ "type": "Point", "coordinates": [-71.9956, 41.4401] }},
{"zip_code":"6340","country":"US","city":"Groton","state":"Connecticut","state_ab":"CT","county":"New London","geo_location":{ "type": "Point", "coordinates": [-72.0579, 41.3572] }},
{"zip_code":"6353","country":"US","city":"Montville","state":"Connecticut","state_ab":"CT","county":"New London","geo_location":{ "type": "Point", "coordinates": [-72.1375, 41.4525] }},
{"zip_code":"6379","country":"US","city":"Pawcatuck","state":"Connecticut","state_ab":"CT","county":"New London","geo_location":{ "type": "Point", "coordinates": [-71.8478, 41.3735] }},
{"zip_code":"6380","country":"US","city":"Taftville","state":"Connecticut","state_ab":"CT","county":"New London","geo_location":{ "type": "Point", "coordinates": [-72.0529, 41.5653] }},
{"zip_code":"6029","country":"US","city":"Ellington","state":"Connecticut","state_ab":"CT","county":"Tolland","geo_location":{ "type": "Point", "coordinates": [-72.4626, 41.9114] }},
{"zip_code":"6043","country":"US","city":"Bolton","state":"Connecticut","state_ab":"CT","county":"Tolland","geo_location":{ "type": "Point", "coordinates": [-72.4396, 41.7689] }},
{"zip_code":"6250","country":"US","city":"Mansfield Center","state":"Connecticut","state_ab":"CT","county":"Tolland","geo_location":{ "type": "Point", "coordinates": [-72.2011, 41.7698] }},
{"zip_code":"6263","country":"US","city":"Rogers","state":"Connecticut","state_ab":"CT","county":"Windham","geo_location":{ "type": "Point", "coordinates": [-71.9063, 41.8391] }},
{"zip_code":"20003","country":"US","city":"Washington","state":"District of Columbia","state_ab":"DC","county":"District of Columbia","geo_location":{ "type": "Point", "coordinates": [-76.9895, 38.8829] }},
{"zip_code":"20016","country":"US","city":"Washington","state":"District of Columbia","state_ab":"DC","county":"District of Columbia","geo_location":{ "type": "Point", "coordinates": [-77.086, 38.9381] }},
{"zip_code":"20029","country":"US","city":"Washington","state":"District of Columbia","state_ab":"DC","county":"District of Columbia","geo_location":{ "type": "Point", "coordinates": [-77.0146, 38.8933] }},
{"zip_code":"20030","country":"US","city":"Washington","state":"District of Columbia","state_ab":"DC","county":"District of Columbia","geo_location":{ "type": "Point", "coordinates": [-77.0146, 38.8933] }},
{"zip_code":"20043","country":"US","city":"Washington","state":"District of Columbia","state_ab":"DC","county":"District of Columbia","geo_location":{ "type": "Point", "coordinates": [-77.0146, 38.8933] }},
{"zip_code":"20056","country":"US","city":"Washington","state":"District of Columbia","state_ab":"DC","county":"District of Columbia","geo_location":{ "type": "Point", "coordinates": [-77.0146, 38.8933] }},
{"zip_code":"20069","country":"US","city":"Washington","state":"District of Columbia","state_ab":"DC","county":"District of Columbia","geo_location":{ "type": "Point", "coordinates": [-77.0146, 38.8933] }},
{"zip_code":"20070","country":"US","city":"Washington","state":"District of Columbia","state_ab":"DC","county":"District of Columbia","geo_location":{ "type": "Point", "coordinates": [-77.0146, 38.8933] }},
{"zip_code":"20209","country":"US","city":"Washington","state":"District of Columbia","state_ab":"DC","county":"District of Columbia","geo_location":{ "type": "Point", "coordinates": [-77.0162, 38.9051] }},
{"zip_code":"20210","country":"US","city":"Washington","state":"District of Columbia","state_ab":"DC","county":"District of Columbia","geo_location":{ "type": "Point", "coordinates": [-77.0146, 38.8933] }},
{"zip_code":"20223","country":"US","city":"Washington","state":"District of Columbia","state_ab":"DC","county":"District of Columbia","geo_location":{ "type": "Point", "coordinates": [-77.0146, 38.8933] }},
{"zip_code":"20250","country":"US","city":"Washington","state":"District of Columbia","state_ab":"DC","county":"District of Columbia","geo_location":{ "type": "Point", "coordinates": [-77.0327, 38.8873] }},
{"zip_code":"20289","country":"US","city":"Washington","state":"District of Columbia","state_ab":"DC","county":"District of Columbia","geo_location":{ "type": "Point", "coordinates": [-77.0146, 38.8933] }},
{"zip_code":"20340","country":"US","city":"Washington","state":"District of Columbia","state_ab":"DC","county":"District of Columbia","geo_location":{ "type": "Point", "coordinates": [-77.0146, 38.8933] }},
{"zip_code":"20380","country":"US","city":"Washington","state":"District of Columbia","state_ab":"DC","county":"District of Columbia","geo_location":{ "type": "Point", "coordinates": [-77.0146, 38.8933] }},
{"zip_code":"20393","country":"US","city":"Washington","state":"District of Columbia","state_ab":"DC","county":"District of Columbia","geo_location":{ "type": "Point", "coordinates": [-77.0146, 38.8933] }},
{"zip_code":"20403","country":"US","city":"Washington","state":"District of Columbia","state_ab":"DC","county":"District of Columbia","geo_location":{ "type": "Point", "coordinates": [-77.0146, 38.8933] }},
{"zip_code":"20416","country":"US","city":"Washington","state":"District of Columbia","state_ab":"DC","county":"District of Columbia","geo_location":{ "type": "Point", "coordinates": [-77.0146, 38.8933] }},
{"zip_code":"20429","country":"US","city":"Washington","state":"District of Columbia","state_ab":"DC","county":"District of Columbia","geo_location":{ "type": "Point", "coordinates": [-77.0146, 38.8933] }},
{"zip_code":"20430","country":"US","city":"Washington","state":"District of Columbia","state_ab":"DC","county":"District of Columbia","geo_location":{ "type": "Point", "coordinates": [-76.9948, 38.9164] }},
{"zip_code":"20456","country":"US","city":"Washington","state":"District of Columbia","state_ab":"DC","county":"District of Columbia","geo_location":{ "type": "Point", "coordinates": [-77.0401, 38.8981] }},
{"zip_code":"20469","country":"US","city":"Washington","state":"District of Columbia","state_ab":"DC","county":"District of Columbia","geo_location":{ "type": "Point", "coordinates": [-77.0146, 38.8933] }},
{"zip_code":"20470","country":"US","city":"Washington","state":"District of Columbia","state_ab":"DC","county":"District of Columbia","geo_location":{ "type": "Point", "coordinates": [-77.0146, 38.8933] }},
{"zip_code":"20506","country":"US","city":"Washington","state":"District of Columbia","state_ab":"DC","county":"District of Columbia","geo_location":{ "type": "Point", "coordinates": [-77.0377, 38.8994] }},
{"zip_code":"20520","country":"US","city":"Washington","state":"District of Columbia","state_ab":"DC","county":"District of Columbia","geo_location":{ "type": "Point", "coordinates": [-77.049, 38.8932] }},
{"zip_code":"20533","country":"US","city":"Washington","state":"District of Columbia","state_ab":"DC","county":"District of Columbia","geo_location":{ "type": "Point", "coordinates": [-77.0326, 38.9011] }},
{"zip_code":"20546","country":"US","city":"Washington","state":"District of Columbia","state_ab":"DC","county":"District of Columbia","geo_location":{ "type": "Point", "coordinates": [-77.0211, 38.891] }},
{"zip_code":"20559","country":"US","city":"Washington","state":"District of Columbia","state_ab":"DC","county":"District of Columbia","geo_location":{ "type": "Point", "coordinates": [-77.0047, 38.8874] }},
{"zip_code":"20560","country":"US","city":"Washington","state":"District of Columbia","state_ab":"DC","county":"District of Columbia","geo_location":{ "type": "Point", "coordinates": [-77.0146, 38.8933] }},
{"zip_code":"20573","country":"US","city":"Washington","state":"District of Columbia","state_ab":"DC","county":"District of Columbia","geo_location":{ "type": "Point", "coordinates": [-77.0146, 38.8933] }},
{"zip_code":"20586","country":"US","city":"Washington","state":"District of Columbia","state_ab":"DC","county":"District of Columbia","geo_location":{ "type": "Point", "coordinates": [-77.0474, 38.9022] }},
{"zip_code":"20599","country":"US","city":"Washington","state":"District of Columbia","state_ab":"DC","county":"District of Columbia","geo_location":{ "type": "Point", "coordinates": [-77.0146, 38.8933] }},
{"zip_code":"19906","country":"US","city":"Dover","state":"Delaware","state_ab":"DE","county":"Kent County","geo_location":{ "type": "Point", "coordinates": [-75.5294, 39.157] }},
{"zip_code":"19946","country":"US","city":"Frederica","state":"Delaware","state_ab":"DE","county":"Kent","geo_location":{ "type": "Point", "coordinates": [-75.4545, 39.0342] }},
{"zip_code":"19713","country":"US","city":"Newark","state":"Delaware","state_ab":"DE","county":"New Castle","geo_location":{ "type": "Point", "coordinates": [-75.7151, 39.6699] }},
{"zip_code":"19726","country":"US","city":"Newark","state":"Delaware","state_ab":"DE","county":"New Castle","geo_location":{ "type": "Point", "coordinates": [-75.597, 39.5645] }},
{"zip_code":"19803","country":"US","city":"Wilmington","state":"Delaware","state_ab":"DE","county":"New Castle","geo_location":{ "type": "Point", "coordinates": [-75.5317, 39.7994] }},
{"zip_code":"19896","country":"US","city":"Wilmington","state":"Delaware","state_ab":"DE","county":"New Castle","geo_location":{ "type": "Point", "coordinates": [-75.597, 39.5645] }},
{"zip_code":"19933","country":"US","city":"Bridgeville","state":"Delaware","state_ab":"DE","county":"Sussex","geo_location":{ "type": "Point", "coordinates": [-75.6088, 38.7366] }},
{"zip_code":"19960","country":"US","city":"Lincoln","state":"Delaware","state_ab":"DE","county":"Sussex","geo_location":{ "type": "Point", "coordinates": [-75.4, 38.8613] }},
{"zip_code":"19973","country":"US","city":"Seaford","state":"Delaware","state_ab":"DE","county":"Sussex","geo_location":{ "type": "Point", "coordinates": [-75.6041, 38.6404] }},
{"zip_code":"32606","country":"US","city":"Gainesville","state":"Florida","state_ab":"FL","county":"Alachua","geo_location":{ "type": "Point", "coordinates": [-82.4023, 29.6954] }},
{"zip_code":"32633","country":"US","city":"Evinston","state":"Florida","state_ab":"FL","county":"Alachua","geo_location":{ "type": "Point", "coordinates": [-82.3539, 29.6813] }},
{"zip_code":"32040","country":"US","city":"Glen Saint Mary","state":"Florida","state_ab":"FL","county":"Baker","geo_location":{ "type": "Point", "coordinates": [-82.2041, 30.2861] }},
{"zip_code":"32413","country":"US","city":"Panama City Beach","state":"Florida","state_ab":"FL","county":"Bay","geo_location":{ "type": "Point", "coordinates": [-85.9106, 30.3105] }},
{"zip_code":"32466","country":"US","city":"Youngstown","state":"Florida","state_ab":"FL","county":"Bay","geo_location":{ "type": "Point", "coordinates": [-85.5169, 30.3269] }},
{"zip_code":"32903","country":"US","city":"Indialantic","state":"Florida","state_ab":"FL","county":"Brevard","geo_location":{ "type": "Point", "coordinates": [-80.5787, 28.1091] }},
{"zip_code":"32956","country":"US","city":"Rockledge","state":"Florida","state_ab":"FL","county":"Brevard","geo_location":{ "type": "Point", "coordinates": [-80.7323, 28.3298] }},
{"zip_code":"33029","country":"US","city":"Hollywood","state":"Florida","state_ab":"FL","county":"Broward","geo_location":{ "type": "Point", "coordinates": [-80.4089, 25.9924] }},
{"zip_code":"33069","country":"US","city":"Pompano Beach","state":"Florida","state_ab":"FL","county":"Broward","geo_location":{ "type": "Point", "coordinates": [-80.1635, 26.2288] }},
{"zip_code":"33083","country":"US","city":"Hollywood","state":"Florida","state_ab":"FL","county":"Broward","geo_location":{ "type": "Point", "coordinates": [-80.4483, 26.1457] }},
{"zip_code":"33313","country":"US","city":"Fort Lauderdale","state":"Florida","state_ab":"FL","county":"Broward","geo_location":{ "type": "Point", "coordinates": [-80.2075, 26.1487] }},
{"zip_code":"33326","country":"US","city":"Weston","state":"Florida","state_ab":"FL","county":"Broward","geo_location":{ "type": "Point", "coordinates": [-80.3681, 26.1158] }},
{"zip_code":"33339","country":"US","city":"Fort Lauderdale","state":"Florida","state_ab":"FL","county":"Broward","geo_location":{ "type": "Point", "coordinates": [-80.4483, 26.1457] }},
{"zip_code":"33340","country":"US","city":"Fort Lauderdale","state":"Florida","state_ab":"FL","county":"Broward","geo_location":{ "type": "Point", "coordinates": [-80.4483, 26.1457] }},
{"zip_code":"33443","country":"US","city":"Deerfield Beach","state":"Florida","state_ab":"FL","county":"Broward","geo_location":{ "type": "Point", "coordinates": [-80.4483, 26.1457] }},
{"zip_code":"33973","country":"US","city":"Lehigh Acres","state":"Florida","state_ab":"FL","county":"Broward County","geo_location":{ "type": "Point", "coordinates": [-81.7311, 26.602] }},
{"zip_code":"33946","country":"US","city":"Placida","state":"Florida","state_ab":"FL","county":"Charlotte","geo_location":{ "type": "Point", "coordinates": [-82.274, 26.848] }},
{"zip_code":"99546","country":"US","city":"Adak","state":"Alaska","state_ab":"AK","county":"Aleutians West (CA)","geo_location":{ "type": "Point", "coordinates": [-176.6581, 51.88] }},
{"zip_code":"99506","country":"US","city":"Elmendorf Afb","state":"Alaska","state_ab":"AK","county":"Anchorage Municipality","geo_location":{ "type": "Point", "coordinates": [-149.8127, 61.2515] }},
{"zip_code":"99519","country":"US","city":"Anchorage","state":"Alaska","state_ab":"AK","county":"Anchorage Municipality","geo_location":{ "type": "Point", "coordinates": [-149.4403, 61.1089] }},
{"zip_code":"99520","country":"US","city":"Anchorage","state":"Alaska","state_ab":"AK","county":"Anchorage Municipality","geo_location":{ "type": "Point", "coordinates": [-149.4403, 61.1089] }},
{"zip_code":"99599","country":"US","city":"Anchorage","state":"Alaska","state_ab":"AK","county":"Anchorage Municipality","geo_location":{ "type": "Point", "coordinates": [-149.8804, 61.1872] }},
{"zip_code":"99559","country":"US","city":"Bethel","state":"Alaska","state_ab":"AK","county":"Bethel (CA)","geo_location":{ "type": "Point", "coordinates": [-162.1739, 60.13] }},
{"zip_code":"99609","country":"US","city":"Kasigluk","state":"Alaska","state_ab":"AK","county":"Bethel (CA)","geo_location":{ "type": "Point", "coordinates": [-163.1189, 60.3147] }},
{"zip_code":"99690","country":"US","city":"Nightmute","state":"Alaska","state_ab":"AK","county":"Bethel (CA)","geo_location":{ "type": "Point", "coordinates": [-163.1189, 60.3147] }},
{"zip_code":"99636","country":"US","city":"New Stuyahok","state":"Alaska","state_ab":"AK","county":"Dillingham (CA)","geo_location":{ "type": "Point", "coordinates": [-157.2905, 59.4882] }},
{"zip_code":"99803","country":"US","city":"Juneau","state":"Alaska","state_ab":"AK","county":"Juneau City and Boroug","geo_location":{ "type": "Point", "coordinates": [-134.6174, 58.3771] }},
{"zip_code":"99610","country":"US","city":"Kasilof","state":"Alaska","state_ab":"AK","county":"Kenai Peninsula","geo_location":{ "type": "Point", "coordinates": [-151.2896, 60.3164] }},
{"zip_code":"99663","country":"US","city":"Seldovia","state":"Alaska","state_ab":"AK","county":"Kenai Peninsula","geo_location":{ "type": "Point", "coordinates": [-151.7009, 59.4495] }},
{"zip_code":"99649","country":"US","city":"Pilot Point","state":"Alaska","state_ab":"AK","county":"Lake and Peninsula","geo_location":{ "type": "Point", "coordinates": [-157.4493, 57.5952] }},
{"zip_code":"99623","country":"US","city":"Wasilla","state":"Alaska","state_ab":"AK","county":"Matanuska-Susitna Borough","geo_location":{ "type": "Point", "coordinates": [-149.5901, 61.5463] }},
{"zip_code":"99676","country":"US","city":"Talkeetna","state":"Alaska","state_ab":"AK","county":"Matanuska-Susitna","geo_location":{ "type": "Point", "coordinates": [-150.1101, 62.2605] }},
{"zip_code":"99739","country":"US","city":"Elim","state":"Alaska","state_ab":"AK","county":"Nome (CA)","geo_location":{ "type": "Point", "coordinates": [-162.2604, 64.6217] }},
{"zip_code":"99753","country":"US","city":"Koyuk","state":"Alaska","state_ab":"AK","county":"Nome (CA)","geo_location":{ "type": "Point", "coordinates": [-165.6723, 64.7556] }},
{"zip_code":"99766","country":"US","city":"Point Hope","state":"Alaska","state_ab":"AK","county":"North Slope","geo_location":{ "type": "Point", "coordinates": [-153.994, 66.6933] }},
{"zip_code":"99919","country":"US","city":"Thorne Bay","state":"Alaska","state_ab":"AK","county":"Prince of Wales-Outer","geo_location":{ "type": "Point", "coordinates": [-132.5138, 55.6609] }},
{"zip_code":"99689","country":"US","city":"Yakutat","state":"Alaska","state_ab":"AK","county":"Skagway-Hoonah-Angoon","geo_location":{ "type": "Point", "coordinates": [-139.5505, 59.812] }},
{"zip_code":"99829","country":"US","city":"Hoonah","state":"Alaska","state_ab":"AK","county":"Skagway-Hoonah-Angoon","geo_location":{ "type": "Point", "coordinates": [-135.4316, 58.0977] }},
{"zip_code":"99779","country":"US","city":"Tetlin","state":"Alaska","state_ab":"AK","county":"Southeast Fairbanks (C","geo_location":{ "type": "Point", "coordinates": [-144.0026, 63.8706] }},
{"zip_code":"99780","country":"US","city":"Tok","state":"Alaska","state_ab":"AK","county":"Southeast Fairbanks (C","geo_location":{ "type": "Point", "coordinates": [-144.0026, 63.8706] }},
{"zip_code":"99573","country":"US","city":"Copper Center","state":"Alaska","state_ab":"AK","county":"Valdez-Cordova (CA)","geo_location":{ "type": "Point", "coordinates": [-144.991, 61.471] }},
{"zip_code":"99586","country":"US","city":"Gakona","state":"Alaska","state_ab":"AK","county":"Valdez-Cordova (CA)","geo_location":{ "type": "Point", "coordinates": [-144.1105, 62.6682] }},
{"zip_code":"99650","country":"US","city":"Pilot Station","state":"Alaska","state_ab":"AK","county":"Wade Hampton (CA)","geo_location":{ "type": "Point", "coordinates": [-162.8747, 61.9462] }},
{"zip_code":"99830","country":"US","city":"Kake","state":"Alaska","state_ab":"AK","county":"Wrangell-Petersburg (C","geo_location":{ "type": "Point", "coordinates": [-133.936, 56.9736] }},
{"zip_code":"99726","country":"US","city":"Bettles Field","state":"Alaska","state_ab":"AK","county":"Yukon-Koyukuk (CA)","geo_location":{ "type": "Point", "coordinates": [-151.0251, 65.2264] }},
{"zip_code":"99740","country":"US","city":"Fort Yukon","state":"Alaska","state_ab":"AK","county":"Yukon-Koyukuk (CA)","geo_location":{ "type": "Point", "coordinates": [-151.0251, 65.2264] }},
{"zip_code":"36066","country":"US","city":"Prattville","state":"Alabama","state_ab":"AL","county":"Autauga","geo_location":{ "type": "Point", "coordinates": [-86.43, 32.4787] }},
{"zip_code":"36749","country":"US","city":"Jones","state":"Alabama","state_ab":"AL","county":"Autauga","geo_location":{ "type": "Point", "coordinates": [-86.8138, 32.5104] }},
{"zip_code":"36530","country":"US","city":"Elberta","state":"Alabama","state_ab":"AL","county":"Baldwin","geo_location":{ "type": "Point", "coordinates": [-87.589, 30.3942] }},
{"zip_code":"35049","country":"US","city":"Cleveland","state":"Alabama","state_ab":"AL","county":"Blount","geo_location":{ "type": "Point", "coordinates": [-86.5598, 33.9778] }},
{"zip_code":"36053","country":"US","city":"Midway","state":"Alabama","state_ab":"AL","county":"Bullock","geo_location":{ "type": "Point", "coordinates": [-85.5315, 32.0955] }},
{"zip_code":"36206","country":"US","city":"Anniston","state":"Alabama","state_ab":"AL","county":"Calhoun","geo_location":{ "type": "Point", "coordinates": [-85.8389, 33.7191] }},
{"zip_code":"36260","country":"US","city":"Eastaboga","state":"Alabama","state_ab":"AL","county":"Calhoun","geo_location":{ "type": "Point", "coordinates": [-85.9608, 33.6031] }},
{"zip_code":"36750","country":"US","city":"Maplesville","state":"Alabama","state_ab":"AL","county":"Chilton","geo_location":{ "type": "Point", "coordinates": [-86.8717, 32.8045] }},
{"zip_code":"36790","country":"US","city":"Stanton","state":"Alabama","state_ab":"AL","county":"Chilton","geo_location":{ "type": "Point", "coordinates": [-86.8963, 32.7332] }},
{"zip_code":"36903","country":"US","city":"Butler","state":"Alabama","state_ab":"AL","county":"Choctaw County","geo_location":{ "type": "Point", "coordinates": [-88.131, 32.1413] }},
{"zip_code":"36916","country":"US","city":"Pennington","state":"Alabama","state_ab":"AL","county":"Choctaw","geo_location":{ "type": "Point", "coordinates": [-88.049, 32.2094] }},
{"zip_code":"36570","country":"US","city":"Salitpa","state":"Alabama","state_ab":"AL","county":"Clarke","geo_location":{ "type": "Point", "coordinates": [-87.8409, 31.5884] }},
{"zip_code":"36273","country":"US","city":"Ranburne","state":"Alabama","state_ab":"AL","county":"Cleburne","geo_location":{ "type": "Point", "coordinates": [-85.3786, 33.5616] }},
{"zip_code":"36323","country":"US","city":"Elba","state":"Alabama","state_ab":"AL","county":"Coffee","geo_location":{ "type": "Point", "coordinates": [-86.0777, 31.4137] }},
{"zip_code":"36453","country":"US","city":"Kinston","state":"Alabama","state_ab":"AL","county":"Coffee","geo_location":{ "type": "Point", "coordinates": [-86.1514, 31.1926] }},
{"zip_code":"35616","country":"US","city":"Cherokee","state":"Alabama","state_ab":"AL","county":"Colbert","geo_location":{ "type": "Point", "coordinates": [-87.9724, 34.7442] }},
{"zip_code":"35089","country":"US","city":"Kellyton","state":"Alabama","state_ab":"AL","county":"Coosa","geo_location":{ "type": "Point", "coordinates": [-86.0484, 32.9791] }},
{"zip_code":"36026","country":"US","city":"Equality","state":"Alabama","state_ab":"AL","county":"Coosa","geo_location":{ "type": "Point", "coordinates": [-86.1051, 32.8139] }},
{"zip_code":"35179","country":"US","city":"Vinemont","state":"Alabama","state_ab":"AL","county":"Cullman","geo_location":{ "type": "Point", "coordinates": [-86.9125, 34.2621] }},
{"zip_code":"36350","country":"US","city":"Midland City","state":"Alabama","state_ab":"AL","county":"Dale","geo_location":{ "type": "Point", "coordinates": [-85.513, 31.3672] }},
{"zip_code":"36080","country":"US","city":"Titus","state":"Alabama","state_ab":"AL","county":"Elmore","geo_location":{ "type": "Point", "coordinates": [-86.2393, 32.69] }},
{"zip_code":"36093","country":"US","city":"Wetumpka","state":"Alabama","state_ab":"AL","county":"Elmore","geo_location":{ "type": "Point", "coordinates": [-86.0994, 32.5622] }},
{"zip_code":"36426","country":"US","city":"Brewton","state":"Alabama","state_ab":"AL","county":"Escambia","geo_location":{ "type": "Point", "coordinates": [-87.0961, 31.1294] }},
{"zip_code":"36503","country":"US","city":"Atmore","state":"Alabama","state_ab":"AL","county":"Escambia","geo_location":{ "type": "Point", "coordinates": [-87.1521, 31.1282] }},
{"zip_code":"36543","country":"US","city":"Huxford","state":"Alabama","state_ab":"AL","county":"Escambia","geo_location":{ "type": "Point", "coordinates": [-87.4615, 31.2161] }},
{"zip_code":"35593","country":"US","city":"Vina","state":"Alabama","state_ab":"AL","county":"Franklin","geo_location":{ "type": "Point", "coordinates": [-88.0774, 34.3712] }},
{"zip_code":"36349","country":"US","city":"Malvern","state":"Alabama","state_ab":"AL","county":"Geneva","geo_location":{ "type": "Point", "coordinates": [-85.5592, 31.1212] }},
{"zip_code":"36776","country":"US","city":"Sawyerville","state":"Alabama","state_ab":"AL","county":"Hale","geo_location":{ "type": "Point", "coordinates": [-87.7402, 32.7578] }},
{"zip_code":"36310","country":"US","city":"Abbeville","state":"Alabama","state_ab":"AL","county":"Henry","geo_location":{ "type": "Point", "coordinates": [-85.279, 31.5755] }},
{"zip_code":"36376","country":"US","city":"Webb","state":"Alabama","state_ab":"AL","county":"Houston","geo_location":{ "type": "Point", "coordinates": [-85.2544, 31.2656] }},
{"zip_code":"35746","country":"US","city":"Fackler","state":"Alabama","state_ab":"AL","county":"Jackson","geo_location":{ "type": "Point", "coordinates": [-85.9846, 34.8259] }},
{"zip_code":"35966","country":"US","city":"Flat Rock","state":"Alabama","state_ab":"AL","county":"Jackson","geo_location":{ "type": "Point", "coordinates": [-85.7084, 34.8076] }},
{"zip_code":"35979","country":"US","city":"Higdon","state":"Alabama","state_ab":"AL","county":"Jackson","geo_location":{ "type": "Point", "coordinates": [-85.6196, 34.8391] }},
{"zip_code":"35023","country":"US","city":"Bessemer","state":"Alabama","state_ab":"AL","county":"Jefferson","geo_location":{ "type": "Point", "coordinates": [-87.0924, 33.468] }},
{"zip_code":"35036","country":"US","city":"Brookside","state":"Alabama","state_ab":"AL","county":"Jefferson","geo_location":{ "type": "Point", "coordinates": [-86.9162, 33.6363] }},
{"zip_code":"35126","country":"US","city":"Pinson","state":"Alabama","state_ab":"AL","county":"Jefferson","geo_location":{ "type": "Point", "coordinates": [-86.6451, 33.7299] }},
{"zip_code":"35139","country":"US","city":"Sayre","state":"Alabama","state_ab":"AL","county":"Jefferson","geo_location":{ "type": "Point", "coordinates": [-86.9759, 33.7111] }},
{"zip_code":"35180","country":"US","city":"Warrior","state":"Alabama","state_ab":"AL","county":"Jefferson","geo_location":{ "type": "Point", "coordinates": [-86.8198, 33.8529] }},
{"zip_code":"35203","country":"US","city":"Birmingham","state":"Alabama","state_ab":"AL","county":"Jefferson","geo_location":{ "type": "Point", "coordinates": [-86.8066, 33.521] }},
{"zip_code":"35216","country":"US","city":"Birmingham","state":"Alabama","state_ab":"AL","county":"Jefferson","geo_location":{ "type": "Point", "coordinates": [-86.7867, 33.4188] }},
{"zip_code":"35229","country":"US","city":"Birmingham","state":"Alabama","state_ab":"AL","county":"Jefferson","geo_location":{ "type": "Point", "coordinates": [-86.7904, 33.4629] }},
{"zip_code":"35230","country":"US","city":"Birmingham","state":"Alabama","state_ab":"AL","county":"Jefferson","geo_location":{ "type": "Point", "coordinates": [-86.9292, 33.5446] }},
{"zip_code":"35243","country":"US","city":"Birmingham","state":"Alabama","state_ab":"AL","county":"Jefferson","geo_location":{ "type": "Point", "coordinates": [-86.7502, 33.4459] }},
{"zip_code":"35283","country":"US","city":"Birmingham","state":"Alabama","state_ab":"AL","county":"Jefferson","geo_location":{ "type": "Point", "coordinates": [-86.9292, 33.5446] }},
{"zip_code":"35296","country":"US","city":"Birmingham","state":"Alabama","state_ab":"AL","county":"Jefferson","geo_location":{ "type": "Point", "coordinates": [-86.9292, 33.5446] }},
{"zip_code":"35630","country":"US","city":"Florence","state":"Alabama","state_ab":"AL","county":"Lauderdale","geo_location":{ "type": "Point", "coordinates": [-87.656, 34.8305] }},
{"zip_code":"35643","country":"US","city":"Hillsboro","state":"Alabama","state_ab":"AL","county":"Lawrence","geo_location":{ "type": "Point", "coordinates": [-87.1804, 34.6476] }},
{"zip_code":"36879","country":"US","city":"Waverly","state":"Alabama","state_ab":"AL","county":"Lee","geo_location":{ "type": "Point", "coordinates": [-85.5144, 32.7632] }},
{"zip_code":"36040","country":"US","city":"Hayneville","state":"Alabama","state_ab":"AL","county":"Lowndes","geo_location":{ "type": "Point", "coordinates": [-86.655, 32.1957] }},
{"zip_code":"36039","country":"US","city":"Hardaway","state":"Alabama","state_ab":"AL","county":"Macon","geo_location":{ "type": "Point", "coordinates": [-85.8838, 32.3129] }},
{"zip_code":"36866","country":"US","city":"Notasulga","state":"Alabama","state_ab":"AL","county":"Macon","geo_location":{ "type": "Point", "coordinates": [-85.6871, 32.5437] }},
{"zip_code":"35759","country":"US","city":"Meridianville","state":"Alabama","state_ab":"AL","county":"Madison","geo_location":{ "type": "Point", "coordinates": [-86.5789, 34.8618] }},
{"zip_code":"35760","country":"US","city":"New Hope","state":"Alabama","state_ab":"AL","county":"Madison","geo_location":{ "type": "Point", "coordinates": [-86.3961, 34.5494] }},
{"zip_code":"35773","country":"US","city":"Toney","state":"Alabama","state_ab":"AL","county":"Madison","geo_location":{ "type": "Point", "coordinates": [-86.7, 34.9116] }},
{"zip_code":"35809","country":"US","city":"Huntsville","state":"Alabama","state_ab":"AL","county":"Madison","geo_location":{ "type": "Point", "coordinates": [-86.5229, 34.734] }},
{"zip_code":"35810","country":"US","city":"Huntsville","state":"Alabama","state_ab":"AL","county":"Madison","geo_location":{ "type": "Point", "coordinates": [-86.6091, 34.7784] }},
{"zip_code":"36736","country":"US","city":"Dixons Mills","state":"Alabama","state_ab":"AL","county":"Marengo","geo_location":{ "type": "Point", "coordinates": [-87.7454, 32.0672] }},
{"zip_code":"36763","country":"US","city":"Myrtlewood","state":"Alabama","state_ab":"AL","county":"Marengo","geo_location":{ "type": "Point", "coordinates": [-87.9494, 32.2516] }},
{"zip_code":"35980","country":"US","city":"Horton","state":"Alabama","state_ab":"AL","county":"Marshall","geo_location":{ "type": "Point", "coordinates": [-86.3173, 34.19] }},
{"zip_code":"36606","country":"US","city":"Mobile","state":"Alabama","state_ab":"AL","county":"Mobile","geo_location":{ "type": "Point", "coordinates": [-88.1009, 30.6729] }},
{"zip_code":"36619","country":"US","city":"Mobile","state":"Alabama","state_ab":"AL","county":"Mobile","geo_location":{ "type": "Point", "coordinates": [-88.1946, 30.5928] }},
{"zip_code":"36633","country":"US","city":"Mobile","state":"Alabama","state_ab":"AL","county":"Mobile","geo_location":{ "type": "Point", "coordinates": [-88.178, 30.6589] }},
{"zip_code":"36660","country":"US","city":"Mobile","state":"Alabama","state_ab":"AL","county":"Mobile","geo_location":{ "type": "Point", "coordinates": [-88.178, 30.6589] }},
{"zip_code":"36439","country":"US","city":"Excel","state":"Alabama","state_ab":"AL","county":"Monroe","geo_location":{ "type": "Point", "coordinates": [-87.3393, 31.4295] }},
{"zip_code":"36480","country":"US","city":"Uriah","state":"Alabama","state_ab":"AL","county":"Monroe","geo_location":{ "type": "Point", "coordinates": [-87.5705, 31.3135] }},
{"zip_code":"36013","country":"US","city":"Cecil","state":"Alabama","state_ab":"AL","county":"Montgomery","geo_location":{ "type": "Point", "coordinates": [-85.9827, 32.2937] }},
{"zip_code":"36103","country":"US","city":"Montgomery","state":"Alabama","state_ab":"AL","county":"Montgomery","geo_location":{ "type": "Point", "coordinates": [-86.2873, 32.3462] }},
{"zip_code":"36116","country":"US","city":"Montgomery","state":"Alabama","state_ab":"AL","county":"Montgomery","geo_location":{ "type": "Point", "coordinates": [-86.2421, 32.3129] }},
{"zip_code":"36130","country":"US","city":"Montgomery","state":"Alabama","state_ab":"AL","county":"Montgomery","geo_location":{ "type": "Point", "coordinates": [-86.2085, 32.2334] }},
{"zip_code":"36196","country":"US","city":"Montgomery","state":"Alabama","state_ab":"AL","county":"Montgomery County","geo_location":{ "type": "Point", "coordinates": [-86.2843, 32.3544] }},
{"zip_code":"35603","country":"US","city":"Decatur","state":"Alabama","state_ab":"AL","county":"Morgan","geo_location":{ "type": "Point", "coordinates": [-87.0004, 34.5484] }},
{"zip_code":"35670","country":"US","city":"Somerville","state":"Alabama","state_ab":"AL","county":"Morgan","geo_location":{ "type": "Point", "coordinates": [-86.8009, 34.4995] }},
{"zip_code":"36079","country":"US","city":"Troy","state":"Alabama","state_ab":"AL","county":"Pike","geo_location":{ "type": "Point", "coordinates": [-86.0107, 31.7595] }},
{"zip_code":"35953","country":"US","city":"Ashville","state":"Alabama","state_ab":"AL","county":"St. Clair","geo_location":{ "type": "Point", "coordinates": [-86.2552, 33.8374] }},
{"zip_code":"35010","country":"US","city":"Alexander City","state":"Alabama","state_ab":"AL","county":"Tallapoosa","geo_location":{ "type": "Point", "coordinates": [-85.9368, 32.9164] }},
{"zip_code":"36853","country":"US","city":"Dadeville","state":"Alabama","state_ab":"AL","county":"Tallapoosa","geo_location":{ "type": "Point", "coordinates": [-85.7704, 32.8224] }},
{"zip_code":"35449","country":"US","city":"Coaling","state":"Alabama","state_ab":"AL","county":"Tuscaloosa","geo_location":{ "type": "Point", "coordinates": [-87.3384, 33.1359] }},
{"zip_code":"35463","country":"US","city":"Fosters","state":"Alabama","state_ab":"AL","county":"Tuscaloosa","geo_location":{ "type": "Point", "coordinates": [-87.6975, 33.0843] }},
{"zip_code":"35476","country":"US","city":"Northport","state":"Alabama","state_ab":"AL","county":"Tuscaloosa","geo_location":{ "type": "Point", "coordinates": [-87.5943, 33.2273] }},
{"zip_code":"35490","country":"US","city":"Vance","state":"Alabama","state_ab":"AL","county":"Tuscaloosa","geo_location":{ "type": "Point", "coordinates": [-87.2574, 33.175] }},
{"zip_code":"35063","country":"US","city":"Empire","state":"Alabama","state_ab":"AL","county":"Walker","geo_location":{ "type": "Point", "coordinates": [-87.0161, 33.8256] }},
{"zip_code":"35579","country":"US","city":"Oakman","state":"Alabama","state_ab":"AL","county":"Walker","geo_location":{ "type": "Point", "coordinates": [-87.3686, 33.7002] }},
{"zip_code":"35580","country":"US","city":"Parrish","state":"Alabama","state_ab":"AL","county":"Walker","geo_location":{ "type": "Point", "coordinates": [-87.2658, 33.7213] }},
{"zip_code":"36529","country":"US","city":"Deer Park","state":"Alabama","state_ab":"AL","county":"Washington","geo_location":{ "type": "Point", "coordinates": [-88.3273, 31.1849] }},
{"zip_code":"36556","country":"US","city":"Malcolm","state":"Alabama","state_ab":"AL","county":"Washington","geo_location":{ "type": "Point", "coordinates": [-88.1758, 31.4067] }},
{"zip_code":"36569","country":"US","city":"Saint Stephens","state":"Alabama","state_ab":"AL","county":"Washington","geo_location":{ "type": "Point", "coordinates": [-88.0521, 31.533] }},
{"zip_code":"36583","country":"US","city":"Tibbie","state":"Alabama","state_ab":"AL","county":"Washington","geo_location":{ "type": "Point", "coordinates": [-88.1758, 31.4067] }},
{"zip_code":"36723","country":"US","city":"Boykin","state":"Alabama","state_ab":"AL","county":"Wilcox","geo_location":{ "type": "Point", "coordinates": [-87.2949, 32.0824] }},
{"zip_code":"35256","country":"US","city":"Birmingham","state":"Alabama","state_ab":"AL","county":"Winston County","geo_location":{ "type": "Point", "coordinates": [-86.7833, 33.531] }},
{"zip_code":"35540","country":"US","city":"Addison","state":"Alabama","state_ab":"AL","county":"Winston","geo_location":{ "type": "Point", "coordinates": [-87.1948, 34.2056] }},
{"zip_code":"35553","country":"US","city":"Double Springs","state":"Alabama","state_ab":"AL","county":"Winston","geo_location":{ "type": "Point", "coordinates": [-87.3974, 34.1387] }},
{"zip_code":"96536","country":"US","city":"FPO","state":"","state_ab":"AP","county":"New Castle","geo_location":{ "type": "Point", "coordinates": [-87.6087, 30.3559] }},
{"zip_code":"72026","country":"US","city":"Casscoe","state":"Arkansas","state_ab":"AR","county":"Arkansas","geo_location":{ "type": "Point", "coordinates": [-91.299, 34.5095] }},
{"zip_code":"72659","country":"US","city":"Norfork","state":"Arkansas","state_ab":"AR","county":"Baxter","geo_location":{ "type": "Point", "coordinates": [-92.3726, 36.2364] }},
{"zip_code":"72736","country":"US","city":"Gravette","state":"Arkansas","state_ab":"AR","county":"Benton","geo_location":{ "type": "Point", "coordinates": [-94.4779, 36.4155] }},
{"zip_code":"72260","country":"US","city":"Little Rock","state":"Arkansas","state_ab":"AR","county":"Boone County","geo_location":{ "type": "Point", "coordinates": [-92.34, 34.7399] }},
{"zip_code":"72633","country":"US","city":"Everton","state":"Arkansas","state_ab":"AR","county":"Boone","geo_location":{ "type": "Point", "coordinates": [-92.915, 36.1534] }},
{"zip_code":"72660","country":"US","city":"Oak Grove","state":"Arkansas","state_ab":"AR","county":"Carroll","geo_location":{ "type": "Point", "coordinates": [-93.4321, 36.4613] }},
{"zip_code":"72453","country":"US","city":"Peach Orchard","state":"Arkansas","state_ab":"AR","county":"Clay","geo_location":{ "type": "Point", "coordinates": [-90.6702, 36.283] }},
{"zip_code":"72130","country":"US","city":"Prim","state":"Arkansas","state_ab":"AR","county":"Cleburne","geo_location":{ "type": "Point", "coordinates": [-92.0933, 35.6674] }},
{"zip_code":"72530","country":"US","city":"Drasco","state":"Arkansas","state_ab":"AR","county":"Cleburne","geo_location":{ "type": "Point", "coordinates": [-91.9398, 35.6616] }},
{"zip_code":"72543","country":"US","city":"Heber Springs","state":"Arkansas","state_ab":"AR","county":"Cleburne","geo_location":{ "type": "Point", "coordinates": [-92.0392, 35.5103] }},
{"zip_code":"72080","country":"US","city":"Jerusalem","state":"Arkansas","state_ab":"AR","county":"Conway","geo_location":{ "type": "Point", "coordinates": [-92.8251, 35.5699] }},
{"zip_code":"72156","country":"US","city":"Solgohachia","state":"Arkansas","state_ab":"AR","county":"Conway","geo_location":{ "type": "Point", "coordinates": [-92.6754, 35.2701] }},
{"zip_code":"72956","country":"US","city":"Van Buren","state":"Arkansas","state_ab":"AR","county":"Crawford","geo_location":{ "type": "Point", "coordinates": [-94.3278, 35.454] }},
{"zip_code":"72323","country":"US","city":"Chatfield","state":"Arkansas","state_ab":"AR","county":"Crittenden County","geo_location":{ "type": "Point", "coordinates": [-90.3972, 35.0058] }},
{"zip_code":"72376","country":"US","city":"Proctor","state":"Arkansas","state_ab":"AR","county":"Crittenden","geo_location":{ "type": "Point", "coordinates": [-90.255, 35.0834] }},
{"zip_code":"71630","country":"US","city":"Arkansas City","state":"Arkansas","state_ab":"AR","county":"Desha","geo_location":{ "type": "Point", "coordinates": [-91.2325, 33.6143] }},
{"zip_code":"71670","country":"US","city":"Tillar","state":"Arkansas","state_ab":"AR","county":"Desha","geo_location":{ "type": "Point", "coordinates": [-91.4433, 33.6981] }},
{"zip_code":"71656","country":"US","city":"Monticello","state":"Arkansas","state_ab":"AR","county":"Drew","geo_location":{ "type": "Point", "coordinates": [-91.8124, 33.5913] }},
{"zip_code":"72039","country":"US","city":"Damascus","state":"Arkansas","state_ab":"AR","county":"Faulkner","geo_location":{ "type": "Point", "coordinates": [-92.4014, 35.3024] }},
{"zip_code":"72930","country":"US","city":"Cecil","state":"Arkansas","state_ab":"AR","county":"Franklin","geo_location":{ "type": "Point", "coordinates": [-94.0409, 35.4252] }},
{"zip_code":"72583","country":"US","city":"Viola","state":"Arkansas","state_ab":"AR","county":"Fulton","geo_location":{ "type": "Point", "coordinates": [-91.9932, 36.3924] }},
{"zip_code":"71913","country":"US","city":"Hot Springs National Park","state":"Arkansas","state_ab":"AR","county":"Garland","geo_location":{ "type": "Point", "coordinates": [-93.043, 34.4689] }},
{"zip_code":"72129","country":"US","city":"Prattsville","state":"Arkansas","state_ab":"AR","county":"Grant","geo_location":{ "type": "Point", "coordinates": [-92.5131, 34.3079] }},
{"zip_code":"72439","country":"US","city":"Light","state":"Arkansas","state_ab":"AR","county":"Greene","geo_location":{ "type": "Point", "coordinates": [-90.7489, 36.068] }},
{"zip_code":"72503","country":"US","city":"Batesville","state":"Arkansas","state_ab":"AR","county":"Independence","geo_location":{ "type": "Point", "coordinates": [-91.5343, 35.7346] }},
{"zip_code":"72516","country":"US","city":"Boswell","state":"Arkansas","state_ab":"AR","county":"Izard","geo_location":{ "type": "Point", "coordinates": [-91.9447, 36.0643] }},
{"zip_code":"72556","country":"US","city":"Melbourne","state":"Arkansas","state_ab":"AR","county":"Izard","geo_location":{ "type": "Point", "coordinates": [-91.9079, 36.0635] }},
{"zip_code":"72169","country":"US","city":"Tupelo","state":"Arkansas","state_ab":"AR","county":"Jackson","geo_location":{ "type": "Point", "coordinates": [-91.2232, 35.3844] }},
{"zip_code":"71603","country":"US","city":"Pine Bluff","state":"Arkansas","state_ab":"AR","county":"Jefferson","geo_location":{ "type": "Point", "coordinates": [-92.0448, 34.1897] }},
{"zip_code":"72079","country":"US","city":"Jefferson","state":"Arkansas","state_ab":"AR","county":"Jefferson","geo_location":{ "type": "Point", "coordinates": [-92.2029, 34.3934] }},
{"zip_code":"72839","country":"US","city":"Hagarville","state":"Arkansas","state_ab":"AR","county":"Johnson","geo_location":{ "type": "Point", "coordinates": [-93.2726, 35.6155] }},
{"zip_code":"72840","country":"US","city":"Hartman","state":"Arkansas","state_ab":"AR","county":"Johnson","geo_location":{ "type": "Point", "coordinates": [-93.6142, 35.4436] }},
{"zip_code":"72440","country":"US","city":"Lynn","state":"Arkansas","state_ab":"AR","county":"Lawrence","geo_location":{ "type": "Point", "coordinates": [-91.2676, 35.9813] }},
{"zip_code":"72466","country":"US","city":"Smithville","state":"Arkansas","state_ab":"AR","county":"Lawrence","geo_location":{ "type": "Point", "coordinates": [-91.2745, 36.0908] }},
{"zip_code":"71643","country":"US","city":"Gould","state":"Arkansas","state_ab":"AR","county":"Lincoln","geo_location":{ "type": "Point", "coordinates": [-91.5768, 34.0345] }},
{"zip_code":"71836","country":"US","city":"Foreman","state":"Arkansas","state_ab":"AR","county":"Little River","geo_location":{ "type": "Point", "coordinates": [-94.3881, 33.7176] }},
{"zip_code":"72826","country":"US","city":"Blue Mountain","state":"Arkansas","state_ab":"AR","county":"Logan","geo_location":{ "type": "Point", "coordinates": [-93.6183, 35.1602] }},
{"zip_code":"72943","country":"US","city":"Magazine","state":"Arkansas","state_ab":"AR","county":"Logan","geo_location":{ "type": "Point", "coordinates": [-93.8003, 35.1587] }},
{"zip_code":"72776","country":"US","city":"Witter","state":"Arkansas","state_ab":"AR","county":"Madison","geo_location":{ "type": "Point", "coordinates": [-93.621, 35.9356] }},
{"zip_code":"72619","country":"US","city":"Bull Shoals","state":"Arkansas","state_ab":"AR","county":"Marion","geo_location":{ "type": "Point", "coordinates": [-92.5938, 36.371] }},
{"zip_code":"72310","country":"US","city":"Armorel","state":"Arkansas","state_ab":"AR","county":"Mississippi","geo_location":{ "type": "Point", "coordinates": [-89.9728, 35.852] }},
{"zip_code":"72350","country":"US","city":"Joiner","state":"Arkansas","state_ab":"AR","county":"Mississippi","geo_location":{ "type": "Point", "coordinates": [-90.1478, 35.5052] }},
{"zip_code":"72426","country":"US","city":"Dell","state":"Arkansas","state_ab":"AR","county":"Mississippi","geo_location":{ "type": "Point", "coordinates": [-90.0556, 35.854] }},
{"zip_code":"71966","country":"US","city":"Oden","state":"Arkansas","state_ab":"AR","county":"Montgomery","geo_location":{ "type": "Point", "coordinates": [-93.6646, 34.543] }},
{"zip_code":"71720","country":"US","city":"Bearden","state":"Arkansas","state_ab":"AR","county":"Ouachita","geo_location":{ "type": "Point", "coordinates": [-92.618, 33.7298] }},
{"zip_code":"72389","country":"US","city":"Wabash","state":"Arkansas","state_ab":"AR","county":"Phillips","geo_location":{ "type": "Point", "coordinates": [-90.8869, 34.3466] }},
{"zip_code":"72390","country":"US","city":"West Helena","state":"Arkansas","state_ab":"AR","county":"Phillips","geo_location":{ "type": "Point", "coordinates": [-90.6545, 34.5496] }},
{"zip_code":"71940","country":"US","city":"Delight","state":"Arkansas","state_ab":"AR","county":"Pike","geo_location":{ "type": "Point", "coordinates": [-93.5247, 34.0238] }},
{"zip_code":"72479","country":"US","city":"Weiner","state":"Arkansas","state_ab":"AR","county":"Poinsett","geo_location":{ "type": "Point", "coordinates": [-90.9289, 35.6291] }},
{"zip_code":"71953","country":"US","city":"Mena","state":"Arkansas","state_ab":"AR","county":"Polk","geo_location":{ "type": "Point", "coordinates": [-94.221, 34.5814] }},
{"zip_code":"72040","country":"US","city":"Des Arc","state":"Arkansas","state_ab":"AR","county":"Prairie","geo_location":{ "type": "Point", "coordinates": [-91.5113, 34.9751] }},
{"zip_code":"72066","country":"US","city":"Hickory Plains","state":"Arkansas","state_ab":"AR","county":"Prairie","geo_location":{ "type": "Point", "coordinates": [-91.5738, 34.7855] }},
{"zip_code":"72170","country":"US","city":"Ulm","state":"Arkansas","state_ab":"AR","county":"Prairie","geo_location":{ "type": "Point", "coordinates": [-91.4633, 34.5772] }},
{"zip_code":"72053","country":"US","city":"College Station","state":"Arkansas","state_ab":"AR","county":"Pulaski","geo_location":{ "type": "Point", "coordinates": [-92.2283, 34.7093] }},
{"zip_code":"72103","country":"US","city":"Mabelvale","state":"Arkansas","state_ab":"AR","county":"Pulaski","geo_location":{ "type": "Point", "coordinates": [-92.3849, 34.6478] }},
{"zip_code":"72116","country":"US","city":"North Little Rock","state":"Arkansas","state_ab":"AR","county":"Pulaski","geo_location":{ "type": "Point", "coordinates": [-92.2305, 34.8059] }},
{"zip_code":"72183","country":"US","city":"Wrightsville","state":"Arkansas","state_ab":"AR","county":"Pulaski","geo_location":{ "type": "Point", "coordinates": [-92.1938, 34.6012] }},
{"zip_code":"72206","country":"US","city":"Little Rock","state":"Arkansas","state_ab":"AR","county":"Pulaski","geo_location":{ "type": "Point", "coordinates": [-92.2776, 34.6836] }},
{"zip_code":"72219","country":"US","city":"Little Rock","state":"Arkansas","state_ab":"AR","county":"Pulaski","geo_location":{ "type": "Point", "coordinates": [-92.3925, 34.7519] }},
{"zip_code":"72413","country":"US","city":"Biggers","state":"Arkansas","state_ab":"AR","county":"Randolph","geo_location":{ "type": "Point", "coordinates": [-90.8538, 36.2844] }},
{"zip_code":"72336","country":"US","city":"Forrest City","state":"Arkansas","state_ab":"AR","county":"St. Francis","geo_location":{ "type": "Point", "coordinates": [-90.7261, 35.1009] }},
{"zip_code":"72686","country":"US","city":"Witts Springs","state":"Arkansas","state_ab":"AR","county":"Searcy","geo_location":{ "type": "Point", "coordinates": [-92.9, 35.7478] }},
{"zip_code":"72903","country":"US","city":"Fort Smith","state":"Arkansas","state_ab":"AR","county":"Sebastian","geo_location":{ "type": "Point", "coordinates": [-94.3784, 35.3427] }},
{"zip_code":"72916","country":"US","city":"Fort Smith","state":"Arkansas","state_ab":"AR","county":"Sebastian","geo_location":{ "type": "Point", "coordinates": [-94.3703, 35.2502] }},
{"zip_code":"71823","country":"US","city":"Ben Lomond","state":"Arkansas","state_ab":"AR","county":"Sevier","geo_location":{ "type": "Point", "coordinates": [-94.1251, 33.8115] }},
{"zip_code":"72529","country":"US","city":"Cherokee Village","state":"Arkansas","state_ab":"AR","county":"Sharp","geo_location":{ "type": "Point", "coordinates": [-91.5281, 36.3011] }},
{"zip_code":"72569","country":"US","city":"Poughkeepsie","state":"Arkansas","state_ab":"AR","county":"Sharp","geo_location":{ "type": "Point", "coordinates": [-91.4516, 36.0715] }},
{"zip_code":"71759","country":"US","city":"Norphlet","state":"Arkansas","state_ab":"AR","county":"Union","geo_location":{ "type": "Point", "coordinates": [-92.6616, 33.325] }},
{"zip_code":"72013","country":"US","city":"Bee Branch","state":"Arkansas","state_ab":"AR","county":"Van Buren","geo_location":{ "type": "Point", "coordinates": [-92.3779, 35.4683] }},
{"zip_code":"72749","country":"US","city":"Morrow","state":"Arkansas","state_ab":"AR","county":"Washington","geo_location":{ "type": "Point", "coordinates": [-94.4432, 35.8654] }},
{"zip_code":"72143","country":"US","city":"Searcy","state":"Arkansas","state_ab":"AR","county":"White","geo_location":{ "type": "Point", "coordinates": [-91.7317, 35.2436] }},
{"zip_code":"72853","country":"US","city":"Ola","state":"Arkansas","state_ab":"AR","county":"Yell","geo_location":{ "type": "Point", "coordinates": [-93.2136, 35.0309] }},
{"zip_code":"85930","country":"US","city":"Mcnary","state":"Arizona","state_ab":"AZ","county":"Apache","geo_location":{ "type": "Point", "coordinates": [-109.8532, 34.0754] }},
{"zip_code":"86506","country":"US","city":"Houck","state":"Arizona","state_ab":"AZ","county":"Apache","geo_location":{ "type": "Point", "coordinates": [-109.2478, 35.3371] }},
{"zip_code":"85606","country":"US","city":"Cochise","state":"Arizona","state_ab":"AZ","county":"Cochise","geo_location":{ "type": "Point", "coordinates": [-109.9239, 32.0979] }},
{"zip_code":"85620","country":"US","city":"Naco","state":"Arizona","state_ab":"AZ","county":"Cochise","geo_location":{ "type": "Point", "coordinates": [-109.9413, 31.3373] }},
{"zip_code":"86003","country":"US","city":"Flagstaff","state":"Arizona","state_ab":"AZ","county":"Coconino","geo_location":{ "type": "Point", "coordinates": [-112.0524, 35.6308] }},
{"zip_code":"86016","country":"US","city":"Gray Mountain","state":"Arizona","state_ab":"AZ","county":"Coconino","geo_location":{ "type": "Point", "coordinates": [-111.6188, 35.7504] }},
{"zip_code":"86339","country":"US","city":"Sedona","state":"Arizona","state_ab":"AZ","county":"Coconino","geo_location":{ "type": "Point", "coordinates": [-111.7286, 34.9072] }},
{"zip_code":"85530","country":"US","city":"Bylas","state":"Arizona","state_ab":"AZ","county":"Graham","geo_location":{ "type": "Point", "coordinates": [-110.117, 33.1265] }},
{"zip_code":"33739","country":"US","city":"Saint Petersburg","state":"Florida","state_ab":"FL","county":"Pinellas County","geo_location":{ "type": "Point", "coordinates": [-82.6405, 27.733] }},
{"zip_code":"33740","country":"US","city":"Saint Petersburg","state":"Florida","state_ab":"FL","county":"Pinellas","geo_location":{ "type": "Point", "coordinates": [-82.7248, 27.8918] }},
{"zip_code":"33766","country":"US","city":"Clearwater","state":"Florida","state_ab":"FL","county":"Pinellas","geo_location":{ "type": "Point", "coordinates": [-82.7248, 27.8918] }},
{"zip_code":"33779","country":"US","city":"Largo","state":"Florida","state_ab":"FL","county":"Pinellas","geo_location":{ "type": "Point", "coordinates": [-82.7725, 27.8397] }},
{"zip_code":"33780","country":"US","city":"Pinellas Park","state":"Florida","state_ab":"FL","county":"Pinellas","geo_location":{ "type": "Point", "coordinates": [-82.7248, 27.8918] }},
{"zip_code":"34640","country":"US","city":"Largo","state":"Florida","state_ab":"FL","county":"Pinellas County","geo_location":{ "type": "Point", "coordinates": [-82.8014, 27.916] }},
{"zip_code":"34666","country":"US","city":"Pinellas Park","state":"Florida","state_ab":"FL","county":"Pinellas County","geo_location":{ "type": "Point", "coordinates": [-82.7094, 27.8609] }},
{"zip_code":"33803","country":"US","city":"Lakeland","state":"Florida","state_ab":"FL","county":"Polk","geo_location":{ "type": "Point", "coordinates": [-81.9523, 28.014] }},
{"zip_code":"33830","country":"US","city":"Bartow","state":"Florida","state_ab":"FL","county":"Polk","geo_location":{ "type": "Point", "coordinates": [-81.8127, 27.8957] }},
{"zip_code":"33843","country":"US","city":"Frostproof","state":"Florida","state_ab":"FL","county":"Polk","geo_location":{ "type": "Point", "coordinates": [-81.5148, 27.7211] }},
{"zip_code":"33856","country":"US","city":"Nalcrest","state":"Florida","state_ab":"FL","county":"Polk","geo_location":{ "type": "Point", "coordinates": [-81.4309, 27.8557] }},
{"zip_code":"33883","country":"US","city":"Winter Haven","state":"Florida","state_ab":"FL","county":"Polk","geo_location":{ "type": "Point", "coordinates": [-81.6186, 28.0026] }},
{"zip_code":"33896","country":"US","city":"Davenport","state":"Florida","state_ab":"FL","county":"Polk","geo_location":{ "type": "Point", "coordinates": [-81.6509, 28.2531] }},
{"zip_code":"32080","country":"US","city":"Saint Augustine","state":"Florida","state_ab":"FL","county":"St. Johns","geo_location":{ "type": "Point", "coordinates": [-81.2649, 29.7964] }},
{"zip_code":"32259","country":"US","city":"Jacksonville","state":"Florida","state_ab":"FL","county":"St. Johns","geo_location":{ "type": "Point", "coordinates": [-81.6217, 30.0956] }},
{"zip_code":"32260","country":"US","city":"Jacksonville","state":"Florida","state_ab":"FL","county":"St. Johns","geo_location":{ "type": "Point", "coordinates": [-81.4206, 29.9377] }},
{"zip_code":"34949","country":"US","city":"Fort Pierce","state":"Florida","state_ab":"FL","county":"St. Lucie","geo_location":{ "type": "Point", "coordinates": [-80.2615, 27.3896] }},
{"zip_code":"34950","country":"US","city":"Fort Pierce","state":"Florida","state_ab":"FL","county":"St. Lucie","geo_location":{ "type": "Point", "coordinates": [-80.3385, 27.4486] }},
{"zip_code":"32530","country":"US","city":"Bagdad","state":"Florida","state_ab":"FL","county":"Santa Rosa","geo_location":{ "type": "Point", "coordinates": [-87.0315, 30.5986] }},
{"zip_code":"32570","country":"US","city":"Milton","state":"Florida","state_ab":"FL","county":"Santa Rosa","geo_location":{ "type": "Point", "coordinates": [-87.0473, 30.6604] }},
{"zip_code":"32583","country":"US","city":"Milton","state":"Florida","state_ab":"FL","county":"Santa Rosa","geo_location":{ "type": "Point", "coordinates": [-87.0663, 30.5761] }},
{"zip_code":"34239","country":"US","city":"Sarasota","state":"Florida","state_ab":"FL","county":"Sarasota","geo_location":{ "type": "Point", "coordinates": [-82.5195, 27.3111] }},
{"zip_code":"34240","country":"US","city":"Sarasota","state":"Florida","state_ab":"FL","county":"Sarasota","geo_location":{ "type": "Point", "coordinates": [-82.3473, 27.339] }},
{"zip_code":"34293","country":"US","city":"Venice","state":"Florida","state_ab":"FL","county":"Sarasota","geo_location":{ "type": "Point", "coordinates": [-82.352, 27.0606] }},
{"zip_code":"32750","country":"US","city":"Longwood","state":"Florida","state_ab":"FL","county":"Seminole","geo_location":{ "type": "Point", "coordinates": [-81.3552, 28.712] }},
{"zip_code":"32026","country":"US","city":"Raiford","state":"Florida","state_ab":"FL","county":"Union County","geo_location":{ "type": "Point", "coordinates": [-82.1927, 30.0699] }},
{"zip_code":"32116","country":"US","city":"Daytona Beach","state":"Florida","state_ab":"FL","county":"Volusia","geo_location":{ "type": "Point", "coordinates": [-80.9843, 29.1091] }},
{"zip_code":"32129","country":"US","city":"Port Orange","state":"Florida","state_ab":"FL","county":"Volusia","geo_location":{ "type": "Point", "coordinates": [-81.0241, 29.1372] }},
{"zip_code":"32130","country":"US","city":"De Leon Springs","state":"Florida","state_ab":"FL","county":"Volusia","geo_location":{ "type": "Point", "coordinates": [-81.3488, 29.1166] }},
{"zip_code":"32169","country":"US","city":"New Smyrna Beach","state":"Florida","state_ab":"FL","county":"Volusia","geo_location":{ "type": "Point", "coordinates": [-80.8885, 29.0172] }},
{"zip_code":"32170","country":"US","city":"New Smyrna Beach","state":"Florida","state_ab":"FL","county":"Volusia","geo_location":{ "type": "Point", "coordinates": [-81.1722, 29.0227] }},
{"zip_code":"32723","country":"US","city":"Deland","state":"Florida","state_ab":"FL","county":"Volusia County","geo_location":{ "type": "Point", "coordinates": [-81.3068, 29.0275] }},
{"zip_code":"32763","country":"US","city":"Orange City","state":"Florida","state_ab":"FL","county":"Volusia","geo_location":{ "type": "Point", "coordinates": [-81.2995, 28.9453] }},
{"zip_code":"32439","country":"US","city":"Freeport","state":"Florida","state_ab":"FL","county":"Walton","geo_location":{ "type": "Point", "coordinates": [-86.1684, 30.4896] }},
{"zip_code":"31513","country":"US","city":"Baxley","state":"Georgia","state_ab":"GA","county":"Appling","geo_location":{ "type": "Point", "coordinates": [-82.3486, 31.7837] }},
{"zip_code":"30666","country":"US","city":"Statham","state":"Georgia","state_ab":"GA","county":"Barrow","geo_location":{ "type": "Point", "coordinates": [-83.5893, 33.9602] }},
{"zip_code":"30680","country":"US","city":"Winder","state":"Georgia","state_ab":"GA","county":"Barrow","geo_location":{ "type": "Point", "coordinates": [-83.7115, 33.9985] }},
{"zip_code":"30123","country":"US","city":"Cassville","state":"Georgia","state_ab":"GA","county":"Bartow","geo_location":{ "type": "Point", "coordinates": [-84.8457, 34.2442] }},
{"zip_code":"31203","country":"US","city":"Macon","state":"Georgia","state_ab":"GA","county":"Bibb","geo_location":{ "type": "Point", "coordinates": [-83.6913, 32.8067] }},
{"zip_code":"31216","country":"US","city":"Macon","state":"Georgia","state_ab":"GA","county":"Bibb","geo_location":{ "type": "Point", "coordinates": [-83.7477, 32.7486] }},
{"zip_code":"31296","country":"US","city":"Macon","state":"Georgia","state_ab":"GA","county":"Bibb","geo_location":{ "type": "Point", "coordinates": [-83.6913, 32.8067] }},
{"zip_code":"31553","country":"US","city":"Nahunta","state":"Georgia","state_ab":"GA","county":"Brantley","geo_location":{ "type": "Point", "coordinates": [-81.9722, 31.1827] }},
{"zip_code":"31566","country":"US","city":"Waynesville","state":"Georgia","state_ab":"GA","county":"Brantley","geo_location":{ "type": "Point", "coordinates": [-81.8039, 31.2448] }},
{"zip_code":"31629","country":"US","city":"Dixie","state":"Georgia","state_ab":"GA","county":"Brooks","geo_location":{ "type": "Point", "coordinates": [-83.6792, 30.7722] }},
{"zip_code":"31643","country":"US","city":"Quitman","state":"Georgia","state_ab":"GA","county":"Brooks","geo_location":{ "type": "Point", "coordinates": [-83.5567, 30.7797] }},
{"zip_code":"31720","country":"US","city":"Barwick","state":"Georgia","state_ab":"GA","county":"Brooks","geo_location":{ "type": "Point", "coordinates": [-83.5265, 30.8566] }},
{"zip_code":"30459","country":"US","city":"Statesboro","state":"Georgia","state_ab":"GA","county":"Bulloch","geo_location":{ "type": "Point", "coordinates": [-81.7777, 32.447] }},
{"zip_code":"30460","country":"US","city":"Statesboro","state":"Georgia","state_ab":"GA","county":"Bulloch","geo_location":{ "type": "Point", "coordinates": [-81.7823, 32.4179] }},
{"zip_code":"31746","country":"US","city":"Edison","state":"Georgia","state_ab":"GA","county":"Calhoun","geo_location":{ "type": "Point", "coordinates": [-84.7456, 31.565] }},
{"zip_code":"30109","country":"US","city":"Bowdon Junction","state":"Georgia","state_ab":"GA","county":"Carroll","geo_location":{ "type": "Point", "coordinates": [-85.1362, 33.6534] }},
{"zip_code":"30150","country":"US","city":"Mount Zion","state":"Georgia","state_ab":"GA","county":"Carroll","geo_location":{ "type": "Point", "coordinates": [-85.1818, 33.643] }},
{"zip_code":"31409","country":"US","city":"Savannah","state":"Georgia","state_ab":"GA","county":"Chatham","geo_location":{ "type": "Point", "coordinates": [-81.157, 32.0093] }},
{"zip_code":"31410","country":"US","city":"Savannah","state":"Georgia","state_ab":"GA","county":"Chatham","geo_location":{ "type": "Point", "coordinates": [-80.997, 32.0175] }},
{"zip_code":"30730","country":"US","city":"Lyerly","state":"Georgia","state_ab":"GA","county":"Chattooga","geo_location":{ "type": "Point", "coordinates": [-85.4038, 34.403] }},
{"zip_code":"30189","country":"US","city":"Woodstock","state":"Georgia","state_ab":"GA","county":"Cherokee","geo_location":{ "type": "Point", "coordinates": [-84.5717, 34.1281] }},
{"zip_code":"30613","country":"US","city":"Athens","state":"Georgia","state_ab":"GA","county":"Clarke","geo_location":{ "type": "Point", "coordinates": [-83.3983, 33.9624] }},
{"zip_code":"39823","country":"US","city":"Blakely","state":"Georgia","state_ab":"GA","county":"Clay County","geo_location":{ "type": "Point", "coordinates": [-84.9353, 31.3791] }},
{"zip_code":"39836","country":"US","city":"Coleman","state":"Georgia","state_ab":"GA","county":"Clay County","geo_location":{ "type": "Point", "coordinates": [-84.8903, 31.6726] }},
{"zip_code":"30239","country":"US","city":"Alpharetta","state":"Georgia","state_ab":"GA","county":"Clayton County","geo_location":{ "type": "Point", "coordinates": [-84.2887, 34.0703] }},
{"zip_code":"31630","country":"US","city":"Du Pont","state":"Georgia","state_ab":"GA","county":"Clinch","geo_location":{ "type": "Point", "coordinates": [-82.8555, 31.0] }},
{"zip_code":"30006","country":"US","city":"Marietta","state":"Georgia","state_ab":"GA","county":"Cobb","geo_location":{ "type": "Point", "coordinates": [-84.5572, 33.9125] }},
{"zip_code":"30020","country":"US","city":"Clarkdale","state":"Georgia","state_ab":"GA","county":"Cobb County","geo_location":{ "type": "Point", "coordinates": [-84.6496, 33.8307] }},
{"zip_code":"30059","country":"US","city":"Mableton","state":"Georgia","state_ab":"GA","county":"Cobb County","geo_location":{ "type": "Point", "coordinates": [-84.5618, 33.8153] }},
{"zip_code":"30060","country":"US","city":"Marietta","state":"Georgia","state_ab":"GA","county":"Cobb","geo_location":{ "type": "Point", "coordinates": [-84.5403, 33.9382] }},
{"zip_code":"30073","country":"US","city":"Decatur","state":"Georgia","state_ab":"GA","county":"Cobb County","geo_location":{ "type": "Point", "coordinates": [-84.2573, 33.7034] }},
{"zip_code":"31050","country":"US","city":"Knoxville","state":"Georgia","state_ab":"GA","county":"Crawford","geo_location":{ "type": "Point", "coordinates": [-83.9158, 32.7156] }},
{"zip_code":"31010","country":"US","city":"Cordele","state":"Georgia","state_ab":"GA","county":"Crisp","geo_location":{ "type": "Point", "coordinates": [-83.7854, 31.9172] }},
{"zip_code":"30033","country":"US","city":"Decatur","state":"Georgia","state_ab":"GA","county":"DeKalb","geo_location":{ "type": "Point", "coordinates": [-84.2819, 33.8123] }},
{"zip_code":"30086","country":"US","city":"Stone Mountain","state":"Georgia","state_ab":"GA","county":"DeKalb","geo_location":{ "type": "Point", "coordinates": [-84.0746, 33.8913] }},
{"zip_code":"30329","country":"US","city":"Atlanta","state":"Georgia","state_ab":"GA","county":"DeKalb","geo_location":{ "type": "Point", "coordinates": [-84.3214, 33.8236] }},
{"zip_code":"30356","country":"US","city":"Atlanta","state":"Georgia","state_ab":"GA","county":"DeKalb","geo_location":{ "type": "Point", "coordinates": [-84.0746, 33.8913] }},
{"zip_code":"31023","country":"US","city":"Eastman","state":"Georgia","state_ab":"GA","county":"Dodge","geo_location":{ "type": "Point", "coordinates": [-83.186, 32.2084] }},
{"zip_code":"31063","country":"US","city":"Montezuma","state":"Georgia","state_ab":"GA","county":"Dooly","geo_location":{ "type": "Point", "coordinates": [-84.0041, 32.3026] }},
{"zip_code":"31706","country":"US","city":"Albany","state":"Georgia","state_ab":"GA","county":"Dougherty","geo_location":{ "type": "Point", "coordinates": [-84.1765, 31.5593] }},
{"zip_code":"30149","country":"US","city":"Mount Berry","state":"Georgia","state_ab":"GA","county":"Floyd","geo_location":{ "type": "Point", "coordinates": [-85.1821, 34.2804] }},
{"zip_code":"30163","country":"US","city":"Rome","state":"Georgia","state_ab":"GA","county":"Floyd","geo_location":{ "type": "Point", "coordinates": [-85.2337, 34.3333] }},
{"zip_code":"30639","country":"US","city":"Franklin Springs","state":"Georgia","state_ab":"GA","county":"Franklin","geo_location":{ "type": "Point", "coordinates": [-83.147, 34.2743] }},
{"zip_code":"30213","country":"US","city":"Fairburn","state":"Georgia","state_ab":"GA","county":"Fulton","geo_location":{ "type": "Point", "coordinates": [-84.5809, 33.5648] }},
{"zip_code":"30303","country":"US","city":"Atlanta","state":"Georgia","state_ab":"GA","county":"Fulton","geo_location":{ "type": "Point", "coordinates": [-84.3888, 33.7525] }},
{"zip_code":"30316","country":"US","city":"Atlanta","state":"Georgia","state_ab":"GA","county":"Fulton","geo_location":{ "type": "Point", "coordinates": [-84.3339, 33.7217] }},
{"zip_code":"30330","country":"US","city":"Atlanta","state":"Georgia","state_ab":"GA","county":"Fulton","geo_location":{ "type": "Point", "coordinates": [-84.4321, 33.7071] }},
{"zip_code":"30343","country":"US","city":"Atlanta","state":"Georgia","state_ab":"GA","county":"Fulton","geo_location":{ "type": "Point", "coordinates": [-84.4741, 33.8444] }},
{"zip_code":"30369","country":"US","city":"Atlanta","state":"Georgia","state_ab":"GA","county":"Fulton","geo_location":{ "type": "Point", "coordinates": [-84.4741, 33.8444] }},
{"zip_code":"30370","country":"US","city":"Atlanta","state":"Georgia","state_ab":"GA","county":"Fulton","geo_location":{ "type": "Point", "coordinates": [-84.4741, 33.8444] }},
{"zip_code":"30383","country":"US","city":"Atlanta","state":"Georgia","state_ab":"GA","county":"Fulton County","geo_location":{ "type": "Point", "coordinates": [-84.3879, 33.7487] }},
{"zip_code":"30396","country":"US","city":"Atlanta","state":"Georgia","state_ab":"GA","county":"Fulton","geo_location":{ "type": "Point", "coordinates": [-84.4741, 33.8444] }},
{"zip_code":"31126","country":"US","city":"Atlanta","state":"Georgia","state_ab":"GA","county":"Fulton","geo_location":{ "type": "Point", "coordinates": [-84.4741, 33.8444] }},
{"zip_code":"31139","country":"US","city":"Atlanta","state":"Georgia","state_ab":"GA","county":"Fulton","geo_location":{ "type": "Point", "coordinates": [-84.4741, 33.8444] }},
{"zip_code":"31180","country":"US","city":"Atlanta","state":"Georgia","state_ab":"GA","county":"Fulton County","geo_location":{ "type": "Point", "coordinates": [-84.4226, 33.7629] }},
{"zip_code":"31193","country":"US","city":"Atlanta","state":"Georgia","state_ab":"GA","county":"Fulton","geo_location":{ "type": "Point", "coordinates": [-84.4741, 33.8444] }},
{"zip_code":"30536","country":"US","city":"Ellijay","state":"Georgia","state_ab":"GA","county":"Gilmer County","geo_location":{ "type": "Point", "coordinates": [-84.3554, 34.655] }},
{"zip_code":"30820","country":"US","city":"Mitchell","state":"Georgia","state_ab":"GA","county":"Glascock","geo_location":{ "type": "Point", "coordinates": [-82.6817, 33.2052] }},
{"zip_code":"30703","country":"US","city":"Calhoun","state":"Georgia","state_ab":"GA","county":"Gordon","geo_location":{ "type": "Point", "coordinates": [-84.7622, 34.4791] }},
{"zip_code":"30019","country":"US","city":"Dacula","state":"Georgia","state_ab":"GA","county":"Gwinnett","geo_location":{ "type": "Point", "coordinates": [-83.8795, 33.9883] }},
{"zip_code":"30046","country":"US","city":"Lawrenceville","state":"Georgia","state_ab":"GA","county":"Gwinnett","geo_location":{ "type": "Point", "coordinates": [-83.9942, 33.9496] }},
{"zip_code":"30099","country":"US","city":"Duluth","state":"Georgia","state_ab":"GA","county":"Gwinnett","geo_location":{ "type": "Point", "coordinates": [-84.105, 33.9595] }},
{"zip_code":"30136","country":"US","city":"Duluth","state":"Georgia","state_ab":"GA","county":"Gwinnett County","geo_location":{ "type": "Point", "coordinates": [-84.1569, 33.985] }},
{"zip_code":"30226","country":"US","city":"Lilburn","state":"Georgia","state_ab":"GA","county":"Gwinnett County","geo_location":{ "type": "Point", "coordinates": [-84.1263, 33.9008] }},
{"zip_code":"30510","country":"US","city":"Alto","state":"Georgia","state_ab":"GA","county":"Habersham","geo_location":{ "type": "Point", "coordinates": [-83.602, 34.4591] }},
{"zip_code":"30523","country":"US","city":"Clarkesville","state":"Georgia","state_ab":"GA","county":"Habersham","geo_location":{ "type": "Point", "coordinates": [-83.5243, 34.645] }}]}